wall_time,gps_utc,gps_utc_type,msg_type,lat,lon,alt,fix_quality,num_sats,hdop,lat_err_m,lon_err_m,alt_err_m,heading_deg,speed_knots,speed_kmh,course_true_deg,rmc_status,raw_nmea,nearest_imu_wall_time,nearest_imu_timestamp_us,nearest_imu_dt_ms
1777580428.738575,73228.700000,tod,GGA,39.7384968317,-84.1759669350,242.3585,4,8,1.30,,,,,,,,,"$GPGGA,202028.70,3944.3098099,N,08410.5580161,W,4,08,1.3,242.3585,M,-33.3702,M,0.7,1564*7C",,,
1777580428.739488,,,HDT,,,,,,,,,,276.3320,,,,,"$GPHDT,276.332,T*34",,,
1777580428.740931,73228.700000,tod,GST,,,,,,,0.0130,0.0090,0.0230,,,,,,"$GPGST,202028.70,0.199,0.013,0.009,12.041,0.013,0.009,0.023*6C",,,
1777580428.838973,73228.800000,tod,GGA,39.7384968350,-84.1759669600,242.3536,4,8,1.30,,,,,,,,,"$GPGGA,202028.80,3944.3098101,N,08410.5580176,W,4,08,1.3,242.3536,M,-33.3702,M,0.8,1564*72",,,
1777580428.840031,,,HDT,,,,,,,,,,276.1330,,,,,"$GPHDT,276.133,T*37",,,
1777580428.841523,73228.800000,tod,GST,,,,,,,0.0130,0.0100,0.0240,,,,,,"$GPGST,202028.80,0.199,0.014,0.009,15.329,0.013,0.010,0.024*61",,,
1777580428.939042,73228.900000,tod,GGA,39.7384968450,-84.1759669433,242.3607,4,8,1.30,,,,,,,,,"$GPGGA,202028.90,3944.3098107,N,08410.5580166,W,4,08,1.3,242.3607,M,-33.3702,M,0.9,1564*74",,,
1777580428.940009,,,HDT,,,,,,,,,,276.1700,,,,,"$GPHDT,276.170,T*30",,,
1777580428.941492,73228.900000,tod,GST,,,,,,,0.0130,0.0100,0.0240,,,,,,"$GPGST,202028.90,0.199,0.013,0.009,16.667,0.013,0.010,0.024*6B",,,
1777580429.039456,73229.000000,tod,GGA,39.7384968333,-84.1759669400,242.3627,4,8,1.30,,,,,,,,,"$GPGGA,202029.00,3944.3098100,N,08410.5580164,W,4,08,1.3,242.3627,M,-33.3702,M,1.0,1564*73",,,
1777580429.040513,,,HDT,,,,,,,,,,276.3020,,,,,"$GPHDT,276.302,T*37",,,
1777580429.042007,73229.000000,tod,GST,,,,,,,0.0120,0.0090,0.0220,,,,,,"$GPGST,202029.00,0.199,0.013,0.009,15.886,0.012,0.009,0.022*6E",,,
1777580429.140074,73229.100000,tod,GGA,39.7384968183,-84.1759669467,242.3579,4,8,1.30,,,,,,,,,"$GPGGA,202029.10,3944.3098091,N,08410.5580168,W,4,08,1.3,242.3579,M,-33.3702,M,1.1,1564*7E",,,
1777580429.141066,,,HDT,,,,,,,,,,276.3830,,,,,"$GPHDT,276.383,T*3E",,,
1777580429.142498,73229.100000,tod,GST,,,,,,,0.0120,0.0090,0.0220,,,,,,"$GPGST,202029.10,0.205,0.012,0.009,15.975,0.012,0.009,0.022*65",,,
1777580429.239925,73229.200000,tod,GGA,39.7384967883,-84.1759669583,242.3530,4,8,1.30,,,,,,,,,"$GPGGA,202029.20,3944.3098073,N,08410.5580175,W,4,08,1.3,242.3530,M,-33.3702,M,1.2,1564*73",,,
1777580429.240801,,,HDT,,,,,,,,,,276.5990,,,,,"$GPHDT,276.599,T*33",,,
1777580429.242205,73229.200000,tod,GST,,,,,,,0.0120,0.0090,0.0220,,,,,,"$GPGST,202029.20,0.205,0.012,0.009,15.844,0.012,0.009,0.022*65",,,
1777580429.338352,73229.300000,tod,GGA,,,,0,0,21.50,,,,,,,,,"$GPGGA,202029.30,,,,,0,00,21.5,,M,,M,,*58",,,
1777580429.339208,,,HDT,,,,,,,,,,,,,,,"$GPHDT,,T*1B",,,
1777580429.340015,73229.300000,tod,GST,,,,,,,,,,,,,,,"$GPGST,202029.30,,,,,,,*71",,,
1777580429.437073,73229.400000,tod,GGA,,,,0,0,1.30,,,,,,,,,"$GPGGA,202029.40,,,,,0,00,1.3,,M,,M,,*6B",,,
1777580429.437843,,,HDT,,,,,,,,,,,,,,,"$GPHDT,,T*1B",,,
1777580429.438629,73229.400000,tod,GST,,,,,,,,,,,,,,,"$GPGST,202029.40,,,,,,,*76",,,
1777580429.537730,73229.500000,tod,GGA,,,,0,0,1.30,,,,,,,,,"$GPGGA,202029.50,,,,,0,00,1.3,,M,,M,,*6A",,,
1777580429.538325,,,HDT,,,,,,,,,,,,,,,"$GPHDT,,T*1B",,,
1777580429.539261,73229.500000,tod,GST,,,,,,,,,,,,,,,"$GPGST,202029.50,,,,,,,*77",,,
1777580429.638807,73229.600000,tod,GGA,39.7384966350,-84.1759670217,242.2962,4,7,1.80,,,,,,,,,"$GPGGA,202029.60,3944.3097981,N,08410.5580213,W,4,07,1.8,242.2962,M,-33.3702,M,0.6,1564*74",,,
1777580429.639817,,,HDT,,,,,,,,,,276.9320,,,,,"$GPHDT,276.932,T*3E",,,
1777580429.641199,73229.600000,tod,GST,,,,,,,0.0210,0.0170,0.0260,,,,,,"$GPGST,202029.60,0.160,0.021,0.017,1.560,0.021,0.017,0.026*5B",,,
1777580429.738814,73229.700000,tod,GGA,39.7384966400,-84.1759669983,242.3103,4,7,1.80,,,,,,,,,"$GPGGA,202029.70,3944.3097984,N,08410.5580199,W,4,07,1.8,242.3103,M,-33.3702,M,0.7,1564*7E",,,
1777580429.739766,,,HDT,,,,,,,,,,277.1340,,,,,"$GPHDT,277.134,T*31",,,
1777580429.741160,73229.700000,tod,GST,,,,,,,0.0170,0.0110,0.0260,,,,,,"$GPGST,202029.70,0.160,0.017,0.011,2.352,0.017,0.011,0.026*5E",,,
1777580429.838087,73229.800000,tod,GGA,39.7384966467,-84.1759666767,242.5422,2,11,1.40,,,,,,,,,"$GPGGA,202029.80,3944.3097988,N,08410.5580006,W,2,11,1.4,242.5422,M,-33.3702,M,0.8,1564*78",,,
1777580429.838830,,,HDT,,,,,,,,,,,,,,,"$GPHDT,,T*1B",,,
1777580429.840353,73229.800000,tod,GST,,,,,,,0.0660,0.0760,0.1470,,,,,,"$GPGST,202029.80,0.160,0.076,0.066,87.012,0.066,0.076,0.147*6D",,,
1777580429.937712,73229.900000,tod,GGA,39.7384966817,-84.1759668317,242.5427,2,13,1.00,,,,,,,,,"$GPGGA,202029.90,3944.3098009,N,08410.5580099,W,2,13,1.0,242.5427,M,-33.3702,M,0.9,1564*72",,,
1777580429.938536,,,HDT,,,,,,,,,,,,,,,"$GPHDT,,T*1B",,,
1777580429.940036,73229.900000,tod,GST,,,,,,,0.0660,0.0760,0.1470,,,,,,"$GPGST,202029.90,0.160,0.076,0.066,87.012,0.066,0.076,0.147*6C",,,
1777580430.039278,73230.000000,tod,GGA,39.7384966767,-84.1759668033,242.4629,2,13,1.00,,,,,,,,,"$GPGGA,202030.00,3944.3098006,N,08410.5580082,W,2,13,1.0,242.4629,M,-33.3702,M,1.0,1564*73",,,
1777580430.040146,,,HDT,,,,,,,,,,,,,,,"$GPHDT,,T*1B",,,
1777580430.041638,73230.000000,tod,GST,,,,,,,0.2910,0.3080,0.6430,,,,,,"$GPGST,202030.00,0.160,0.311,0.288,291.684,0.291,0.308,0.643*52",,,
1777580430.138650,73230.100000,tod,GGA,39.7384967333,-84.1759665583,242.5906,2,14,1.00,,,,,,,,,"$GPGGA,202030.10,3944.3098040,N,08410.5579935,W,2,14,1.0,242.5906,M,-33.3702,M,1.1,1564*76",,,
1777580430.139572,,,HDT,,,,,,,,,,,,,,,"$GPHDT,,T*1B",,,
1777580430.140970,73230.100000,tod,GST,,,,,,,0.0660,0.0740,0.1580,,,,,,"$GPGST,202030.10,0.188,0.074,0.066,271.937,0.066,0.074,0.158*51",,,
1777580430.238894,73230.200000,tod,GGA,39.7384967750,-84.1759667533,242.8242,2,12,1.10,,,,,,,,,"$GPGGA,202030.20,3944.3098065,N,08410.5580052,W,2,12,1.1,242.8242,M,-33.3702,M,1.2,1564*7E",,,
1777580430.239770,,,HDT,,,,,,,,,,,,,,,"$GPHDT,,T*1B",,,
1777580430.241197,73230.200000,tod,GST,,,,,,,0.0660,0.0780,0.1840,,,,,,"$GPGST,202030.20,0.188,0.078,0.066,271.356,0.066,0.078,0.184*5E",,,
1777580430.338207,73230.300000,tod,GGA,39.7384969233,-84.1759670067,243.0125,2,16,0.80,,,,,,,,,"$GPGGA,202030.30,3944.3098154,N,08410.5580204,W,2,16,0.8,243.0125,M,-33.3702,M,1.3,1564*7B",,,
1777580430.339066,,,HDT,,,,,,,,,,,,,,,"$GPHDT,,T*1B",,,
1777580430.340537,73230.300000,tod,GST,,,,,,,0.0660,0.0780,0.1840,,,,,,"$GPGST,202030.30,0.188,0.078,0.066,271.356,0.066,0.078,0.184*5F",,,
1777580430.438247,73230.400000,tod,GGA,39.7384968567,-84.1759672800,243.0941,2,15,0.80,,,,,,,,,"$GPGGA,202030.40,3944.3098114,N,08410.5580368,W,2,15,0.8,243.0941,M,-33.3702,M,1.4,1564*7D",,,
1777580430.439114,,,HDT,,,,,,,,,,,,,,,"$GPHDT,,T*1B",,,
1777580430.440552,73230.400000,tod,GST,,,,,,,0.0660,0.0780,0.1840,,,,,,"$GPGST,202030.40,0.188,0.078,0.066,271.356,0.066,0.078,0.184*58",,,
1777580430.540012,73230.500000,tod,GGA,39.7384970150,-84.1759672750,243.2294,2,15,0.80,,,,,,,,,"$GPGGA,202030.50,3944.3098209,N,08410.5580365,W,2,15,0.8,243.2294,M,-33.3702,M,1.5,1564*7E",,,
1777580430.540740,,,HDT,,,,,,,,,,,,,,,"$GPHDT,,T*1B",,,
1777580430.542157,73230.500000,tod,GST,,,,,,,0.0660,0.0780,0.1840,,,,,,"$GPGST,202030.50,0.188,0.078,0.066,271.356,0.066,0.078,0.184*59",,,
1777580430.639417,73230.600000,tod,GGA,39.7384969917,-84.1759668450,242.3906,5,6,2.60,,,,,,,,,"$GPGGA,202030.60,3944.3098195,N,08410.5580107,W,5,06,2.6,242.3906,M,-33.3702,M,0.6,1564*76",,,
1777580430.640147,,,HDT,,,,,,,,,,,,,,,"$GPHDT,,T*1B",,,
1777580430.641498,73230.600000,tod,GST,,,,,,,0.0170,0.0150,0.0320,,,,,,"$GPGST,202030.60,0.206,0.018,0.014,28.628,0.017,0.015,0.032*6F",,,
1777580430.738258,73230.700000,tod,GGA,39.7384972233,-84.1759668650,242.4107,5,6,2.60,,,,,,,,,"$GPGGA,202030.70,3944.3098334,N,08410.5580119,W,5,06,2.6,242.4107,M,-33.3702,M,0.7,1564*7E",,,
1777580430.739162,,,HDT,,,,,,,,,,,,,,,"$GPHDT,,T*1B",,,
1777580430.740597,73230.700000,tod,GST,,,,,,,0.0180,0.0160,0.0380,,,,,,"$GPGST,202030.70,0.206,0.019,0.014,33.674,0.018,0.016,0.038*6A",,,
1777580430.838779,73230.800000,tod,GGA,39.7384975050,-84.1759669200,242.4107,5,6,2.60,,,,,,,,,"$GPGGA,202030.80,3944.3098503,N,08410.5580152,W,5,06,2.6,242.4107,M,-33.3702,M,0.8,1564*73",,,
1777580430.839653,,,HDT,,,,,,,,,,,,,,,"$GPHDT,,T*1B",,,
1777580430.841038,73230.800000,tod,GST,,,,,,,0.0180,0.0160,0.0390,,,,,,"$GPGST,202030.80,0.206,0.020,0.015,34.913,0.018,0.016,0.039*66",,,
1777580430.938571,73230.900000,tod,GGA,39.7384977950,-84.1759670867,242.4184,5,6,2.60,,,,,,,,,"$GPGGA,202030.90,3944.3098677,N,08410.5580252,W,5,06,2.6,242.4184,M,-33.3702,M,0.9,1564*7B",,,
1777580430.939439,,,HDT,,,,,,,,,,,,,,,"$GPHDT,,T*1B",,,
1777580430.940853,73230.900000,tod,GST,,,,,,,0.0180,0.0170,0.0400,,,,,,"$GPGST,202030.90,0.206,0.020,0.015,35.440,0.018,0.017,0.040*62",,,
1777580431.038603,73231.000000,tod,GGA,39.7384982050,-84.1759672233,242.4185,5,6,2.60,,,,,,,,,"$GPGGA,202031.00,3944.3098923,N,08410.5580334,W,5,06,2.6,242.4185,M,-33.3702,M,1.0,1564*75",,,
1777580431.039570,,,HDT,,,,,,,,,,,,,,,"$GPHDT,,T*1B",,,
1777580431.041009,73231.000000,tod,GST,,,,,,,0.0190,0.0170,0.0410,,,,,,"$GPGST,202031.00,0.206,0.020,0.015,35.645,0.019,0.017,0.041*6D",,,
1777580431.138308,73231.100000,tod,GGA,39.7384985467,-84.1759675750,242.3651,4,7,1.80,,,,,,,,,"$GPGGA,202031.10,3944.3099128,N,08410.5580545,W,4,07,1.8,242.3651,M,-33.3702,M,1.1,1564*73",,,
1777580431.139117,,,HDT,,,,,,,,,,,,,,,"$GPHDT,,T*1B",,,
1777580431.140608,73231.100000,tod,GST,,,,,,,0.0190,0.0120,0.0300,,,,,,"$GPGST,202031.10,0.240,0.019,0.012,2.473,0.019,0.012,0.030*53",,,
1777580431.237576,73231.200000,tod,GGA,39.7384989517,-84.1759678667,242.3570,4,7,1.80,,,,,,,,,"$GPGGA,202031.20,3944.3099371,N,08410.5580720,W,4,07,1.8,242.3570,M,-33.3702,M,1.2,1564*7C",,,
1777580431.238392,,,HDT,,,,,,,,,,,,,,,"$GPHDT,,T*1B",,,
1777580431.239832,73231.200000,tod,GST,,,,,,,0.0200,0.0130,0.0310,,,,,,"$GPGST,202031.20,0.240,0.020,0.013,2.193,0.020,0.013,0.031*5A",,,
1777580431.337423,73231.300000,tod,GGA,39.7384993667,-84.1759681167,242.3639,4,7,1.80,,,,,,,,,"$GPGGA,202031.30,3944.3099620,N,08410.5580870,W,4,07,1.8,242.3639,M,-33.3702,M,1.3,1564*79",,,
1777580431.338329,,,HDT,,,,,,,,,,,,,,,"$GPHDT,,T*1B",,,
1777580431.339811,73231.300000,tod,GST,,,,,,,0.0200,0.0130,0.0310,,,,,,"$GPGST,202031.30,0.240,0.020,0.013,1.640,0.020,0.013,0.031*51",,,
1777580431.438399,73231.400000,tod,GGA,39.7384999067,-84.1759682000,242.3616,4,7,1.80,,,,,,,,,"$GPGGA,202031.40,3944.3099944,N,08410.5580920,W,4,07,1.8,242.3616,M,-33.3702,M,1.4,1564*7D",,,
1777580431.439234,,,HDT,,,,,,,,,,,,,,,"$GPHDT,,T*1B",,,
1777580431.440599,73231.400000,tod,GST,,,,,,,0.0200,0.0130,0.0320,,,,,,"$GPGST,202031.40,0.240,0.020,0.013,2.327,0.020,0.013,0.032*52",,,
1777580431.539110,73231.500000,tod,GGA,39.7385004650,-84.1759684133,242.3570,4,7,1.80,,,,,,,,,"$GPGGA,202031.50,3944.3100279,N,08410.5581048,W,4,07,1.8,242.3570,M,-33.3702,M,1.5,1564*7C",,,
1777580431.540068,,,HDT,,,,,,,,,,,,,,,"$GPHDT,,T*1B",,,
1777580431.541435,73231.500000,tod,GST,,,,,,,0.0200,0.0130,0.0320,,,,,,"$GPGST,202031.50,0.240,0.020,0.013,2.733,0.020,0.013,0.032*52",,,
1777580431.638312,73231.600000,tod,GGA,39.7385005883,-84.1759686250,242.3554,4,7,1.80,,,,,,,,,"$GPGGA,202031.60,3944.3100353,N,08410.5581175,W,4,07,1.8,242.3554,M,-33.3702,M,0.6,1564*7D",,,
1777580431.639246,,,HDT,,,,,,,,,,,,,,,"$GPHDT,,T*1B",,,
1777580431.640620,73231.600000,tod,GST,,,,,,,0.0200,0.0130,0.0320,,,,,,"$GPGST,202031.60,0.390,0.020,0.013,2.508,0.020,0.013,0.032*57",,,
1777580431.738079,73231.700000,tod,GGA,39.7385009600,-84.1759688350,242.3455,4,7,1.80,,,,,,,,,"$GPGGA,202031.70,3944.3100576,N,08410.5581301,W,4,07,1.8,242.3455,M,-33.3702,M,0.7,1564*7D",,,
1777580431.738809,,,HDT,,,,,,,,,,,,,,,"$GPHDT,,T*1B",,,
1777580431.740316,73231.700000,tod,GST,,,,,,,0.0200,0.0130,0.0310,,,,,,"$GPGST,202031.70,0.390,0.020,0.013,2.025,0.020,0.013,0.031*5F",,,
1777580431.838375,73231.800000,tod,GGA,39.7385015050,-84.1759690600,242.3598,4,7,1.80,,,,,,,,,"$GPGGA,202031.80,3944.3100903,N,08410.5581436,W,4,07,1.8,242.3598,M,-33.3702,M,0.8,1564*70",,,
1777580431.839200,,,HDT,,,,,,,,,,,,,,,"$GPHDT,,T*1B",,,
1777580431.840553,73231.800000,tod,GST,,,,,,,0.0200,0.0130,0.0310,,,,,,"$GPGST,202031.80,0.390,0.020,0.013,2.059,0.020,0.013,0.031*5B",,,
1777580431.938754,73231.900000,tod,GGA,39.7385020433,-84.1759693950,242.3509,4,7,1.80,,,,,,,,,"$GPGGA,202031.90,3944.3101226,N,08410.5581637,W,4,07,1.8,242.3509,M,-33.3702,M,0.9,1564*76",,,
1777580431.939530,,,HDT,,,,,,,,,,,,,,,"$GPHDT,,T*1B",,,
1777580431.940951,73231.900000,tod,GST,,,,,,,0.0190,0.0130,0.0310,,,,,,"$GPGST,202031.90,0.390,0.019,0.013,2.789,0.019,0.013,0.031*50",,,
1777580432.039604,73232.000000,tod,GGA,39.7385025717,-84.1759695967,242.3460,4,7,1.80,,,,,,,,,"$GPGGA,202032.00,3944.3101543,N,08410.5581758,W,4,07,1.8,242.3460,M,-33.3702,M,1.0,1564*76",,,
1777580432.040525,,,HDT,,,,,,,,,,,,,,,"$GPHDT,,T*1B",,,
1777580432.041904,73232.000000,tod,GST,,,,,,,0.0190,0.0120,0.0300,,,,,,"$GPGST,202032.00,0.390,0.019,0.012,2.901,0.019,0.012,0.030*55",,,
1777580432.140310,73232.100000,tod,GGA,39.7385031633,-84.1759699233,242.3565,4,7,1.80,,,,,,,,,"$GPGGA,202032.10,3944.3101898,N,08410.5581954,W,4,07,1.8,242.3565,M,-33.3702,M,1.1,1564*7B",,,
1777580432.141175,,,HDT,,,,,,,,,,265.6170,,,,,"$GPHDT,265.617,T*34",,,
1777580432.142593,73232.100000,tod,GST,,,,,,,0.0190,0.0120,0.0290,,,,,,"$GPGST,202032.10,0.359,0.019,0.012,3.050,0.019,0.012,0.029*55",,,
1777580432.238779,73232.200000,tod,GGA,39.7385037867,-84.1759702583,242.3499,4,7,1.80,,,,,,,,,"$GPGGA,202032.20,3944.3102272,N,08410.5582155,W,4,07,1.8,242.3499,M,-33.3702,M,1.2,1564*7E",,,
1777580432.239687,,,HDT,,,,,,,,,,264.5930,,,,,"$GPHDT,264.593,T*3A",,,
1777580432.241087,73232.200000,tod,GST,,,,,,,0.0180,0.0120,0.0300,,,,,,"$GPGST,202032.20,0.359,0.019,0.012,3.770,0.018,0.012,0.030*5A",,,
1777580432.339288,73232.300000,tod,GGA,39.7385041833,-84.1759706117,242.3425,4,7,1.80,,,,,,,,,"$GPGGA,202032.30,3944.3102510,N,08410.5582367,W,4,07,1.8,242.3425,M,-33.3702,M,1.3,1564*79",,,
1777580432.340132,,,HDT,,,,,,,,,,265.4510,,,,,"$GPHDT,265.451,T*34",,,
1777580432.341533,73232.300000,tod,GST,,,,,,,0.0180,0.0120,0.0300,,,,,,"$GPGST,202032.30,0.359,0.018,0.012,4.390,0.018,0.012,0.030*57",,,
1777580432.439903,73232.400000,tod,GGA,39.7385048217,-84.1759710033,242.3490,4,7,1.80,,,,,,,,,"$GPGGA,202032.40,3944.3102893,N,08410.5582602,W,4,07,1.8,242.3490,M,-33.3702,M,1.4,1564*77",,,
1777580432.440742,,,HDT,,,,,,,,,,263.7470,,,,,"$GPHDT,263.747,T*36",,,
1777580432.442075,73232.400000,tod,GST,,,,,,,0.0180,0.0130,0.0300,,,,,,"$GPGST,202032.40,0.359,0.018,0.013,5.932,0.018,0.013,0.030*53",,,
1777580432.540347,73232.500000,tod,GGA,39.7385054500,-84.1759711467,242.3487,4,7,1.80,,,,,,,,,"$GPGGA,202032.50,3944.3103270,N,08410.5582688,W,4,07,1.8,242.3487,M,-33.3702,M,1.5,1564*75",,,
1777580432.541287,,,HDT,,,,,,,,,,263.4370,,,,,"$GPHDT,263.437,T*32",,,
1777580432.542714,73232.500000,tod,GST,,,,,,,0.0180,0.0130,0.0310,,,,,,"$GPGST,202032.50,0.359,0.018,0.013,7.817,0.018,0.013,0.031*57",,,
1777580432.639876,73232.600000,tod,GGA,39.7385061983,-84.1759715000,242.3675,4,9,1.40,,,,,,,,,"$GPGGA,202032.60,3944.3103719,N,08410.5582900,W,4,09,1.4,242.3675,M,-33.3702,M,0.6,1564*7C",,,
1777580432.640953,,,HDT,,,,,,,,,,262.8670,,,,,"$GPHDT,262.867,T*3A",,,
1777580432.642906,73232.600000,tod,GST,,,,,,,0.0180,0.0120,0.0280,,,,,,"$GPGST,202032.60,0.341,0.018,0.012,7.743,0.018,0.012,0.028*5B",,,
1777580432.739453,73232.700000,tod,GGA,39.7385068517,-84.1759719883,242.3436,4,9,1.40,,,,,,,,,"$GPGGA,202032.70,3944.3104111,N,08410.5583193,W,4,09,1.4,242.3436,M,-33.3702,M,0.7,1564*73",,,
1777580432.740510,,,HDT,,,,,,,,,,261.0930,,,,,"$GPHDT,261.093,T*3A",,,
1777580432.741898,73232.700000,tod,GST,,,,,,,0.0180,0.0120,0.0280,,,,,,"$GPGST,202032.70,0.341,0.018,0.012,7.847,0.018,0.012,0.028*51",,,
1777580432.839667,73232.800000,tod,GGA,39.7385074667,-84.1759723367,242.3446,4,9,1.40,,,,,,,,,"$GPGGA,202032.80,3944.3104480,N,08410.5583402,W,4,09,1.4,242.3446,M,-33.3702,M,0.8,1564*74",,,
1777580432.840627,,,HDT,,,,,,,,,,260.4110,,,,,"$GPHDT,260.411,T*35",,,
1777580432.842069,73232.800000,tod,GST,,,,,,,0.0180,0.0110,0.0270,,,,,,"$GPGST,202032.80,0.341,0.018,0.011,7.111,0.018,0.011,0.027*5B",,,
1777580432.939902,73232.900000,tod,GGA,39.7385080717,-84.1759726250,242.3346,4,9,1.40,,,,,,,,,"$GPGGA,202032.90,3944.3104843,N,08410.5583575,W,4,09,1.4,242.3346,M,-33.3702,M,0.9,1564*71",,,
1777580432.940790,,,HDT,,,,,,,,,,258.9640,,,,,"$GPHDT,258.964,T*31",,,
1777580432.942150,73232.900000,tod,GST,,,,,,,0.0180,0.0110,0.0260,,,,,,"$GPGST,202032.90,0.341,0.018,0.011,7.273,0.018,0.011,0.026*5C",,,
1777580433.040679,73233.000000,tod,GGA,39.7385086667,-84.1759729167,242.3393,4,9,1.40,,,,,,,,,"$GPGGA,202033.00,3944.3105200,N,08410.5583750,W,4,09,1.4,242.3393,M,-33.3702,M,1.0,1564*70",,,
1777580433.041649,,,HDT,,,,,,,,,,258.6060,,,,,"$GPHDT,258.606,T*3A",,,
1777580433.043117,73233.000000,tod,GST,,,,,,,0.0180,0.0110,0.0260,,,,,,"$GPGST,202033.00,0.341,0.018,0.011,8.372,0.018,0.011,0.026*5B",,,
1777580433.139400,73233.100000,tod,GGA,39.7385094133,-84.1759732050,242.3575,4,9,1.30,,,,,,,,,"$GPGGA,202033.10,3944.3105648,N,08410.5583923,W,4,09,1.3,242.3575,M,-33.3702,M,1.1,1564*7B",,,
1777580433.140467,,,HDT,,,,,,,,,,257.8920,,,,,"$GPHDT,257.892,T*36",,,
1777580433.141953,73233.100000,tod,GST,,,,,,,0.0170,0.0100,0.0240,,,,,,"$GPGST,202033.10,0.373,0.017,0.010,8.236,0.017,0.010,0.024*58",,,
1777580433.240239,73233.200000,tod,GGA,39.7385099833,-84.1759735300,242.3588,4,9,1.30,,,,,,,,,"$GPGGA,202033.20,3944.3105990,N,08410.5584118,W,4,09,1.3,242.3588,M,-33.3702,M,1.2,1564*74",,,
1777580433.241208,,,HDT,,,,,,,,,,258.0890,,,,,"$GPHDT,258.089,T*3B",,,
1777580433.242681,73233.200000,tod,GST,,,,,,,0.0160,0.0100,0.0240,,,,,,"$GPGST,202033.20,0.373,0.017,0.010,9.480,0.016,0.010,0.024*50",,,
1777580433.339385,73233.300000,tod,GGA,39.7385104750,-84.1759738250,242.3370,4,9,1.30,,,,,,,,,"$GPGGA,202033.30,3944.3106285,N,08410.5584295,W,4,09,1.3,242.3370,M,-33.3702,M,1.3,1564*7F",,,
1777580433.340343,,,HDT,,,,,,,,,,258.7040,,,,,"$GPHDT,258.704,T*39",,,
1777580433.341795,73233.300000,tod,GST,,,,,,,0.0160,0.0100,0.0240,,,,,,"$GPGST,202033.30,0.373,0.016,0.010,9.778,0.016,0.010,0.024*54",,,
1777580433.439250,73233.400000,tod,GGA,39.7385110833,-84.1759740767,242.3317,4,9,1.30,,,,,,,,,"$GPGGA,202033.40,3944.3106650,N,08410.5584446,W,4,09,1.3,242.3317,M,-33.3702,M,1.4,1564*7A",,,
1777580433.440191,,,HDT,,,,,,,,,,259.2980,,,,,"$GPHDT,259.298,T*38",,,
1777580433.441685,73233.400000,tod,GST,,,,,,,0.0140,0.0090,0.0210,,,,,,"$GPGST,202033.40,0.373,0.014,0.009,6.996,0.014,0.009,0.021*57",,,
1777580433.539981,73233.500000,tod,GGA,39.7385118550,-84.1759743600,242.3421,4,9,1.30,,,,,,,,,"$GPGGA,202033.50,3944.3107113,N,08410.5584616,W,4,09,1.3,242.3421,M,-33.3702,M,1.5,1564*7E",,,
1777580433.541041,,,HDT,,,,,,,,,,259.7300,,,,,"$GPHDT,259.730,T*3F",,,
1777580433.542507,73233.500000,tod,GST,,,,,,,0.0130,0.0080,0.0190,,,,,,"$GPGST,202033.50,0.373,0.013,0.008,0.831,0.013,0.008,0.019*57",,,
1777580433.639293,73233.600000,tod,GGA,39.7385124567,-84.1759747050,242.3411,4,9,1.30,,,,,,,,,"$GPGGA,202033.60,3944.3107474,N,08410.5584823,W,4,09,1.3,242.3411,M,-33.3702,M,0.6,1564*70",,,
1777580433.640202,,,HDT,,,,,,,,,,260.6730,,,,,"$GPHDT,260.673,T*33",,,
1777580433.641676,73233.600000,tod,GST,,,,,,,0.0130,0.0070,0.0180,,,,,,"$GPGST,202033.60,0.418,0.013,0.007,355.429,0.013,0.007,0.018*59",,,
1777580433.739961,73233.700000,tod,GGA,39.7385131883,-84.1759750300,242.3487,4,9,1.30,,,,,,,,,"$GPGGA,202033.70,3944.3107913,N,08410.5585018,W,4,09,1.3,242.3487,M,-33.3702,M,0.7,1564*72",,,
1777580433.741173,,,HDT,,,,,,,,,,260.2060,,,,,"$GPHDT,260.206,T*35",,,
1777580433.742968,73233.700000,tod,GST,,,,,,,0.0120,0.0070,0.0180,,,,,,"$GPGST,202033.70,0.418,0.013,0.007,354.476,0.012,0.007,0.018*52",,,
1777580433.840402,73233.800000,tod,GGA,39.7385139667,-84.1759753383,242.3515,4,9,1.30,,,,,,,,,"$GPGGA,202033.80,3944.3108380,N,08410.5585203,W,4,09,1.3,242.3515,M,-33.3702,M,0.8,1564*7F",,,
1777580433.841574,,,HDT,,,,,,,,,,260.8410,,,,,"$GPHDT,260.841,T*3C",,,
1777580433.843208,73233.800000,tod,GST,,,,,,,0.0120,0.0070,0.0180,,,,,,"$GPGST,202033.80,0.418,0.012,0.007,353.409,0.012,0.007,0.018*53",,,
1777580433.939999,73233.900000,tod,GGA,39.7385147067,-84.1759757833,242.3422,4,9,1.30,,,,,,,,,"$GPGGA,202033.90,3944.3108824,N,08410.5585470,W,4,09,1.3,242.3422,M,-33.3702,M,0.9,1564*7D",,,
1777580433.940924,,,HDT,,,,,,,,,,260.5180,,,,,"$GPHDT,260.518,T*3D",,,
1777580433.942376,73233.900000,tod,GST,,,,,,,0.0120,0.0070,0.0180,,,,,,"$GPGST,202033.90,0.418,0.012,0.007,352.208,0.012,0.007,0.018*54",,,
1777580434.040083,73234.000000,tod,GGA,39.7385153683,-84.1759761300,242.3341,4,9,1.30,,,,,,,,,"$GPGGA,202034.00,3944.3109221,N,08410.5585678,W,4,09,1.3,242.3341,M,-33.3702,M,1.0,1564*7D",,,
1777580434.040981,,,HDT,,,,,,,,,,260.4360,,,,,"$GPHDT,260.436,T*30",,,
1777580434.042438,73234.000000,tod,GST,,,,,,,0.0120,0.0070,0.0180,,,,,,"$GPGST,202034.00,0.418,0.012,0.007,350.927,0.012,0.007,0.018*5E",,,
1777580434.139608,73234.100000,tod,GGA,39.7385163217,-84.1759763650,242.3464,4,10,1.10,,,,,,,,,"$GPGGA,202034.10,3944.3109793,N,08410.5585819,W,4,10,1.1,242.3464,M,-33.3702,M,1.1,1564*72",,,
1777580434.140515,,,HDT,,,,,,,,,,259.8090,,,,,"$GPHDT,259.809,T*3A",,,
1777580434.141984,73234.100000,tod,GST,,,,,,,0.0130,0.0090,0.0210,,,,,,"$GPGST,202034.10,0.633,0.013,0.008,353.411,0.013,0.009,0.021*54",,,
1777580434.239399,73234.200000,tod,GGA,39.7385170350,-84.1759769333,242.3274,4,10,1.10,,,,,,,,,"$GPGGA,202034.20,3944.3110221,N,08410.5586160,W,4,10,1.1,242.3274,M,-33.3702,M,1.2,1564*75",,,
1777580434.240286,,,HDT,,,,,,,,,,258.9780,,,,,"$GPHDT,258.978,T*3C",,,
1777580434.241677,73234.200000,tod,GST,,,,,,,0.0140,0.0100,0.0240,,,,,,"$GPGST,202034.20,0.633,0.014,0.010,356.116,0.014,0.010,0.024*54",,,
1777580434.339270,73234.300000,tod,GGA,39.7385178767,-84.1759774167,242.3350,4,10,1.10,,,,,,,,,"$GPGGA,202034.30,3944.3110726,N,08410.5586450,W,4,10,1.1,242.3350,M,-33.3702,M,1.3,1564*76",,,
1777580434.340282,,,HDT,,,,,,,,,,258.7480,,,,,"$GPHDT,258.748,T*31",,,
1777580434.341805,73234.300000,tod,GST,,,,,,,0.0140,0.0100,0.0230,,,,,,"$GPGST,202034.30,0.633,0.014,0.010,355.300,0.014,0.010,0.023*54",,,
1777580434.439692,73234.400000,tod,GGA,39.7385188867,-84.1759778533,242.3405,4,10,1.10,,,,,,,,,"$GPGGA,202034.40,3944.3111332,N,08410.5586712,W,4,10,1.1,242.3405,M,-33.3702,M,1.4,1564*74",,,
1777580434.440989,,,HDT,,,,,,,,,,256.8050,,,,,"$GPHDT,256.805,T*39",,,
1777580434.442564,73234.400000,tod,GST,,,,,,,0.0140,0.0100,0.0230,,,,,,"$GPGST,202034.40,0.633,0.014,0.010,354.553,0.014,0.010,0.023*52",,,
1777580434.539421,73234.500000,tod,GGA,39.7385197767,-84.1759783900,242.3395,4,10,1.10,,,,,,,,,"$GPGGA,202034.50,3944.3111866,N,08410.5587034,W,4,10,1.1,242.3395,M,-33.3702,M,1.5,1564*72",,,
1777580434.540554,,,HDT,,,,,,,,,,255.7320,,,,,"$GPHDT,255.732,T*31",,,
1777580434.542173,73234.500000,tod,GST,,,,,,,0.0140,0.0100,0.0230,,,,,,"$GPGST,202034.50,0.633,0.014,0.010,353.954,0.014,0.010,0.023*5F",,,
1777580434.639869,73234.600000,tod,GGA,39.7385207083,-84.1759789217,242.3459,4,10,1.10,,,,,,,,,"$GPGGA,202034.60,3944.3112425,N,08410.5587353,W,4,10,1.1,242.3459,M,-33.3702,M,0.6,1564*7E",,,
1777580434.640946,,,HDT,,,,,,,,,,255.7070,,,,,"$GPHDT,255.707,T*37",,,
1777580434.642916,73234.600000,tod,GST,,,,,,,0.0140,0.0100,0.0230,,,,,,"$GPGST,202034.60,0.697,0.014,0.010,354.788,0.014,0.010,0.023*5A",,,
1777580434.739366,73234.700000,tod,GGA,39.7385216883,-84.1759794267,242.3332,4,10,1.10,,,,,,,,,"$GPGGA,202034.70,3944.3113013,N,08410.5587656,W,4,10,1.1,242.3332,M,-33.3702,M,0.7,1564*74",,,
1777580434.740469,,,HDT,,,,,,,,,,253.6980,,,,,"$GPHDT,253.698,T*36",,,
1777580434.742029,73234.700000,tod,GST,,,,,,,0.0140,0.0100,0.0240,,,,,,"$GPGST,202034.70,0.697,0.014,0.010,356.439,0.014,0.010,0.024*57",,,
1777580434.839426,73234.800000,tod,GGA,39.7385226033,-84.1759800250,242.3309,4,10,1.10,,,,,,,,,"$GPGGA,202034.80,3944.3113562,N,08410.5588015,W,4,10,1.1,242.3309,M,-33.3702,M,0.8,1564*71",,,
1777580434.840369,,,HDT,,,,,,,,,,253.5040,,,,,"$GPHDT,253.504,T*30",,,
1777580434.841784,73234.800000,tod,GST,,,,,,,0.0140,0.0100,0.0240,,,,,,"$GPGST,202034.80,0.697,0.014,0.010,356.519,0.014,0.010,0.024*5B",,,
1777580434.938883,73234.900000,tod,GGA,39.7385234617,-84.1759806017,242.3442,4,10,1.10,,,,,,,,,"$GPGGA,202034.90,3944.3114077,N,08410.5588361,W,4,10,1.1,242.3442,M,-33.3702,M,0.9,1564*7F",,,
1777580434.939970,,,HDT,,,,,,,,,,253.8650,,,,,"$GPHDT,253.865,T*3A",,,
1777580434.941442,73234.900000,tod,GST,,,,,,,0.0140,0.0100,0.0240,,,,,,"$GPGST,202034.90,0.697,0.014,0.010,357.357,0.014,0.010,0.024*57",,,
1777580435.040244,73235.000000,tod,GGA,39.7385244267,-84.1759810783,242.3238,4,10,1.10,,,,,,,,,"$GPGGA,202035.00,3944.3114656,N,08410.5588647,W,4,10,1.1,242.3238,M,-33.3702,M,1.0,1564*70",,,
1777580435.041283,,,HDT,,,,,,,,,,252.9130,,,,,"$GPHDT,252.913,T*3B",,,
1777580435.042780,73235.000000,tod,GST,,,,,,,0.0140,0.0100,0.0250,,,,,,"$GPGST,202035.00,0.697,0.014,0.010,359.727,0.014,0.010,0.025*53",,,
1777580435.139887,73235.100000,tod,GGA,39.7385251167,-84.1759818050,242.3262,4,9,1.30,,,,,,,,,"$GPGGA,202035.10,3944.3115070,N,08410.5589083,W,4,09,1.3,242.3262,M,-33.3702,M,1.1,1564*79",,,
1777580435.140920,,,HDT,,,,,,,,,,253.0440,,,,,"$GPHDT,253.044,T*31",,,
1777580435.142411,73235.100000,tod,GST,,,,,,,0.0140,0.0100,0.0240,,,,,,"$GPGST,202035.10,0.424,0.014,0.010,0.158,0.014,0.010,0.024*58",,,
1777580435.239793,73235.200000,tod,GGA,39.7385260933,-84.1759823650,242.3324,4,9,1.30,,,,,,,,,"$GPGGA,202035.20,3944.3115656,N,08410.5589419,W,4,09,1.3,242.3324,M,-33.3702,M,1.2,1564*7F",,,
1777580435.240715,,,HDT,,,,,,,,,,251.8850,,,,,"$GPHDT,251.885,T*36",,,
1777580435.242163,73235.200000,tod,GST,,,,,,,0.0130,0.0100,0.0240,,,,,,"$GPGST,202035.20,0.424,0.014,0.010,0.754,0.013,0.010,0.024*56",,,
1777580435.339242,73235.300000,tod,GGA,39.7385269833,-84.1759829167,242.3191,4,9,1.30,,,,,,,,,"$GPGGA,202035.30,3944.3116190,N,08410.5589750,W,4,09,1.3,242.3191,M,-33.3702,M,1.3,1564*73",,,
1777580435.340328,,,HDT,,,,,,,,,,252.1310,,,,,"$GPHDT,252.131,T*33",,,
1777580435.341793,73235.300000,tod,GST,,,,,,,0.0130,0.0100,0.0240,,,,,,"$GPGST,202035.30,0.424,0.013,0.010,1.335,0.013,0.010,0.024*52",,,
1777580435.438193,73235.400000,tod,GGA,39.7385279883,-84.1759835233,242.3107,4,9,1.30,,,,,,,,,"$GPGGA,202035.40,3944.3116793,N,08410.5590114,W,4,09,1.3,242.3107,M,-33.3702,M,1.4,1564*77",,,
1777580435.439096,,,HDT,,,,,,,,,,251.3310,,,,,"$GPHDT,251.331,T*32",,,
1777580435.440505,73235.400000,tod,GST,,,,,,,0.0130,0.0100,0.0240,,,,,,"$GPGST,202035.40,0.424,0.013,0.010,0.456,0.013,0.010,0.024*56",,,
1777580435.538753,73235.500000,tod,GGA,39.7385288033,-84.1759841300,242.3079,4,9,1.30,,,,,,,,,"$GPGGA,202035.50,3944.3117282,N,08410.5590478,W,4,09,1.3,242.3079,M,-33.3702,M,1.5,1564*74",,,
1777580435.539738,,,HDT,,,,,,,,,,251.9410,,,,,"$GPHDT,251.941,T*3F",,,
1777580435.541199,73235.500000,tod,GST,,,,,,,0.0140,0.0100,0.0230,,,,,,"$GPGST,202035.50,0.424,0.014,0.010,358.486,0.014,0.010,0.023*53",,,
1777580435.639433,73235.600000,tod,GGA,39.7385297700,-84.1759846917,242.3156,4,10,1.10,,,,,,,,,"$GPGGA,202035.60,3944.3117862,N,08410.5590815,W,4,10,1.1,242.3156,M,-33.3702,M,0.6,1564*70",,,
1777580435.640252,,,HDT,,,,,,,,,,251.5470,,,,,"$GPHDT,251.547,T*35",,,
1777580435.641639,73235.600000,tod,GST,,,,,,,0.0140,0.0100,0.0230,,,,,,"$GPGST,202035.60,0.384,0.014,0.009,357.588,0.014,0.010,0.023*55",,,
1777580435.739412,73235.700000,tod,GGA,39.7385307083,-84.1759852067,242.3144,4,10,1.10,,,,,,,,,"$GPGGA,202035.70,3944.3118425,N,08410.5591124,W,4,10,1.1,242.3144,M,-33.3702,M,0.7,1564*79",,,
1777580435.740264,,,HDT,,,,,,,,,,250.8820,,,,,"$GPHDT,250.882,T*30",,,
1777580435.741696,73235.700000,tod,GST,,,,,,,0.0140,0.0090,0.0230,,,,,,"$GPGST,202035.70,0.384,0.014,0.009,357.800,0.014,0.009,0.023*51",,,
1777580435.839309,73235.800000,tod,GGA,39.7385316217,-84.1759858100,242.3143,4,10,1.10,,,,,,,,,"$GPGGA,202035.80,3944.3118973,N,08410.5591486,W,4,10,1.1,242.3143,M,-33.3702,M,0.8,1564*7D",,,
1777580435.840133,,,HDT,,,,,,,,,,250.9260,,,,,"$GPHDT,250.926,T*3F",,,
1777580435.841572,73235.800000,tod,GST,,,,,,,0.0140,0.0090,0.0230,,,,,,"$GPGST,202035.80,0.384,0.014,0.009,358.065,0.014,0.009,0.023*5A",,,
1777580435.938419,73235.900000,tod,GGA,39.7385324833,-84.1759864333,242.3081,4,10,1.10,,,,,,,,,"$GPGGA,202035.90,3944.3119490,N,08410.5591860,W,4,10,1.1,242.3081,M,-33.3702,M,0.9,1564*77",,,
1777580435.939643,,,HDT,,,,,,,,,,250.5320,,,,,"$GPHDT,250.532,T*36",,,
1777580435.941138,73235.900000,tod,GST,,,,,,,0.0140,0.0090,0.0230,,,,,,"$GPGST,202035.90,0.384,0.014,0.009,359.291,0.014,0.009,0.023*53",,,
1777580436.039733,73236.000000,tod,GGA,39.7385333550,-84.1759870017,242.2995,4,10,1.10,,,,,,,,,"$GPGGA,202036.00,3944.3120013,N,08410.5592201,W,4,10,1.1,242.2995,M,-33.3702,M,1.0,1564*73",,,
1777580436.040705,,,HDT,,,,,,,,,,250.1830,,,,,"$GPHDT,250.183,T*38",,,
1777580436.042120,73236.000000,tod,GST,,,,,,,0.0140,0.0090,0.0230,,,,,,"$GPGST,202036.00,0.384,0.014,0.009,0.462,0.014,0.009,0.023*5C",,,
1777580436.139439,73236.100000,tod,GGA,39.7385340417,-84.1759876317,242.3043,4,11,1.00,,,,,,,,,"$GPGGA,202036.10,3944.3120425,N,08410.5592579,W,4,11,1.0,242.3043,M,-33.3702,M,1.1,1564*79",,,
1777580436.140361,,,HDT,,,,,,,,,,251.7140,,,,,"$GPHDT,251.714,T*31",,,
1777580436.141834,73236.100000,tod,GST,,,,,,,0.0130,0.0090,0.0220,,,,,,"$GPGST,202036.10,0.249,0.013,0.009,1.236,0.013,0.009,0.022*5A",,,
1777580436.238066,73236.200000,tod,GGA,39.7385349200,-84.1759882167,242.3001,4,11,1.00,,,,,,,,,"$GPGGA,202036.20,3944.3120952,N,08410.5592930,W,4,11,1.0,242.3001,M,-33.3702,M,1.2,1564*73",,,
1777580436.239106,,,HDT,,,,,,,,,,252.4560,,,,,"$GPHDT,252.456,T*37",,,
1777580436.240608,73236.200000,tod,GST,,,,,,,0.0130,0.0090,0.0220,,,,,,"$GPGST,202036.20,0.249,0.013,0.009,1.968,0.013,0.009,0.022*59",,,
1777580436.337832,73236.300000,tod,GGA,39.7385358383,-84.1759888000,242.3131,4,11,1.00,,,,,,,,,"$GPGGA,202036.30,3944.3121503,N,08410.5593280,W,4,11,1.0,242.3131,M,-33.3702,M,1.3,1564*79",,,
1777580436.338893,,,HDT,,,,,,,,,,251.4110,,,,,"$GPHDT,251.411,T*37",,,
1777580436.340314,73236.300000,tod,GST,,,,,,,0.0130,0.0090,0.0220,,,,,,"$GPGST,202036.30,0.249,0.013,0.009,2.547,0.013,0.009,0.022*5A",,,
1777580436.438535,73236.400000,tod,GGA,39.7385366467,-84.1759893750,242.3038,4,11,1.00,,,,,,,,,"$GPGGA,202036.40,3944.3121988,N,08410.5593625,W,4,11,1.0,242.3038,M,-33.3702,M,1.4,1564*75",,,
1777580436.439436,,,HDT,,,,,,,,,,251.8390,,,,,"$GPHDT,251.839,T*31",,,
1777580436.440851,73236.400000,tod,GST,,,,,,,0.0130,0.0090,0.0220,,,,,,"$GPGST,202036.40,0.249,0.013,0.009,2.478,0.013,0.009,0.022*50",,,
1777580436.539670,73236.500000,tod,GGA,39.7385375383,-84.1759898517,242.3053,4,11,1.00,,,,,,,,,"$GPGGA,202036.50,3944.3122523,N,08410.5593911,W,4,11,1.0,242.3053,M,-33.3702,M,1.5,1564*7E",,,
1777580436.540535,,,HDT,,,,,,,,,,251.7760,,,,,"$GPHDT,251.776,T*35",,,
1777580436.542032,73236.500000,tod,GST,,,,,,,0.0130,0.0090,0.0220,,,,,,"$GPGST,202036.50,0.249,0.013,0.009,1.984,0.013,0.009,0.022*5C",,,
1777580436.638435,73236.600000,tod,GGA,39.7385382700,-84.1759905050,242.2960,4,11,1.00,,,,,,,,,"$GPGGA,202036.60,3944.3122962,N,08410.5594303,W,4,11,1.0,242.2960,M,-33.3702,M,0.6,1564*70",,,
1777580436.639349,,,HDT,,,,,,,,,,252.7470,,,,,"$GPHDT,252.747,T*34",,,
1777580436.640724,73236.600000,tod,GST,,,,,,,0.0130,0.0090,0.0220,,,,,,"$GPGST,202036.60,0.112,0.013,0.009,1.171,0.013,0.009,0.022*50",,,
1777580436.737975,73236.700000,tod,GGA,39.7385390683,-84.1759911317,242.2947,4,11,1.00,,,,,,,,,"$GPGGA,202036.70,3944.3123441,N,08410.5594679,W,4,11,1.0,242.2947,M,-33.3702,M,0.7,1564*70",,,
1777580436.739169,,,HDT,,,,,,,,,,253.2330,,,,,"$GPHDT,253.233,T*33",,,
1777580436.740618,73236.700000,tod,GST,,,,,,,0.0130,0.0090,0.0220,,,,,,"$GPGST,202036.70,0.112,0.013,0.009,0.705,0.013,0.009,0.022*55",,,
1777580436.838226,73236.800000,tod,GGA,39.7385399100,-84.1759917117,242.3033,4,11,1.00,,,,,,,,,"$GPGGA,202036.80,3944.3123946,N,08410.5595027,W,4,11,1.0,242.3033,M,-33.3702,M,0.8,1564*7D",,,
1777580436.839151,,,HDT,,,,,,,,,,253.7870,,,,,"$GPHDT,253.787,T*39",,,
1777580436.840507,73236.800000,tod,GST,,,,,,,0.0130,0.0090,0.0220,,,,,,"$GPGST,202036.80,0.112,0.013,0.009,1.919,0.013,0.009,0.022*58",,,
1777580436.938546,73236.900000,tod,GGA,39.7385408117,-84.1759922833,242.2981,4,11,1.00,,,,,,,,,"$GPGGA,202036.90,3944.3124487,N,08410.5595370,W,4,11,1.0,242.2981,M,-33.3702,M,0.9,1564*7A",,,
1777580436.939459,,,HDT,,,,,,,,,,254.0870,,,,,"$GPHDT,254.087,T*39",,,
1777580436.940855,73236.900000,tod,GST,,,,,,,0.0120,0.0090,0.0220,,,,,,"$GPGST,202036.90,0.112,0.012,0.009,2.162,0.012,0.009,0.022*5E",,,
1777580437.038458,73237.000000,tod,GGA,39.7385415950,-84.1759929367,242.3023,4,11,1.00,,,,,,,,,"$GPGGA,202037.00,3944.3124957,N,08410.5595762,W,4,11,1.0,242.3023,M,-33.3702,M,1.0,1564*7D",,,
1777580437.039313,,,HDT,,,,,,,,,,254.8990,,,,,"$GPHDT,254.899,T*3E",,,
1777580437.040717,73237.000000,tod,GST,,,,,,,0.0120,0.0090,0.0220,,,,,,"$GPGST,202037.00,0.112,0.012,0.009,2.908,0.012,0.009,0.022*52",,,
1777580437.138280,73237.100000,tod,GGA,39.7385425017,-84.1759935250,242.3011,4,11,1.00,,,,,,,,,"$GPGGA,202037.10,3944.3125501,N,08410.5596115,W,4,11,1.0,242.3011,M,-33.3702,M,1.1,1564*77",,,
1777580437.139185,,,HDT,,,,,,,,,,255.2420,,,,,"$GPHDT,255.242,T*33",,,
1777580437.140664,73237.100000,tod,GST,,,,,,,0.0110,0.0080,0.0200,,,,,,"$GPGST,202037.10,0.110,0.011,0.008,358.937,0.011,0.008,0.020*53",,,
1777580437.237529,73237.200000,tod,GGA,39.7385434300,-84.1759941700,242.3027,4,11,1.00,,,,,,,,,"$GPGGA,202037.20,3944.3126058,N,08410.5596502,W,4,11,1.0,242.3027,M,-33.3702,M,1.2,1564*7A",,,
1777580437.238630,,,HDT,,,,,,,,,,255.0950,,,,,"$GPHDT,255.095,T*3B",,,
1777580437.240164,73237.200000,tod,GST,,,,,,,0.0100,0.0070,0.0180,,,,,,"$GPGST,202037.20,0.110,0.010,0.007,354.180,0.010,0.007,0.018*53",,,
1777580437.337492,73237.300000,tod,GGA,39.7385442133,-84.1759948067,242.2978,4,11,1.00,,,,,,,,,"$GPGGA,202037.30,3944.3126528,N,08410.5596884,W,4,11,1.0,242.2978,M,-33.3702,M,1.3,1564*79",,,
1777580437.338581,,,HDT,,,,,,,,,,255.6430,,,,,"$GPHDT,255.643,T*36",,,
1777580437.340051,73237.300000,tod,GST,,,,,,,0.0100,0.0070,0.0180,,,,,,"$GPGST,202037.30,0.110,0.010,0.007,354.734,0.010,0.007,0.018*5B",,,
1777580437.438097,73237.400000,tod,GGA,39.7385450833,-84.1759954500,242.3029,4,11,1.00,,,,,,,,,"$GPGGA,202037.40,3944.3127050,N,08410.5597270,W,4,11,1.0,242.3029,M,-33.3702,M,1.4,1564*7E",,,
1777580437.439158,,,HDT,,,,,,,,,,256.0940,,,,,"$GPHDT,256.094,T*39",,,
1777580437.440573,73237.400000,tod,GST,,,,,,,0.0100,0.0070,0.0180,,,,,,"$GPGST,202037.40,0.110,0.010,0.007,354.269,0.010,0.007,0.018*51",,,
1777580437.539314,73237.500000,tod,GGA,39.7385459700,-84.1759961300,242.3021,4,11,1.00,,,,,,,,,"$GPGGA,202037.50,3944.3127582,N,08410.5597678,W,4,11,1.0,242.3021,M,-33.3702,M,1.5,1564*70",,,
1777580437.540252,,,HDT,,,,,,,,,,255.7980,,,,,"$GPHDT,255.798,T*31",,,
1777580437.541744,73237.500000,tod,GST,,,,,,,0.0110,0.0070,0.0180,,,,,,"$GPGST,202037.50,0.110,0.011,0.007,353.552,0.011,0.007,0.018*58",,,
1777580437.638133,73237.600000,tod,GGA,39.7385468267,-84.1759968367,242.3011,4,11,1.00,,,,,,,,,"$GPGGA,202037.60,3944.3128096,N,08410.5598102,W,4,11,1.0,242.3011,M,-33.3702,M,0.6,1564*78",,,
1777580437.639286,,,HDT,,,,,,,,,,255.6710,,,,,"$GPHDT,255.671,T*37",,,
1777580437.640693,73237.600000,tod,GST,,,,,,,0.0110,0.0070,0.0180,,,,,,"$GPGST,202037.60,0.234,0.011,0.007,352.915,0.011,0.007,0.018*50",,,
1777580437.737952,73237.700000,tod,GGA,39.7385476617,-84.1759975950,242.3039,4,11,1.00,,,,,,,,,"$GPGGA,202037.70,3944.3128597,N,08410.5598557,W,4,11,1.0,242.3039,M,-33.3702,M,0.7,1564*72",,,
1777580437.739177,,,HDT,,,,,,,,,,255.4560,,,,,"$GPHDT,255.456,T*30",,,
1777580437.740579,73237.700000,tod,GST,,,,,,,0.0110,0.0070,0.0180,,,,,,"$GPGST,202037.70,0.234,0.011,0.007,353.338,0.011,0.007,0.018*55",,,
1777580437.838004,73237.800000,tod,GGA,39.7385486467,-84.1759982300,242.2973,4,11,1.00,,,,,,,,,"$GPGGA,202037.80,3944.3129188,N,08410.5598938,W,4,11,1.0,242.2973,M,-33.3702,M,0.8,1564*7A",,,
1777580437.838957,,,HDT,,,,,,,,,,254.8880,,,,,"$GPHDT,254.888,T*3E",,,
1777580437.840371,73237.800000,tod,GST,,,,,,,0.0110,0.0070,0.0180,,,,,,"$GPGST,202037.80,0.234,0.011,0.007,353.946,0.011,0.007,0.018*59",,,
1777580437.937823,73237.900000,tod,GGA,39.7385495933,-84.1759989633,242.3079,4,11,1.00,,,,,,,,,"$GPGGA,202037.90,3944.3129756,N,08410.5599378,W,4,11,1.0,242.3079,M,-33.3702,M,0.9,1564*72",,,
1777580437.939177,,,HDT,,,,,,,,,,254.8990,,,,,"$GPHDT,254.899,T*3E",,,
1777580437.940625,73237.900000,tod,GST,,,,,,,0.0110,0.0070,0.0180,,,,,,"$GPGST,202037.90,0.234,0.011,0.007,354.973,0.011,0.007,0.018*59",,,
1777580438.037810,73238.000000,tod,GGA,39.7385503950,-84.1759996000,242.3035,4,11,1.00,,,,,,,,,"$GPGGA,202038.00,3944.3130237,N,08410.5599760,W,4,11,1.0,242.3035,M,-33.3702,M,1.0,1564*73",,,
1777580438.038842,,,HDT,,,,,,,,,,254.7310,,,,,"$GPHDT,254.731,T*33",,,
1777580438.040239,73238.000000,tod,GST,,,,,,,0.0110,0.0080,0.0200,,,,,,"$GPGST,202038.00,0.234,0.011,0.008,2.236,0.011,0.008,0.020*5E",,,
1777580438.137501,73238.100000,tod,GGA,39.7385512667,-84.1760001267,242.3049,4,11,1.00,,,,,,,,,"$GPGGA,202038.10,3944.3130760,N,08410.5600076,W,4,11,1.0,242.3049,M,-33.3702,M,1.1,1564*7C",,,
1777580438.138505,,,HDT,,,,,,,,,,254.9850,,,,,"$GPHDT,254.985,T*32",,,
1777580438.139911,73238.100000,tod,GST,,,,,,,0.0110,0.0090,0.0220,,,,,,"$GPGST,202038.10,0.236,0.011,0.009,12.786,0.011,0.009,0.022*60",,,
1777580438.237423,73238.200000,tod,GGA,39.7385520650,-84.1760008433,242.3135,4,11,1.00,,,,,,,,,"$GPGGA,202038.20,3944.3131239,N,08410.5600506,W,4,11,1.0,242.3135,M,-33.3702,M,1.2,1564*7C",,,
1777580438.238653,,,HDT,,,,,,,,,,254.4770,,,,,"$GPHDT,254.477,T*32",,,
1777580438.240066,73238.200000,tod,GST,,,,,,,0.0110,0.0090,0.0220,,,,,,"$GPGST,202038.20,0.236,0.011,0.009,15.151,0.011,0.009,0.022*68",,,
1777580438.337027,73238.300000,tod,GGA,39.7385529217,-84.1760015017,242.3201,4,11,1.00,,,,,,,,,"$GPGGA,202038.30,3944.3131753,N,08410.5600901,W,4,11,1.0,242.3201,M,-33.3702,M,1.3,1564*7A",,,
1777580438.338212,,,HDT,,,,,,,,,,254.8120,,,,,"$GPHDT,254.812,T*3D",,,
1777580438.339653,73238.300000,tod,GST,,,,,,,0.0110,0.0090,0.0220,,,,,,"$GPGST,202038.30,0.236,0.011,0.009,15.135,0.011,0.009,0.022*6B",,,
1777580438.437951,73238.400000,tod,GGA,39.7385537250,-84.1760021967,242.3035,4,11,1.00,,,,,,,,,"$GPGGA,202038.40,3944.3132235,N,08410.5601318,W,4,11,1.0,242.3035,M,-33.3702,M,1.4,1564*7A",,,
1777580438.438831,,,HDT,,,,,,,,,,255.2600,,,,,"$GPHDT,255.260,T*33",,,
1777580438.440254,73238.400000,tod,GST,,,,,,,0.0110,0.0090,0.0220,,,,,,"$GPGST,202038.40,0.236,0.011,0.009,15.133,0.011,0.009,0.022*6A",,,
1777580438.538707,73238.500000,tod,GGA,39.7385545967,-84.1760028267,242.3163,4,11,1.00,,,,,,,,,"$GPGGA,202038.50,3944.3132758,N,08410.5601696,W,4,11,1.0,242.3163,M,-33.3702,M,1.5,1564*75",,,
1777580438.539718,,,HDT,,,,,,,,,,255.5340,,,,,"$GPHDT,255.534,T*35",,,
1777580438.541166,73238.500000,tod,GST,,,,,,,0.0110,0.0090,0.0220,,,,,,"$GPGST,202038.50,0.236,0.011,0.009,15.371,0.011,0.009,0.022*6F",,,
1777580438.638009,73238.600000,tod,GGA,39.7385554450,-84.1760034150,242.3043,4,11,1.00,,,,,,,,,"$GPGGA,202038.60,3944.3133267,N,08410.5602049,W,4,11,1.0,242.3043,M,-33.3702,M,0.6,1564*78",,,
1777580438.639137,,,HDT,,,,,,,,,,255.6880,,,,,"$GPHDT,255.688,T*31",,,
1777580438.640584,73238.600000,tod,GST,,,,,,,0.0110,0.0090,0.0220,,,,,,"$GPGST,202038.60,0.177,0.011,0.009,15.010,0.011,0.009,0.022*6E",,,
1777580438.737867,73238.700000,tod,GGA,39.7385562300,-84.1760040150,242.2998,4,11,1.00,,,,,,,,,"$GPGGA,202038.70,3944.3133738,N,08410.5602409,W,4,11,1.0,242.2998,M,-33.3702,M,0.7,1564*79",,,
1777580438.738992,,,HDT,,,,,,,,,,256.2290,,,,,"$GPHDT,256.229,T*3D",,,
1777580438.740449,73238.700000,tod,GST,,,,,,,0.0110,0.0090,0.0220,,,,,,"$GPGST,202038.70,0.177,0.011,0.009,16.226,0.011,0.009,0.022*6B",,,
1777580438.837786,73238.800000,tod,GGA,39.7385569533,-84.1760045650,242.3098,4,11,1.00,,,,,,,,,"$GPGGA,202038.80,3944.3134172,N,08410.5602739,W,4,11,1.0,242.3098,M,-33.3702,M,0.8,1564*7E",,,
1777580438.838859,,,HDT,,,,,,,,,,256.6170,,,,,"$GPHDT,256.617,T*34",,,
1777580438.840352,73238.800000,tod,GST,,,,,,,0.0110,0.0090,0.0230,,,,,,"$GPGST,202038.80,0.177,0.011,0.009,19.469,0.011,0.009,0.023*67",,,
1777580438.937737,73238.900000,tod,GGA,39.7385577633,-84.1760051067,242.3089,4,11,1.00,,,,,,,,,"$GPGGA,202038.90,3944.3134658,N,08410.5603064,W,4,11,1.0,242.3089,M,-33.3702,M,0.9,1564*7F",,,
1777580438.938884,,,HDT,,,,,,,,,,256.7460,,,,,"$GPHDT,256.746,T*31",,,
1777580438.940349,73238.900000,tod,GST,,,,,,,0.0110,0.0100,0.0230,,,,,,"$GPGST,202038.90,0.177,0.012,0.009,23.270,0.011,0.010,0.023*6A",,,
1777580439.038270,73239.000000,tod,GGA,39.7385585667,-84.1760057417,242.3123,4,11,1.00,,,,,,,,,"$GPGGA,202039.00,3944.3135140,N,08410.5603445,W,4,11,1.0,242.3123,M,-33.3702,M,1.0,1564*76",,,
1777580439.039335,,,HDT,,,,,,,,,,257.3740,,,,,"$GPHDT,257.374,T*35",,,
1777580439.040826,73239.000000,tod,GST,,,,,,,0.0110,0.0100,0.0240,,,,,,"$GPGST,202039.00,0.177,0.012,0.009,26.190,0.011,0.010,0.024*6D",,,
1777580439.137461,73239.100000,tod,GGA,39.7385593117,-84.1760062950,242.3121,4,11,1.00,,,,,,,,,"$GPGGA,202039.10,3944.3135587,N,08410.5603777,W,4,11,1.0,242.3121,M,-33.3702,M,1.1,1564*79",,,
1777580439.138608,,,HDT,,,,,,,,,,258.3490,,,,,"$GPHDT,258.349,T*34",,,
1777580439.140081,73239.100000,tod,GST,,,,,,,0.0110,0.0100,0.0240,,,,,,"$GPGST,202039.10,0.169,0.012,0.009,27.843,0.011,0.010,0.024*65",,,
1777580439.236988,73239.200000,tod,GGA,39.7385601600,-84.1760068050,242.3147,4,11,1.00,,,,,,,,,"$GPGGA,202039.20,3944.3136096,N,08410.5604083,W,4,11,1.0,242.3147,M,-33.3702,M,1.2,1564*74",,,
1777580439.238179,,,HDT,,,,,,,,,,259.2610,,,,,"$GPHDT,259.261,T*3E",,,
1777580439.239657,73239.200000,tod,GST,,,,,,,0.0110,0.0100,0.0240,,,,,,"$GPGST,202039.20,0.169,0.012,0.009,27.254,0.011,0.010,0.024*6A",,,
1777580439.337295,73239.300000,tod,GGA,39.7385609983,-84.1760073617,242.3212,4,11,1.00,,,,,,,,,"$GPGGA,202039.30,3944.3136599,N,08410.5604417,W,4,11,1.0,242.3212,M,-33.3702,M,1.3,1564*74",,,
1777580439.338571,,,HDT,,,,,,,,,,259.9040,,,,,"$GPHDT,259.904,T*36",,,
1777580439.340067,73239.300000,tod,GST,,,,,,,0.0110,0.0100,0.0240,,,,,,"$GPGST,202039.30,0.169,0.012,0.009,30.373,0.011,0.010,0.024*69",,,
1777580439.438034,73239.400000,tod,GGA,39.7385618717,-84.1760079083,242.3113,4,11,1.00,,,,,,,,,"$GPGGA,202039.40,3944.3137123,N,08410.5604745,W,4,11,1.0,242.3113,M,-33.3702,M,1.4,1564*76",,,
1777580439.439103,,,HDT,,,,,,,,,,259.9480,,,,,"$GPHDT,259.948,T*3E",,,
1777580439.440564,73239.400000,tod,GST,,,,,,,0.0110,0.0100,0.0240,,,,,,"$GPGST,202039.40,0.169,0.012,0.009,30.923,0.011,0.010,0.024*61",,,
1777580439.538378,73239.500000,tod,GGA,39.7385626500,-84.1760084900,242.3221,4,11,1.00,,,,,,,,,"$GPGGA,202039.50,3944.3137590,N,08410.5605094,W,4,11,1.0,242.3221,M,-33.3702,M,1.5,1564*72",,,
1777580439.539387,,,HDT,,,,,,,,,,260.9040,,,,,"$GPHDT,260.904,T*3C",,,
1777580439.540821,73239.500000,tod,GST,,,,,,,0.0110,0.0100,0.0240,,,,,,"$GPGST,202039.50,0.169,0.012,0.009,28.723,0.011,0.010,0.024*67",,,
1777580439.637415,73239.600000,tod,GGA,39.7385634750,-84.1760089517,242.2952,4,12,1.00,,,,,,,,,"$GPGGA,202039.60,3944.3138085,N,08410.5605371,W,4,12,1.0,242.2952,M,-33.3702,M,0.6,1564*78",,,
1777580439.638562,,,HDT,,,,,,,,,,261.1960,,,,,"$GPHDT,261.196,T*3E",,,
1777580439.640070,73239.600000,tod,GST,,,,,,,0.0110,0.0100,0.0220,,,,,,"$GPGST,202039.60,0.285,0.012,0.009,28.006,0.011,0.010,0.022*63",,,
1777580439.737783,73239.700000,tod,GGA,39.7385642050,-84.1760094350,242.2977,4,12,1.00,,,,,,,,,"$GPGGA,202039.70,3944.3138523,N,08410.5605661,W,4,12,1.0,242.2977,M,-33.3702,M,0.7,1564*72",,,
1777580439.738762,,,HDT,,,,,,,,,,262.4910,,,,,"$GPHDT,262.491,T*3F",,,
1777580439.740223,73239.700000,tod,GST,,,,,,,0.0110,0.0100,0.0220,,,,,,"$GPGST,202039.70,0.285,0.012,0.009,27.686,0.011,0.010,0.022*63",,,
1777580439.837414,73239.800000,tod,GGA,39.7385649167,-84.1760099100,242.3073,4,12,1.00,,,,,,,,,"$GPGGA,202039.80,3944.3138950,N,08410.5605946,W,4,12,1.0,242.3073,M,-33.3702,M,0.8,1564*7C",,,
1777580439.838510,,,HDT,,,,,,,,,,263.8480,,,,,"$GPHDT,263.848,T*36",,,
1777580439.839982,73239.800000,tod,GST,,,,,,,0.0110,0.0100,0.0220,,,,,,"$GPGST,202039.80,0.285,0.012,0.009,26.643,0.011,0.010,0.022*64",,,
1777580439.937303,73239.900000,tod,GGA,39.7385657683,-84.1760104550,242.3122,4,12,1.00,,,,,,,,,"$GPGGA,202039.90,3944.3139461,N,08410.5606273,W,4,12,1.0,242.3122,M,-33.3702,M,0.9,1564*79",,,
1777580439.938531,,,HDT,,,,,,,,,,264.3700,,,,,"$GPHDT,264.370,T*31",,,
1777580439.939977,73239.900000,tod,GST,,,,,,,0.0110,0.0090,0.0220,,,,,,"$GPGST,202039.90,0.285,0.012,0.009,26.605,0.011,0.009,0.022*6F",,,
1777580440.037396,73240.000000,tod,GGA,39.7385665550,-84.1760108733,242.3100,4,12,1.00,,,,,,,,,"$GPGGA,202040.00,3944.3139933,N,08410.5606524,W,4,12,1.0,242.3100,M,-33.3702,M,1.0,1564*79",,,
1777580440.038655,,,HDT,,,,,,,,,,264.5500,,,,,"$GPHDT,264.550,T*35",,,
1777580440.040074,73240.000000,tod,GST,,,,,,,0.0110,0.0090,0.0220,,,,,,"$GPGST,202040.00,0.285,0.012,0.009,28.411,0.011,0.009,0.022*61",,,
1777580440.137046,73240.100000,tod,GGA,39.7385674483,-84.1760113600,242.3159,4,12,1.00,,,,,,,,,"$GPGGA,202040.10,3944.3140469,N,08410.5606816,W,4,12,1.0,242.3159,M,-33.3702,M,1.1,1564*75",,,
1777580440.138313,,,HDT,,,,,,,,,,264.2730,,,,,"$GPHDT,264.273,T*33",,,
1777580440.139793,73240.100000,tod,GST,,,,,,,0.0110,0.0090,0.0220,,,,,,"$GPGST,202040.10,0.276,0.012,0.009,31.357,0.011,0.009,0.022*61",,,
1777580440.236955,73240.200000,tod,GGA,39.7385681883,-84.1760116533,242.3127,4,12,1.00,,,,,,,,,"$GPGGA,202040.20,3944.3140913,N,08410.5606992,W,4,12,1.0,242.3127,M,-33.3702,M,1.2,1564*71",,,
1777580440.238206,,,HDT,,,,,,,,,,265.1320,,,,,"$GPHDT,265.132,T*34",,,
1777580440.239738,73240.200000,tod,GST,,,,,,,0.0110,0.0100,0.0220,,,,,,"$GPGST,202040.20,0.276,0.012,0.008,32.662,0.011,0.010,0.022*6B",,,
1777580440.337856,73240.300000,tod,GGA,39.7385689467,-84.1760121083,242.3227,4,12,1.00,,,,,,,,,"$GPGGA,202040.30,3944.3141368,N,08410.5607265,W,4,12,1.0,242.3227,M,-33.3702,M,1.3,1564*77",,,
1777580440.338977,,,HDT,,,,,,,,,,266.3770,,,,,"$GPHDT,266.377,T*34",,,
1777580440.340373,73240.300000,tod,GST,,,,,,,0.0110,0.0100,0.0220,,,,,,"$GPGST,202040.30,0.276,0.012,0.008,33.358,0.011,0.010,0.022*67",,,
1777580440.437842,73240.400000,tod,GGA,39.7385697350,-84.1760125217,242.3213,4,12,1.00,,,,,,,,,"$GPGGA,202040.40,3944.3141841,N,08410.5607513,W,4,12,1.0,242.3213,M,-33.3702,M,1.4,1564*76",,,
1777580440.439154,,,HDT,,,,,,,,,,267.0510,,,,,"$GPHDT,267.051,T*32",,,
1777580440.440550,73240.400000,tod,GST,,,,,,,0.0110,0.0100,0.0220,,,,,,"$GPGST,202040.40,0.276,0.012,0.008,33.525,0.011,0.010,0.022*6C",,,
1777580440.538381,73240.500000,tod,GGA,39.7385705783,-84.1760127800,242.3225,4,12,1.00,,,,,,,,,"$GPGGA,202040.50,3944.3142347,N,08410.5607668,W,4,12,1.0,242.3225,M,-33.3702,M,1.5,1564*72",,,
1777580440.539434,,,HDT,,,,,,,,,,267.6360,,,,,"$GPHDT,267.636,T*35",,,
1777580440.540873,73240.500000,tod,GST,,,,,,,0.0110,0.0100,0.0230,,,,,,"$GPGST,202040.50,0.276,0.012,0.008,33.319,0.011,0.010,0.023*65",,,
1777580440.637785,73240.600000,tod,GGA,39.7385713800,-84.1760131667,242.3301,4,12,1.00,,,,,,,,,"$GPGGA,202040.60,3944.3142828,N,08410.5607900,W,4,12,1.0,242.3301,M,-33.3702,M,0.6,1564*77",,,
1777580440.638786,,,HDT,,,,,,,,,,268.3310,,,,,"$GPHDT,268.331,T*38",,,
1777580440.640254,73240.600000,tod,GST,,,,,,,0.0110,0.0100,0.0230,,,,,,"$GPGST,202040.60,0.247,0.012,0.009,33.383,0.011,0.010,0.023*66",,,
1777580440.738144,73240.700000,tod,GGA,39.7385721850,-84.1760135267,242.3242,4,12,1.00,,,,,,,,,"$GPGGA,202040.70,3944.3143311,N,08410.5608116,W,4,12,1.0,242.3242,M,-33.3702,M,0.7,1564*71",,,
1777580440.739291,,,HDT,,,,,,,,,,269.0460,,,,,"$GPHDT,269.046,T*3A",,,
1777580440.740771,73240.700000,tod,GST,,,,,,,0.0110,0.0100,0.0230,,,,,,"$GPGST,202040.70,0.247,0.012,0.009,32.322,0.011,0.010,0.023*6D",,,
1777580440.837698,73240.800000,tod,GGA,39.7385728833,-84.1760138867,242.3243,4,12,1.00,,,,,,,,,"$GPGGA,202040.80,3944.3143730,N,08410.5608332,W,4,12,1.0,242.3243,M,-33.3702,M,0.8,1564*73",,,
1777580440.838837,,,HDT,,,,,,,,,,270.2050,,,,,"$GPHDT,270.205,T*37",,,
1777580440.840318,73240.800000,tod,GST,,,,,,,0.0110,0.0100,0.0230,,,,,,"$GPGST,202040.80,0.247,0.012,0.008,32.087,0.011,0.010,0.023*6F",,,
1777580440.937919,73240.900000,tod,GGA,39.7385738050,-84.1760141333,242.3265,4,12,1.00,,,,,,,,,"$GPGGA,202040.90,3944.3144283,N,08410.5608480,W,4,12,1.0,242.3265,M,-33.3702,M,0.9,1564*73",,,
1777580440.939097,,,HDT,,,,,,,,,,270.5630,,,,,"$GPHDT,270.563,T*30",,,
1777580440.940582,73240.900000,tod,GST,,,,,,,0.0110,0.0100,0.0230,,,,,,"$GPGST,202040.90,0.247,0.012,0.009,32.713,0.011,0.010,0.023*65",,,
1777580441.038085,73241.000000,tod,GGA,39.7385745500,-84.1760144300,242.3316,4,12,1.00,,,,,,,,,"$GPGGA,202041.00,3944.3144730,N,08410.5608658,W,4,12,1.0,242.3316,M,-33.3702,M,1.0,1564*7C",,,
1777580441.038955,,,HDT,,,,,,,,,,271.1580,,,,,"$GPHDT,271.158,T*3D",,,
1777580441.039685,73241.000000,tod,GST,,,,,,,0.0110,0.0100,0.0220,,,,,,"$GPGST,202041.00,0.247,0.012,0.008,32.224,0.011,0.010,0.022*6C",,,
1777580441.138036,73241.100000,tod,GGA,39.7385753300,-84.1760147567,242.3368,4,13,0.80,,,,,,,,,"$GPGGA,202041.10,3944.3145198,N,08410.5608854,W,4,13,0.8,242.3368,M,-33.3702,M,1.1,1564*7A",,,
1777580441.138835,,,HDT,,,,,,,,,,271.7950,,,,,"$GPHDT,271.795,T*3A",,,
1777580441.139537,73241.100000,tod,GST,,,,,,,0.0110,0.0090,0.0220,,,,,,"$GPGST,202041.10,0.190,0.012,0.008,31.833,0.011,0.009,0.022*63",,,
1777580441.237956,73241.200000,tod,GGA,39.7385761700,-84.1760149833,242.3357,4,13,0.80,,,,,,,,,"$GPGGA,202041.20,3944.3145702,N,08410.5608990,W,4,13,0.8,242.3357,M,-33.3702,M,1.2,1564*7A",,,
1777580441.238984,,,HDT,,,,,,,,,,272.6710,,,,,"$GPHDT,272.671,T*32",,,
1777580441.239755,73241.200000,tod,GST,,,,,,,0.0110,0.0100,0.0220,,,,,,"$GPGST,202041.20,0.190,0.012,0.008,33.283,0.011,0.010,0.022*6B",,,
1777580441.337667,73241.300000,tod,GGA,39.7385770483,-84.1760152700,242.3343,4,13,0.80,,,,,,,,,"$GPGGA,202041.30,3944.3146229,N,08410.5609162,W,4,13,0.8,242.3343,M,-33.3702,M,1.3,1564*74",,,
1777580441.338775,,,HDT,,,,,,,,,,273.3090,,,,,"$GPHDT,273.309,T*39",,,
1777580441.339530,73241.300000,tod,GST,,,,,,,0.0110,0.0100,0.0220,,,,,,"$GPGST,202041.30,0.190,0.012,0.009,34.173,0.011,0.010,0.022*60",,,
1777580441.437789,73241.400000,tod,GGA,39.7385778767,-84.1760154933,242.3384,4,13,0.80,,,,,,,,,"$GPGGA,202041.40,3944.3146726,N,08410.5609296,W,4,13,0.8,242.3384,M,-33.3702,M,1.4,1564*7D",,,
1777580441.438312,,,HDT,,,,,,,,,,274.6760,,,,,"$GPHDT,274.676,T*33",,,
1777580441.439529,73241.400000,tod,GST,,,,,,,0.0110,0.0100,0.0220,,,,,,"$GPGST,202041.40,0.190,0.012,0.009,34.282,0.011,0.010,0.022*6A",,,
1777580441.537869,73241.500000,tod,GGA,39.7385787100,-84.1760156317,242.3350,4,13,0.80,,,,,,,,,"$GPGGA,202041.50,3944.3147226,N,08410.5609379,W,4,13,0.8,242.3350,M,-33.3702,M,1.5,1564*70",,,
1777580441.538558,,,HDT,,,,,,,,,,275.8970,,,,,"$GPHDT,275.897,T*33",,,
1777580441.539560,73241.500000,tod,GST,,,,,,,0.0110,0.0100,0.0220,,,,,,"$GPGST,202041.50,0.190,0.012,0.009,33.834,0.011,0.010,0.022*6B",,,
1777580441.637746,73241.600000,tod,GGA,39.7385795900,-84.1760157933,242.3313,4,13,0.80,,,,,,,,,"$GPGGA,202041.60,3944.3147754,N,08410.5609476,W,4,13,0.8,242.3313,M,-33.3702,M,0.6,1564*7E",,,
1777580441.638680,,,HDT,,,,,,,,,,277.1600,,,,,"$GPHDT,277.160,T*30",,,
1777580441.639998,73241.600000,tod,GST,,,,,,,0.0110,0.0100,0.0220,,,,,,"$GPGST,202041.60,0.312,0.012,0.009,34.100,0.011,0.010,0.022*69",,,
1777580441.737371,73241.700000,tod,GGA,39.7385805217,-84.1760159033,242.3262,4,13,0.80,,,,,,,,,"$GPGGA,202041.70,3944.3148313,N,08410.5609542,W,4,13,0.8,242.3262,M,-33.3702,M,0.7,1564*77",,,
1777580441.738515,,,HDT,,,,,,,,,,277.8780,,,,,"$GPHDT,277.878,T*30",,,
1777580441.739380,73241.700000,tod,GST,,,,,,,0.0110,0.0100,0.0220,,,,,,"$GPGST,202041.70,0.312,0.012,0.009,36.944,0.011,0.010,0.022*62",,,
1777580441.837040,73241.800000,tod,GGA,39.7385813783,-84.1760161033,242.3314,4,13,0.80,,,,,,,,,"$GPGGA,202041.80,3944.3148827,N,08410.5609662,W,4,13,0.8,242.3314,M,-33.3702,M,0.8,1564*7A",,,
1777580441.838249,,,HDT,,,,,,,,,,279.2210,,,,,"$GPHDT,279.221,T*38",,,
1777580441.839020,73241.800000,tod,GST,,,,,,,0.0110,0.0100,0.0220,,,,,,"$GPGST,202041.80,0.312,0.012,0.008,35.895,0.011,0.010,0.022*62",,,
1777580441.936997,73241.900000,tod,GGA,39.7385823017,-84.1760162550,242.3230,4,13,0.80,,,,,,,,,"$GPGGA,202041.90,3944.3149381,N,08410.5609753,W,4,13,0.8,242.3230,M,-33.3702,M,0.9,1564*78",,,
1777580441.938078,,,HDT,,,,,,,,,,279.2150,,,,,"$GPHDT,279.215,T*3F",,,
1777580441.938804,73241.900000,tod,GST,,,,,,,0.0110,0.0100,0.0220,,,,,,"$GPGST,202041.90,0.312,0.012,0.008,36.377,0.011,0.010,0.022*67",,,
1777580442.037392,73242.000000,tod,GGA,39.7385833150,-84.1760163900,242.3229,4,13,0.80,,,,,,,,,"$GPGGA,202042.00,3944.3149989,N,08410.5609834,W,4,13,0.8,242.3229,M,-33.3702,M,1.0,1564*7E",,,
1777580442.038215,,,HDT,,,,,,,,,,279.7860,,,,,"$GPHDT,279.786,T*30",,,
1777580442.038964,73242.000000,tod,GST,,,,,,,0.0110,0.0100,0.0220,,,,,,"$GPGST,202042.00,0.312,0.012,0.008,37.224,0.011,0.010,0.022*6B",,,
1777580442.137388,73242.100000,tod,GGA,39.7385841383,-84.1760165433,242.3337,4,12,1.00,,,,,,,,,"$GPGGA,202042.10,3944.3150483,N,08410.5609926,W,4,12,1.0,242.3337,M,-33.3702,M,1.1,1564*75",,,
1777580442.138214,,,HDT,,,,,,,,,,280.1090,,,,,"$GPHDT,280.109,T*37",,,
1777580442.138920,73242.100000,tod,GST,,,,,,,0.0110,0.0100,0.0220,,,,,,"$GPGST,202042.10,0.279,0.012,0.008,38.842,0.011,0.010,0.022*63",,,
1777580442.237806,73242.200000,tod,GGA,39.7385850867,-84.1760167367,242.3295,4,12,1.00,,,,,,,,,"$GPGGA,202042.20,3944.3151052,N,08410.5610042,W,4,12,1.0,242.3295,M,-33.3702,M,1.2,1564*76",,,
1777580442.237987,,,HDT,,,,,,,,,,280.3060,,,,,"$GPHDT,280.306,T*3A",,,
1777580442.239147,73242.200000,tod,GST,,,,,,,0.0100,0.0100,0.0220,,,,,,"$GPGST,202042.20,0.279,0.012,0.008,38.981,0.010,0.010,0.022*6F",,,
1777580442.337765,73242.300000,tod,GGA,39.7385859667,-84.1760169283,242.3283,4,12,1.00,,,,,,,,,"$GPGGA,202042.30,3944.3151580,N,08410.5610157,W,4,12,1.0,242.3283,M,-33.3702,M,1.3,1564*7E",,,
1777580442.337944,,,HDT,,,,,,,,,,281.0640,,,,,"$GPHDT,281.064,T*3C",,,
1777580442.339112,73242.300000,tod,GST,,,,,,,0.0100,0.0090,0.0200,,,,,,"$GPGST,202042.30,0.279,0.010,0.008,35.577,0.010,0.009,0.020*6E",,,
1777580442.437437,73242.400000,tod,GGA,39.7385868633,-84.1760170583,242.3317,4,12,1.00,,,,,,,,,"$GPGGA,202042.40,3944.3152118,N,08410.5610235,W,4,12,1.0,242.3317,M,-33.3702,M,1.4,1564*73",,,
1777580442.438383,,,HDT,,,,,,,,,,281.5000,,,,,"$GPHDT,281.500,T*3B",,,
1777580442.439296,73242.400000,tod,GST,,,,,,,0.0090,0.0070,0.0170,,,,,,"$GPGST,202042.40,0.279,0.009,0.007,27.511,0.009,0.007,0.017*6F",,,
1777580442.538291,73242.500000,tod,GGA,39.7385878850,-84.1760171517,242.3261,4,12,1.00,,,,,,,,,"$GPGGA,202042.50,3944.3152731,N,08410.5610291,W,4,12,1.0,242.3261,M,-33.3702,M,1.5,1564*70",,,
1777580442.539243,,,HDT,,,,,,,,,,281.6890,,,,,"$GPHDT,281.689,T*39",,,
1777580442.540038,73242.500000,tod,GST,,,,,,,0.0090,0.0080,0.0170,,,,,,"$GPGST,202042.50,0.279,0.009,0.007,29.741,0.009,0.008,0.017*68",,,
1777580442.637390,73242.600000,tod,GGA,39.7385889100,-84.1760172550,242.3273,4,13,0.90,,,,,,,,,"$GPGGA,202042.60,3944.3153346,N,08410.5610353,W,4,13,0.9,242.3273,M,-33.3702,M,0.6,1564*71",,,
1777580442.638411,,,HDT,,,,,,,,,,282.3230,,,,,"$GPHDT,282.323,T*3F",,,
1777580442.639985,73242.600000,tod,GST,,,,,,,0.0090,0.0080,0.0170,,,,,,"$GPGST,202042.60,0.356,0.009,0.007,32.201,0.009,0.008,0.017*6C",,,
1777580442.737305,73242.700000,tod,GGA,39.7385898583,-84.1760173850,242.3288,4,13,0.90,,,,,,,,,"$GPGGA,202042.70,3944.3153915,N,08410.5610431,W,4,13,0.9,242.3288,M,-33.3702,M,0.7,1564*7A",,,
1777580442.738561,,,HDT,,,,,,,,,,282.6540,,,,,"$GPHDT,282.654,T*3A",,,
1777580442.740176,73242.700000,tod,GST,,,,,,,0.0090,0.0080,0.0180,,,,,,"$GPGST,202042.70,0.356,0.010,0.007,36.711,0.009,0.008,0.018*6A",,,
1777580442.837001,73242.800000,tod,GGA,39.7385908300,-84.1760175150,242.3258,4,13,0.90,,,,,,,,,"$GPGGA,202042.80,3944.3154498,N,08410.5610509,W,4,13,0.9,242.3258,M,-33.3702,M,0.8,1564*72",,,
1777580442.838107,,,HDT,,,,,,,,,,283.0610,,,,,"$GPHDT,283.061,T*3B",,,
1777580442.839735,73242.800000,tod,GST,,,,,,,0.0090,0.0080,0.0180,,,,,,"$GPGST,202042.80,0.356,0.010,0.007,39.054,0.009,0.008,0.018*6C",,,
1777580442.937036,73242.900000,tod,GGA,39.7385918500,-84.1760175450,242.3210,4,13,0.90,,,,,,,,,"$GPGGA,202042.90,3944.3155110,N,08410.5610527,W,4,13,0.9,242.3210,M,-33.3702,M,0.9,1564*76",,,
1777580442.938117,,,HDT,,,,,,,,,,283.6940,,,,,"$GPHDT,283.694,T*37",,,
1777580442.939746,73242.900000,tod,GST,,,,,,,0.0090,0.0080,0.0180,,,,,,"$GPGST,202042.90,0.356,0.010,0.007,38.917,0.009,0.008,0.018*62",,,
1777580443.037500,73243.000000,tod,GGA,39.7385928767,-84.1760175983,242.3267,4,13,0.90,,,,,,,,,"$GPGGA,202043.00,3944.3155726,N,08410.5610559,W,4,13,0.9,242.3267,M,-33.3702,M,1.0,1564*7C",,,
1777580443.037687,,,HDT,,,,,,,,,,283.6700,,,,,"$GPHDT,283.670,T*3D",,,
1777580443.040013,73243.000000,tod,GST,,,,,,,0.0090,0.0080,0.0170,,,,,,"$GPGST,202043.00,0.356,0.010,0.007,37.529,0.009,0.008,0.017*6B",,,
1777580443.137332,73243.100000,tod,GGA,39.7385938833,-84.1760176833,242.3260,4,13,0.90,,,,,,,,,"$GPGGA,202043.10,3944.3156330,N,08410.5610610,W,4,13,0.9,242.3260,M,-33.3702,M,1.1,1564*75",,,
1777580443.138485,,,HDT,,,,,,,,,,283.9020,,,,,"$GPHDT,283.902,T*37",,,
1777580443.140114,73243.100000,tod,GST,,,,,,,0.0090,0.0080,0.0170,,,,,,"$GPGST,202043.10,0.289,0.010,0.007,35.589,0.009,0.008,0.017*61",,,
1777580443.237117,73243.200000,tod,GGA,39.7385948833,-84.1760177733,242.3233,4,13,0.90,,,,,,,,,"$GPGGA,202043.20,3944.3156930,N,08410.5610664,W,4,13,0.9,242.3233,M,-33.3702,M,1.2,1564*7A",,,
1777580443.238278,,,HDT,,,,,,,,,,284.1760,,,,,"$GPHDT,284.176,T*3B",,,
1777580443.239901,73243.200000,tod,GST,,,,,,,0.0090,0.0080,0.0170,,,,,,"$GPGST,202043.20,0.289,0.010,0.007,34.653,0.009,0.008,0.017*67",,,
1777580443.336337,73243.300000,tod,GGA,39.7385959367,-84.1760178250,242.3129,4,13,0.90,,,,,,,,,"$GPGGA,202043.30,3944.3157562,N,08410.5610695,W,4,13,0.9,242.3129,M,-33.3702,M,1.3,1564*76",,,
1777580443.337301,,,HDT,,,,,,,,,,283.3900,,,,,"$GPHDT,283.390,T*36",,,
1777580443.338788,73243.300000,tod,GST,,,,,,,0.0090,0.0080,0.0170,,,,,,"$GPGST,202043.30,0.289,0.010,0.007,33.532,0.009,0.008,0.017*65",,,
1777580443.436116,73243.400000,tod,GGA,39.7385969450,-84.1760179167,242.3095,4,13,0.90,,,,,,,,,"$GPGGA,202043.40,3944.3158167,N,08410.5610750,W,4,13,0.9,242.3095,M,-33.3702,M,1.4,1564*76",,,
1777580443.437031,,,HDT,,,,,,,,,,283.5680,,,,,"$GPHDT,283.568,T*37",,,
1777580443.438120,73243.400000,tod,GST,,,,,,,0.0090,0.0080,0.0160,,,,,,"$GPGST,202043.40,0.289,0.010,0.007,32.561,0.009,0.008,0.016*64",,,
1777580443.537683,73243.500000,tod,GGA,39.7385979650,-84.1760180083,242.3203,4,13,0.90,,,,,,,,,"$GPGGA,202043.50,3944.3158779,N,08410.5610805,W,4,13,0.9,242.3203,M,-33.3702,M,1.5,1564*7D",,,
1777580443.538634,,,HDT,,,,,,,,,,283.5570,,,,,"$GPHDT,283.557,T*3B",,,
1777580443.540233,73243.500000,tod,GST,,,,,,,0.0090,0.0070,0.0160,,,,,,"$GPGST,202043.50,0.289,0.010,0.007,31.104,0.009,0.007,0.016*6E",,,
1777580443.636785,73243.600000,tod,GGA,39.7385990550,-84.1760180300,242.3129,4,13,0.90,,,,,,,,,"$GPGGA,202043.60,3944.3159433,N,08410.5610818,W,4,13,0.9,242.3129,M,-33.3702,M,0.6,1564*77",,,
1777580443.637824,,,HDT,,,,,,,,,,283.3640,,,,,"$GPHDT,283.364,T*3D",,,
1777580443.639469,73243.600000,tod,GST,,,,,,,0.0090,0.0070,0.0160,,,,,,"$GPGST,202043.60,0.262,0.009,0.007,29.666,0.009,0.007,0.016*6A",,,
