wall_time,gps_utc,gps_utc_type,msg_type,lat,lon,alt,fix_quality,num_sats,hdop,lat_err_m,lon_err_m,alt_err_m,heading_deg,speed_knots,speed_kmh,course_true_deg,rmc_status,raw_nmea
1777493434.024138,72634,tod,GGA,39.73822502,-84.17640686,242.2298,4,12,1.8,,,,,,,,,"$GPGGA,201034.00,3944.2935011,N,08410.5844113,W,4,12,1.8,242.2298,M,-33.3702,M,1.0,2991*73"
1777493434.026576,,,HDT,,,,,,,,,,9.14,,,,,"$GPHDT,9.140,T*39"
1777493434.029780,72634,tod,GST,,,,,,,0.019,0.006,0.018,,,,,,"$GPGST,201034.00,0.285,0.019,0.006,1.212,0.019,0.006,0.018*55"
1777493434.126374,72634.1,tod,GGA,39.73822502,-84.17640685,242.2332,4,12,1.8,,,,,,,,,"$GPGGA,201034.10,3944.2935011,N,08410.5844109,W,4,12,1.8,242.2332,M,-33.3702,M,1.1,2991*79"
1777493434.129395,,,HDT,,,,,,,,,,9.157,,,,,"$GPHDT,9.157,T*3F"
1777493434.136350,72634.1,tod,GST,,,,,,,0.019,0.006,0.018,,,,,,"$GPGST,201034.10,0.227,0.019,0.006,1.163,0.019,0.006,0.018*59"
1777493434.228192,72634.2,tod,GGA,39.73822502,-84.17640687,242.2348,4,12,1.8,,,,,,,,,"$GPGGA,201034.20,3944.2935009,N,08410.5844120,W,4,12,1.8,242.2348,M,-33.3702,M,1.2,2991*76"
1777493434.230702,,,HDT,,,,,,,,,,9.201,,,,,"$GPHDT,9.201,T*3F"
1777493434.236024,72634.2,tod,GST,,,,,,,0.019,0.006,0.019,,,,,,"$GPGST,201034.20,0.227,0.019,0.006,1.196,0.019,0.006,0.019*51"
1777493434.327671,72634.3,tod,GGA,39.73822499,-84.17640685,242.2329,4,12,1.8,,,,,,,,,"$GPGGA,201034.30,3944.2934991,N,08410.5844110,W,4,12,1.8,242.2329,M,-33.3702,M,1.3,2991*7B"
1777493434.330292,,,HDT,,,,,,,,,,9.057,,,,,"$GPHDT,9.057,T*3E"
1777493434.334888,72634.3,tod,GST,,,,,,,0.019,0.006,0.018,,,,,,"$GPGST,201034.30,0.227,0.019,0.006,1.174,0.019,0.006,0.018*5D"
1777493434.427942,72634.4,tod,GGA,39.73822498,-84.17640685,242.2321,4,12,1.8,,,,,,,,,"$GPGGA,201034.40,3944.2934985,N,08410.5844112,W,4,12,1.8,242.2321,M,-33.3702,M,1.4,2991*74"
1777493434.431043,,,HDT,,,,,,,,,,9.121,,,,,"$GPHDT,9.121,T*3E"
1777493434.437751,72634.4,tod,GST,,,,,,,0.019,0.006,0.018,,,,,,"$GPGST,201034.40,0.227,0.019,0.006,1.085,0.019,0.006,0.018*55"
1777493434.527648,72634.5,tod,GGA,39.73822497,-84.17640685,242.2285,4,12,1.8,,,,,,,,,"$GPGGA,201034.50,3944.2934981,N,08410.5844107,W,4,12,1.8,242.2285,M,-33.3702,M,1.5,2991*7B"
1777493434.530194,,,HDT,,,,,,,,,,9.077,,,,,"$GPHDT,9.077,T*3C"
1777493434.535231,72634.5,tod,GST,,,,,,,0.019,0.006,0.018,,,,,,"$GPGST,201034.50,0.227,0.019,0.006,1.066,0.019,0.006,0.018*59"
1777493434.626956,72634.6,tod,GGA,39.73822496,-84.17640686,242.2272,4,12,1.8,,,,,,,,,"$GPGGA,201034.60,3944.2934973,N,08410.5844118,W,4,12,1.8,242.2272,M,-33.3702,M,0.6,2991*71"
1777493434.629605,,,HDT,,,,,,,,,,9.08,,,,,"$GPHDT,9.080,T*34"
1777493434.634832,72634.6,tod,GST,,,,,,,0.019,0.006,0.018,,,,,,"$GPGST,201034.60,0.197,0.019,0.006,1.044,0.019,0.006,0.018*52"
1777493434.726992,72634.7,tod,GGA,39.73822494,-84.17640686,242.227,4,12,1.8,,,,,,,,,"$GPGGA,201034.70,3944.2934965,N,08410.5844114,W,4,12,1.8,242.2270,M,-33.3702,M,0.7,2991*78"
1777493434.729722,,,HDT,,,,,,,,,,9.009,,,,,"$GPHDT,9.009,T*35"
1777493434.734670,72634.7,tod,GST,,,,,,,0.019,0.006,0.018,,,,,,"$GPGST,201034.70,0.197,0.019,0.006,1.013,0.019,0.006,0.018*51"
1777493434.826491,72634.8,tod,GGA,39.7382249,-84.17640686,242.2245,4,12,1.8,,,,,,,,,"$GPGGA,201034.80,3944.2934940,N,08410.5844113,W,4,12,1.8,242.2245,M,-33.3702,M,0.8,2991*7E"
1777493434.829109,,,HDT,,,,,,,,,,8.926,,,,,"$GPHDT,8.926,T*30"
1777493434.835825,72634.8,tod,GST,,,,,,,0.019,0.006,0.018,,,,,,"$GPGST,201034.80,0.197,0.019,0.006,0.954,0.019,0.006,0.018*55"
1777493434.928464,72634.9,tod,GGA,39.73822486,-84.17640687,242.2237,4,12,1.8,,,,,,,,,"$GPGGA,201034.90,3944.2934917,N,08410.5844119,W,4,12,1.8,242.2237,M,-33.3702,M,0.9,2991*73"
1777493434.930846,,,HDT,,,,,,,,,,8.86,,,,,"$GPHDT,8.860,T*33"
1777493434.938541,72634.9,tod,GST,,,,,,,0.019,0.006,0.018,,,,,,"$GPGST,201034.90,0.197,0.019,0.006,1.085,0.019,0.006,0.018*50"
1777493435.030377,72635,tod,GGA,39.73822484,-84.17640688,242.2212,4,12,1.8,,,,,,,,,"$GPGGA,201035.00,3944.2934904,N,08410.5844126,W,4,12,1.8,242.2212,M,-33.3702,M,1.0,2991*7A"
1777493435.033165,,,HDT,,,,,,,,,,8.802,,,,,"$GPHDT,8.802,T*37"
1777493435.040606,72635,tod,GST,,,,,,,0.019,0.006,0.019,,,,,,"$GPGST,201035.00,0.197,0.019,0.006,1.233,0.019,0.006,0.019*56"
1777493435.126132,72635.1,tod,GGA,39.73822487,-84.17640688,242.2232,4,12,1.8,,,,,,,,,"$GPGGA,201035.10,3944.2934920,N,08410.5844126,W,4,12,1.8,242.2232,M,-33.3702,M,1.1,2991*7E"
1777493435.130383,,,HDT,,,,,,,,,,8.907,,,,,"$GPHDT,8.907,T*33"
1777493435.135708,72635.1,tod,GST,,,,,,,0.019,0.006,0.018,,,,,,"$GPGST,201035.10,0.137,0.019,0.006,1.269,0.019,0.006,0.018*53"
1777493435.225670,72635.2,tod,GGA,39.73822486,-84.17640689,242.2185,4,12,1.8,,,,,,,,,"$GPGGA,201035.20,3944.2934916,N,08410.5844133,W,4,12,1.8,242.2185,M,-33.3702,M,1.2,2991*70"
1777493435.228215,,,HDT,,,,,,,,,,9.022,,,,,"$GPHDT,9.022,T*3C"
1777493435.232625,72635.2,tod,GST,,,,,,,0.019,0.006,0.018,,,,,,"$GPGST,201035.20,0.137,0.019,0.006,1.290,0.019,0.006,0.018*56"
1777493435.326057,72635.3,tod,GGA,39.73822486,-84.17640689,242.215,4,12,1.8,,,,,,,,,"$GPGGA,201035.30,3944.2934915,N,08410.5844131,W,4,12,1.8,242.2150,M,-33.3702,M,1.3,2991*79"
1777493435.329655,,,HDT,,,,,,,,,,9.113,,,,,"$GPHDT,9.113,T*3F"
1777493435.333461,72635.3,tod,GST,,,,,,,0.019,0.006,0.018,,,,,,"$GPGST,201035.30,0.137,0.019,0.006,1.329,0.019,0.006,0.018*54"
1777493435.426924,72635.4,tod,GGA,39.73822487,-84.17640688,242.2132,4,12,1.8,,,,,,,,,"$GPGGA,201035.40,3944.2934920,N,08410.5844126,W,4,12,1.8,242.2132,M,-33.3702,M,1.4,2991*7D"
1777493435.428082,,,HDT,,,,,,,,,,9.188,,,,,"$GPHDT,9.188,T*3D"
1777493435.434301,72635.4,tod,GST,,,,,,,0.019,0.006,0.019,,,,,,"$GPGST,201035.40,0.137,0.019,0.006,1.357,0.019,0.006,0.019*5B"
1777493435.526917,72635.5,tod,GGA,39.73822482,-84.17640687,242.2167,4,12,1.8,,,,,,,,,"$GPGGA,201035.50,3944.2934889,N,08410.5844122,W,4,12,1.8,242.2167,M,-33.3702,M,1.5,2991*7B"
1777493435.529400,,,HDT,,,,,,,,,,9.126,,,,,"$GPHDT,9.126,T*39"
1777493435.534298,72635.5,tod,GST,,,,,,,0.019,0.006,0.018,,,,,,"$GPGST,201035.50,0.137,0.019,0.006,1.208,0.019,0.006,0.018*50"
1777493435.626557,72635.6,tod,GGA,39.73822483,-84.17640687,242.2202,4,12,1.8,,,,,,,,,"$GPGGA,201035.60,3944.2934896,N,08410.5844124,W,4,12,1.8,242.2202,M,-33.3702,M,0.6,2991*72"
1777493435.628942,,,HDT,,,,,,,,,,9.117,,,,,"$GPHDT,9.117,T*3B"
1777493435.632166,72635.6,tod,GST,,,,,,,0.019,0.006,0.019,,,,,,"$GPGST,201035.60,0.193,0.019,0.006,1.204,0.019,0.006,0.019*50"
1777493435.729048,72635.7,tod,GGA,39.73822488,-84.17640687,242.2185,4,12,1.8,,,,,,,,,"$GPGGA,201035.70,3944.2934928,N,08410.5844123,W,4,12,1.8,242.2185,M,-33.3702,M,0.7,2991*7D"
1777493435.733760,,,HDT,,,,,,,,,,9.088,,,,,"$GPHDT,9.088,T*3C"
1777493435.740335,72635.7,tod,GST,,,,,,,0.02,0.006,0.019,,,,,,"$GPGST,201035.70,0.193,0.020,0.006,1.181,0.020,0.006,0.019*5F"
1777493435.825274,72635.8,tod,GGA,39.73822489,-84.17640687,242.2204,4,12,1.8,,,,,,,,,"$GPGGA,201035.80,3944.2934934,N,08410.5844120,W,4,12,1.8,242.2204,M,-33.3702,M,0.8,2991*79"
1777493435.828139,,,HDT,,,,,,,,,,9.139,,,,,"$GPHDT,9.139,T*37"
1777493435.833756,72635.8,tod,GST,,,,,,,0.019,0.006,0.018,,,,,,"$GPGST,201035.80,0.193,0.019,0.006,1.148,0.019,0.006,0.018*54"
1777493435.927682,72635.9,tod,GGA,39.73822488,-84.17640687,242.2196,4,12,1.8,,,,,,,,,"$GPGGA,201035.90,3944.2934926,N,08410.5844124,W,4,12,1.8,242.2196,M,-33.3702,M,0.9,2991*76"
1777493435.931357,,,HDT,,,,,,,,,,9.214,,,,,"$GPHDT,9.214,T*3B"
1777493435.938314,72635.9,tod,GST,,,,,,,0.019,0.006,0.018,,,,,,"$GPGST,201035.90,0.193,0.019,0.006,1.163,0.019,0.006,0.018*5C"
1777493436.025422,72636,tod,GGA,39.73822489,-84.17640689,242.2223,4,12,1.8,,,,,,,,,"$GPGGA,201036.00,3944.2934933,N,08410.5844133,W,4,12,1.8,242.2223,M,-33.3702,M,1.0,2991*7B"
1777493436.026602,,,HDT,,,,,,,,,,9.397,,,,,"$GPHDT,9.397,T*31"
1777493436.032776,72636,tod,GST,,,,,,,0.02,0.006,0.019,,,,,,"$GPGST,201036.00,0.193,0.020,0.006,1.346,0.020,0.006,0.019*52"
1777493436.127715,72636.1,tod,GGA,39.73822487,-84.17640689,242.2208,4,12,1.8,,,,,,,,,"$GPGGA,201036.10,3944.2934922,N,08410.5844136,W,4,12,1.8,242.2208,M,-33.3702,M,1.1,2991*77"
1777493436.130744,,,HDT,,,,,,,,,,9.229,,,,,"$GPHDT,9.229,T*35"
1777493436.137246,72636.1,tod,GST,,,,,,,0.019,0.006,0.018,,,,,,"$GPGST,201036.10,0.154,0.019,0.006,1.212,0.019,0.006,0.018*59"
1777493436.227364,72636.2,tod,GGA,39.73822483,-84.1764069,242.2208,4,12,1.8,,,,,,,,,"$GPGGA,201036.20,3944.2934897,N,08410.5844137,W,4,12,1.8,242.2208,M,-33.3702,M,1.2,2991*79"
1777493436.231374,,,HDT,,,,,,,,,,9.132,,,,,"$GPHDT,9.132,T*3C"
1777493436.235316,72636.2,tod,GST,,,,,,,0.019,0.006,0.018,,,,,,"$GPGST,201036.20,0.154,0.019,0.006,1.241,0.019,0.006,0.018*5C"
1777493436.326687,72636.3,tod,GGA,39.73822483,-84.17640691,242.2219,4,12,1.8,,,,,,,,,"$GPGGA,201036.30,3944.2934896,N,08410.5844143,W,4,12,1.8,242.2219,M,-33.3702,M,1.3,2991*7B"
1777493436.329224,,,HDT,,,,,,,,,,9.169,,,,,"$GPHDT,9.169,T*32"
1777493436.333567,72636.3,tod,GST,,,,,,,0.019,0.006,0.018,,,,,,"$GPGST,201036.30,0.154,0.019,0.006,1.234,0.019,0.006,0.018*5F"
1777493436.426556,72636.4,tod,GGA,39.73822483,-84.17640693,242.2147,4,12,1.8,,,,,,,,,"$GPGGA,201036.40,3944.2934897,N,08410.5844160,W,4,12,1.8,242.2147,M,-33.3702,M,1.4,2991*73"
1777493436.428967,,,HDT,,,,,,,,,,9.418,,,,,"$GPHDT,9.418,T*31"
1777493436.432635,72636.4,tod,GST,,,,,,,0.019,0.006,0.018,,,,,,"$GPGST,201036.40,0.154,0.019,0.006,1.089,0.019,0.006,0.018*5C"
1777493436.526384,72636.5,tod,GGA,39.73822479,-84.17640694,242.2145,4,12,1.8,,,,,,,,,"$GPGGA,201036.50,3944.2934875,N,08410.5844162,W,4,12,1.8,242.2145,M,-33.3702,M,1.5,2991*7F"
1777493436.528975,,,HDT,,,,,,,,,,9.39,,,,,"$GPHDT,9.390,T*36"
1777493436.533564,72636.5,tod,GST,,,,,,,0.019,0.006,0.018,,,,,,"$GPGST,201036.50,0.154,0.019,0.006,1.023,0.019,0.006,0.018*5D"
1777493436.625529,72636.6,tod,GGA,39.73822479,-84.17640692,242.2149,4,12,1.8,,,,,,,,,"$GPGGA,201036.60,3944.2934875,N,08410.5844149,W,4,12,1.8,242.2149,M,-33.3702,M,0.6,2991*7B"
1777493436.628191,,,HDT,,,,,,,,,,9.108,,,,,"$GPHDT,9.108,T*35"
1777493436.631046,72636.6,tod,GST,,,,,,,0.019,0.006,0.018,,,,,,"$GPGST,201036.60,0.202,0.019,0.006,0.943,0.019,0.006,0.018*50"
1777493436.725550,72636.7,tod,GGA,39.73822482,-84.1764069,242.2122,4,12,1.8,,,,,,,,,"$GPGGA,201036.70,3944.2934894,N,08410.5844142,W,4,12,1.8,242.2122,M,-33.3702,M,0.7,2991*72"
1777493436.728152,,,HDT,,,,,,,,,,8.961,,,,,"$GPHDT,8.961,T*33"
1777493436.733007,72636.7,tod,GST,,,,,,,0.019,0.006,0.018,,,,,,"$GPGST,201036.70,0.202,0.019,0.006,0.948,0.019,0.006,0.018*5A"
1777493436.825600,72636.8,tod,GGA,39.73822485,-84.1764069,242.2191,4,12,1.8,,,,,,,,,"$GPGGA,201036.80,3944.2934909,N,08410.5844139,W,4,12,1.8,242.2191,M,-33.3702,M,0.8,2991*73"
1777493436.827938,,,HDT,,,,,,,,,,9.026,,,,,"$GPHDT,9.026,T*38"
1777493436.833054,72636.8,tod,GST,,,,,,,0.019,0.006,0.018,,,,,,"$GPGST,201036.80,0.202,0.019,0.006,1.027,0.019,0.006,0.018*54"
1777493436.923056,72636.9,tod,GGA,39.73822486,-84.1764069,242.2157,4,12,1.8,,,,,,,,,"$GPGGA,201036.90,3944.2934916,N,08410.5844138,W,4,12,1.8,242.2157,M,-33.3702,M,0.9,2991*76"
1777493436.925425,,,HDT,,,,,,,,,,8.952,,,,,"$GPHDT,8.952,T*33"
1777493436.930314,72636.9,tod,GST,,,,,,,0.019,0.006,0.018,,,,,,"$GPGST,201036.90,0.202,0.019,0.006,1.005,0.019,0.006,0.018*55"
1777493437.025193,72637,tod,GGA,39.73822484,-84.1764069,242.2136,4,12,1.8,,,,,,,,,"$GPGGA,201037.00,3944.2934904,N,08410.5844138,W,4,12,1.8,242.2136,M,-33.3702,M,1.0,2991*72"
1777493437.027597,,,HDT,,,,,,,,,,8.812,,,,,"$GPHDT,8.812,T*36"
1777493437.030742,72637,tod,GST,,,,,,,0.019,0.006,0.018,,,,,,"$GPGST,201037.00,0.202,0.019,0.006,1.101,0.019,0.006,0.018*58"
1777493437.126884,72637.1,tod,GGA,39.73822485,-84.17640689,242.217,4,12,1.8,,,,,,,,,"$GPGGA,201037.10,3944.2934911,N,08410.5844135,W,4,12,1.8,242.2170,M,-33.3702,M,1.1,2991*79"
1777493437.129324,,,HDT,,,,,,,,,,8.828,,,,,"$GPHDT,8.828,T*3F"
1777493437.134435,72637.1,tod,GST,,,,,,,0.019,0.006,0.018,,,,,,"$GPGST,201037.10,0.152,0.019,0.006,1.096,0.019,0.006,0.018*50"
1777493437.224675,72637.2,tod,GGA,39.73822486,-84.1764069,242.212,4,12,1.8,,,,,,,,,"$GPGGA,201037.20,3944.2934915,N,08410.5844138,W,4,12,1.8,242.2120,M,-33.3702,M,1.2,2991*75"
1777493437.227026,,,HDT,,,,,,,,,,8.573,,,,,"$GPHDT,8.573,T*3C"
1777493437.231535,72637.2,tod,GST,,,,,,,0.019,0.006,0.017,,,,,,"$GPGST,201037.20,0.152,0.019,0.006,1.108,0.019,0.006,0.017*5A"
1777493437.324322,72637.3,tod,GGA,39.73822485,-84.17640689,242.2142,4,12,1.8,,,,,,,,,"$GPGGA,201037.30,3944.2934912,N,08410.5844133,W,4,12,1.8,242.2142,M,-33.3702,M,1.3,2991*7D"
1777493437.326661,,,HDT,,,,,,,,,,8.568,,,,,"$GPHDT,8.568,T*36"
1777493437.331096,72637.3,tod,GST,,,,,,,0.019,0.006,0.018,,,,,,"$GPGST,201037.30,0.152,0.019,0.006,1.190,0.019,0.006,0.018*55"
1777493437.425705,72637.4,tod,GGA,39.73822484,-84.17640688,242.2146,4,12,1.8,,,,,,,,,"$GPGGA,201037.40,3944.2934904,N,08410.5844130,W,4,12,1.8,242.2146,M,-33.3702,M,1.4,2991*7D"
1777493437.428096,,,HDT,,,,,,,,,,8.643,,,,,"$GPHDT,8.643,T*3C"
1777493437.431498,72637.4,tod,GST,,,,,,,0.019,0.006,0.018,,,,,,"$GPGST,201037.40,0.152,0.019,0.006,1.171,0.019,0.006,0.018*5D"
1777493437.525808,72637.5,tod,GGA,39.73822484,-84.17640688,242.2184,4,12,1.8,,,,,,,,,"$GPGGA,201037.50,3944.2934901,N,08410.5844127,W,4,12,1.8,242.2184,M,-33.3702,M,1.5,2991*70"
1777493437.527783,,,HDT,,,,,,,,,,8.663,,,,,"$GPHDT,8.663,T*3E"
1777493437.531633,72637.5,tod,GST,,,,,,,0.019,0.006,0.018,,,,,,"$GPGST,201037.50,0.152,0.019,0.006,1.224,0.019,0.006,0.018*5F"
1777493437.625830,72637.6,tod,GGA,39.73822484,-84.17640687,242.2146,4,12,1.8,,,,,,,,,"$GPGGA,201037.60,3944.2934902,N,08410.5844123,W,4,12,1.8,242.2146,M,-33.3702,M,0.6,2991*78"
1777493437.629896,,,HDT,,,,,,,,,,8.629,,,,,"$GPHDT,8.629,T*30"
1777493437.635271,72637.6,tod,GST,,,,,,,0.019,0.006,0.018,,,,,,"$GPGST,201037.60,0.136,0.019,0.006,1.189,0.019,0.006,0.018*5A"
1777493437.727390,72637.7,tod,GGA,39.73822487,-84.17640685,242.2239,4,12,1.8,,,,,,,,,"$GPGGA,201037.70,3944.2934921,N,08410.5844112,W,4,12,1.8,242.2239,M,-33.3702,M,0.7,2991*70"
1777493437.729970,,,HDT,,,,,,,,,,8.696,,,,,"$GPHDT,8.696,T*34"
1777493437.734836,72637.7,tod,GST,,,,,,,0.019,0.006,0.018,,,,,,"$GPGST,201037.70,0.136,0.019,0.006,1.058,0.019,0.006,0.018*56"
1777493437.825065,72637.8,tod,GGA,39.73822489,-84.17640688,242.224,4,12,1.8,,,,,,,,,"$GPGGA,201037.80,3944.2934931,N,08410.5844128,W,4,12,1.8,242.2240,M,-33.3702,M,0.8,2991*76"
1777493437.827341,,,HDT,,,,,,,,,,8.784,,,,,"$GPHDT,8.784,T*36"
1777493437.829954,72637.8,tod,GST,,,,,,,0.019,0.006,0.019,,,,,,"$GPGST,201037.80,0.136,0.019,0.006,1.246,0.019,0.006,0.019*55"
1777493437.926838,72637.9,tod,GGA,39.73822491,-84.17640686,242.2275,4,12,1.8,,,,,,,,,"$GPGGA,201037.90,3944.2934948,N,08410.5844114,W,4,12,1.8,242.2275,M,-33.3702,M,0.9,2991*71"
1777493437.929588,,,HDT,,,,,,,,,,8.723,,,,,"$GPHDT,8.723,T*3B"
1777493437.936894,72637.9,tod,GST,,,,,,,0.019,0.006,0.018,,,,,,"$GPGST,201037.90,0.136,0.019,0.006,1.194,0.019,0.006,0.018*59"
1777493438.024524,72638,tod,GGA,39.73822493,-84.17640685,242.2274,4,12,1.8,,,,,,,,,"$GPGGA,201038.00,3944.2934957,N,08410.5844110,W,4,12,1.8,242.2274,M,-33.3702,M,1.0,2991*74"
1777493438.025769,,,HDT,,,,,,,,,,8.727,,,,,"$GPHDT,8.727,T*3F"
1777493438.032284,72638,tod,GST,,,,,,,0.019,0.006,0.019,,,,,,"$GPGST,201038.00,0.136,0.019,0.006,1.300,0.019,0.006,0.019*51"
1777493438.126304,72638.1,tod,GGA,39.73822494,-84.17640686,242.2237,4,12,1.8,,,,,,,,,"$GPGGA,201038.10,3944.2934962,N,08410.5844118,W,4,12,1.8,242.2237,M,-33.3702,M,1.1,2991*7D"
1777493438.128865,,,HDT,,,,,,,,,,8.718,,,,,"$GPHDT,8.718,T*33"
1777493438.132687,72638.1,tod,GST,,,,,,,0.019,0.006,0.018,,,,,,"$GPGST,201038.10,0.128,0.019,0.006,1.132,0.019,0.006,0.018*5D"
1777493438.224044,72638.2,tod,GGA,39.73822496,-84.17640692,242.2233,4,12,1.8,,,,,,,,,"$GPGGA,201038.20,3944.2934973,N,08410.5844153,W,4,12,1.8,242.2233,M,-33.3702,M,1.2,2991*76"
1777493438.226273,,,HDT,,,,,,,,,,8.879,,,,,"$GPHDT,8.879,T*3B"
1777493438.230747,72638.2,tod,GST,,,,,,,0.02,0.006,0.019,,,,,,"$GPGST,201038.20,0.128,0.020,0.006,1.342,0.020,0.006,0.019*5A"
1777493438.325067,72638.3,tod,GGA,39.73822499,-84.17640702,242.2183,4,12,1.8,,,,,,,,,"$GPGGA,201038.30,3944.2934993,N,08410.5844209,W,4,12,1.8,242.2183,M,-33.3702,M,1.3,2991*7C"
1777493438.326257,,,HDT,,,,,,,,,,9.151,,,,,"$GPHDT,9.151,T*39"
1777493438.330902,72638.3,tod,GST,,,,,,,0.021,0.007,0.022,,,,,,"$GPGST,201038.30,0.128,0.021,0.007,1.911,0.021,0.007,0.022*5F"
1777493438.424638,72638.4,tod,GGA,39.738225,-84.17640709,242.2193,4,12,1.8,,,,,,,,,"$GPGGA,201038.40,3944.2935002,N,08410.5844252,W,4,12,1.8,242.2193,M,-33.3702,M,1.4,2991*73"
1777493438.426036,,,HDT,,,,,,,,,,9.442,,,,,"$GPHDT,9.442,T*3E"
1777493438.430599,72638.4,tod,GST,,,,,,,0.018,0.005,0.015,,,,,,"$GPGST,201038.40,0.128,0.018,0.005,0.596,0.018,0.005,0.015*5E"
1777493438.524870,72638.5,tod,GGA,39.73822502,-84.1764072,242.2191,4,12,1.8,,,,,,,,,"$GPGGA,201038.50,3944.2935012,N,08410.5844319,W,4,12,1.8,242.2191,M,-33.3702,M,1.5,2991*7E"
1777493438.526275,,,HDT,,,,,,,,,,9.951,,,,,"$GPHDT,9.951,T*31"
1777493438.530504,72638.5,tod,GST,,,,,,,0.022,0.007,0.023,,,,,,"$GPGST,201038.50,0.128,0.022,0.007,2.187,0.022,0.007,0.023*5C"
1777493438.625293,72638.6,tod,GGA,39.73822503,-84.17640733,242.2166,4,12,1.8,,,,,,,,,"$GPGGA,201038.60,3944.2935016,N,08410.5844399,W,4,12,1.8,242.2166,M,-33.3702,M,0.6,2991*7B"
1777493438.626083,,,HDT,,,,,,,,,,10.612,,,,,"$GPHDT,10.612,T*01"
1777493438.630981,72638.6,tod,GST,,,,,,,0.018,0.005,0.015,,,,,,"$GPGST,201038.60,0.128,0.018,0.005,0.446,0.018,0.005,0.015*50"
1777493438.724471,72638.7,tod,GGA,39.73822505,-84.17640745,242.2182,4,12,1.8,,,,,,,,,"$GPGGA,201038.70,3944.2935028,N,08410.5844470,W,4,12,1.8,242.2182,M,-33.3702,M,0.7,2991*7C"
1777493438.726986,,,HDT,,,,,,,,,,11.347,,,,,"$GPHDT,11.347,T*05"
1777493438.731534,72638.7,tod,GST,,,,,,,0.018,0.005,0.015,,,,,,"$GPGST,201038.70,0.128,0.018,0.005,0.503,0.018,0.005,0.015*51"
1777493438.824688,72638.8,tod,GGA,39.73822506,-84.17640756,242.2157,4,12,1.8,,,,,,,,,"$GPGGA,201038.80,3944.2935038,N,08410.5844533,W,4,12,1.8,242.2157,M,-33.3702,M,0.8,2991*73"
1777493438.827213,,,HDT,,,,,,,,,,12.151,,,,,"$GPHDT,12.151,T*03"
1777493438.832194,72638.8,tod,GST,,,,,,,0.018,0.005,0.015,,,,,,"$GPGST,201038.80,0.128,0.018,0.005,0.534,0.018,0.005,0.015*5A"
1777493438.926082,72638.9,tod,GGA,39.73822507,-84.17640763,242.2128,4,12,1.8,,,,,,,,,"$GPGGA,201038.90,3944.2935042,N,08410.5844579,W,4,12,1.8,242.2128,M,-33.3702,M,0.9,2991*78"
1777493438.927207,,,HDT,,,,,,,,,,12.479,,,,,"$GPHDT,12.479,T*0C"
1777493438.931813,72638.9,tod,GST,,,,,,,0.021,0.007,0.022,,,,,,"$GPGST,201038.90,0.128,0.021,0.007,2.427,0.021,0.007,0.022*5E"
1777493439.026323,72639,tod,GGA,39.73822507,-84.1764077,242.2141,4,12,1.8,,,,,,,,,"$GPGGA,201039.00,3944.2935043,N,08410.5844622,W,4,12,1.8,242.2141,M,-33.3702,M,1.0,2991*7B"
1777493439.028956,,,HDT,,,,,,,,,,12.684,,,,,"$GPHDT,12.684,T*0C"
1777493439.032213,72639,tod,GST,,,,,,,0.021,0.007,0.021,,,,,,"$GPGST,201039.00,0.128,0.021,0.007,2.340,0.021,0.007,0.021*53"
1777493439.126024,72639.1,tod,GGA,39.73822511,-84.17640781,242.2151,4,12,1.8,,,,,,,,,"$GPGGA,201039.10,3944.2935063,N,08410.5844685,W,4,12,1.8,242.2151,M,-33.3702,M,1.1,2991*75"
1777493439.128497,,,HDT,,,,,,,,,,13.3,,,,,"$GPHDT,13.300,T*04"
1777493439.133219,72639.1,tod,GST,,,,,,,0.021,0.007,0.023,,,,,,"$GPGST,201039.10,0.169,0.021,0.007,2.661,0.021,0.007,0.023*53"
1777493439.224273,72639.2,tod,GGA,39.73822514,-84.17640785,242.2147,4,12,1.8,,,,,,,,,"$GPGGA,201039.20,3944.2935082,N,08410.5844709,W,4,12,1.8,242.2147,M,-33.3702,M,1.2,2991*78"
1777493439.227743,,,HDT,,,,,,,,,,13.38,,,,,"$GPHDT,13.380,T*0C"
1777493439.230897,72639.2,tod,GST,,,,,,,0.021,0.007,0.023,,,,,,"$GPGST,201039.20,0.169,0.021,0.007,2.718,0.021,0.007,0.023*5F"
1777493439.325128,72639.3,tod,GGA,39.73822517,-84.17640785,242.2149,4,12,1.8,,,,,,,,,"$GPGGA,201039.30,3944.2935101,N,08410.5844711,W,4,12,1.8,242.2149,M,-33.3702,M,1.3,2991*75"
1777493439.327833,,,HDT,,,,,,,,,,13.269,,,,,"$GPHDT,13.269,T*0A"
1777493439.332464,72639.3,tod,GST,,,,,,,0.02,0.007,0.021,,,,,,"$GPGST,201039.30,0.169,0.020,0.007,2.417,0.020,0.007,0.021*50"
1777493439.425150,72639.4,tod,GGA,39.73822518,-84.17640788,242.2134,4,12,1.8,,,,,,,,,"$GPGGA,201039.40,3944.2935110,N,08410.5844726,W,4,12,1.8,242.2134,M,-33.3702,M,1.4,2991*7B"
1777493439.427430,,,HDT,,,,,,,,,,13.428,,,,,"$GPHDT,13.428,T*09"
1777493439.431240,72639.4,tod,GST,,,,,,,0.019,0.006,0.019,,,,,,"$GPGST,201039.40,0.169,0.019,0.006,1.766,0.019,0.006,0.019*5A"
1777493439.524786,72639.5,tod,GGA,39.73822521,-84.17640791,242.2077,4,12,1.8,,,,,,,,,"$GPGGA,201039.50,3944.2935123,N,08410.5844748,W,4,12,1.8,242.2077,M,-33.3702,M,1.5,2991*75"
1777493439.527107,,,HDT,,,,,,,,,,13.522,,,,,"$GPHDT,13.522,T*02"
1777493439.531763,72639.5,tod,GST,,,,,,,0.019,0.006,0.019,,,,,,"$GPGST,201039.50,0.169,0.019,0.006,1.720,0.019,0.006,0.019*59"
1777493439.624752,72639.6,tod,GGA,39.73822524,-84.17640801,242.2111,4,12,1.8,,,,,,,,,"$GPGGA,201039.60,3944.2935142,N,08410.5844805,W,4,12,1.8,242.2111,M,-33.3702,M,0.6,2991*74"
1777493439.627105,,,HDT,,,,,,,,,,13.559,,,,,"$GPHDT,13.559,T*0E"
1777493439.631863,72639.6,tod,GST,,,,,,,0.021,0.007,0.022,,,,,,"$GPGST,201039.60,0.296,0.021,0.007,2.504,0.021,0.007,0.022*56"
1777493439.724544,72639.7,tod,GGA,39.7382252,-84.1764081,242.2325,4,12,1.8,,,,,,,,,"$GPGGA,201039.70,3944.2935122,N,08410.5844861,W,4,12,1.8,242.2325,M,-33.3702,M,0.7,2991*75"
1777493439.726794,,,HDT,,,,,,,,,,13.541,,,,,"$GPHDT,13.541,T*07"
1777493439.731374,72639.7,tod,GST,,,,,,,0.018,0.005,0.015,,,,,,"$GPGST,201039.70,0.296,0.018,0.005,0.620,0.018,0.005,0.015*54"
1777493439.824421,72639.8,tod,GGA,39.73822527,-84.17640815,242.2387,4,12,1.8,,,,,,,,,"$GPGGA,201039.80,3944.2935161,N,08410.5844892,W,4,12,1.8,242.2387,M,-33.3702,M,0.8,2991*76"
1777493439.826952,,,HDT,,,,,,,,,,13.707,,,,,"$GPHDT,13.707,T*07"
1777493439.831797,72639.8,tod,GST,,,,,,,0.018,0.005,0.016,,,,,,"$GPGST,201039.80,0.296,0.018,0.005,0.661,0.018,0.005,0.016*5D"
1777493439.923838,72639.9,tod,GGA,39.73822532,-84.17640825,242.2385,4,12,1.8,,,,,,,,,"$GPGGA,201039.90,3944.2935191,N,08410.5844952,W,4,12,1.8,242.2385,M,-33.3702,M,0.9,2991*76"
1777493439.926141,,,HDT,,,,,,,,,,13.714,,,,,"$GPHDT,13.714,T*05"
1777493439.930212,72639.9,tod,GST,,,,,,,0.018,0.005,0.015,,,,,,"$GPGST,201039.90,0.296,0.018,0.005,0.629,0.018,0.005,0.015*53"
1777493440.026255,72640,tod,GGA,39.73822539,-84.17640836,242.242,4,12,1.8,,,,,,,,,"$GPGGA,201040.00,3944.2935234,N,08410.5845014,W,4,12,1.8,242.2420,M,-33.3702,M,1.0,2991*77"
1777493440.028602,,,HDT,,,,,,,,,,13.585,,,,,"$GPHDT,13.585,T*0F"
1777493440.033434,72640,tod,GST,,,,,,,0.018,0.005,0.015,,,,,,"$GPGST,201040.00,0.296,0.018,0.005,0.669,0.018,0.005,0.015*50"
1777493440.125200,72640.1,tod,GGA,39.73822544,-84.17640847,242.2443,4,12,1.8,,,,,,,,,"$GPGGA,201040.10,3944.2935264,N,08410.5845084,W,4,12,1.8,242.2443,M,-33.3702,M,1.1,2991*7E"
1777493440.125689,,,HDT,,,,,,,,,,13.846,,,,,"$GPHDT,13.846,T*0D"
1777493440.130422,72640.1,tod,GST,,,,,,,0.018,0.005,0.015,,,,,,"$GPGST,201040.10,0.310,0.018,0.005,0.727,0.018,0.005,0.015*55"
1777493440.225241,72640.2,tod,GGA,39.73822551,-84.17640853,242.2524,4,12,1.8,,,,,,,,,"$GPGGA,201040.20,3944.2935303,N,08410.5845115,W,4,12,1.8,242.2524,M,-33.3702,M,1.2,2991*77"
1777493440.227465,,,HDT,,,,,,,,,,13.999,,,,,"$GPHDT,13.999,T*0E"
1777493440.229414,72640.2,tod,GST,,,,,,,0.018,0.005,0.015,,,,,,"$GPGST,201040.20,0.310,0.018,0.005,0.754,0.018,0.005,0.015*52"
1777493440.326822,72640.3,tod,GGA,39.73822557,-84.17640855,242.2597,4,12,1.8,,,,,,,,,"$GPGGA,201040.30,3944.2935342,N,08410.5845130,W,4,12,1.8,242.2597,M,-33.3702,M,1.3,2991*7D"
1777493440.327895,,,HDT,,,,,,,,,,14.174,,,,,"$GPHDT,14.174,T*02"
1777493440.332757,72640.3,tod,GST,,,,,,,0.018,0.005,0.015,,,,,,"$GPGST,201040.30,0.310,0.018,0.005,0.764,0.018,0.005,0.015*50"
1777493440.425019,72640.4,tod,GGA,39.73822562,-84.17640857,242.2761,4,12,1.8,,,,,,,,,"$GPGGA,201040.40,3944.2935371,N,08410.5845141,W,4,12,1.8,242.2761,M,-33.3702,M,1.4,2991*70"
1777493440.427239,,,HDT,,,,,,,,,,13.922,,,,,"$GPHDT,13.922,T*0E"
1777493440.432211,72640.4,tod,GST,,,,,,,0.018,0.005,0.015,,,,,,"$GPGST,201040.40,0.310,0.018,0.005,0.722,0.018,0.005,0.015*55"
1777493440.524420,72640.5,tod,GGA,39.73822564,-84.17640862,242.3016,4,12,1.8,,,,,,,,,"$GPGGA,201040.50,3944.2935386,N,08410.5845173,W,4,12,1.8,242.3016,M,-33.3702,M,1.5,2991*7F"
1777493440.526722,,,HDT,,,,,,,,,,13.702,,,,,"$GPHDT,13.702,T*02"
1777493440.531168,72640.5,tod,GST,,,,,,,0.018,0.005,0.015,,,,,,"$GPGST,201040.50,0.310,0.018,0.005,0.709,0.018,0.005,0.015*5D"
1777493440.624383,72640.6,tod,GGA,39.73822565,-84.17640869,242.3188,4,12,1.8,,,,,,,,,"$GPGGA,201040.60,3944.2935387,N,08410.5845215,W,4,12,1.8,242.3188,M,-33.3702,M,0.6,2991*7A"
1777493440.629051,,,HDT,,,,,,,,,,13.565,,,,,"$GPHDT,13.565,T*01"
1777493440.632876,72640.6,tod,GST,,,,,,,0.018,0.005,0.015,,,,,,"$GPGST,201040.60,0.280,0.018,0.005,0.607,0.018,0.005,0.015*59"
1777493440.724128,72640.7,tod,GGA,39.73822568,-84.17640872,242.3179,4,12,1.8,,,,,,,,,"$GPGGA,201040.70,3944.2935405,N,08410.5845234,W,4,12,1.8,242.3179,M,-33.3702,M,0.7,2991*7A"
1777493440.726651,,,HDT,,,,,,,,,,13.568,,,,,"$GPHDT,13.568,T*0C"
1777493440.731729,72640.7,tod,GST,,,,,,,0.021,0.007,0.02,,,,,,"$GPGST,201040.70,0.280,0.021,0.007,1.689,0.021,0.007,0.020*59"
1777493440.825333,72640.8,tod,GGA,39.73822575,-84.17640882,242.2998,4,12,1.8,,,,,,,,,"$GPGGA,201040.80,3944.2935449,N,08410.5845294,W,4,12,1.8,242.2998,M,-33.3702,M,0.8,2991*7E"
1777493440.827260,,,HDT,,,,,,,,,,13.983,,,,,"$GPHDT,13.983,T*05"
1777493440.833330,72640.8,tod,GST,,,,,,,0.018,0.005,0.015,,,,,,"$GPGST,201040.80,0.280,0.018,0.005,0.615,0.018,0.005,0.015*54"
1777493440.924011,72640.9,tod,GGA,39.73822582,-84.17640898,242.2872,4,12,1.8,,,,,,,,,"$GPGGA,201040.90,3944.2935490,N,08410.5845388,W,4,12,1.8,242.2872,M,-33.3702,M,0.9,2991*73"
1777493440.926208,,,HDT,,,,,,,,,,14.46,,,,,"$GPHDT,14.460,T*02"
1777493440.930596,72640.9,tod,GST,,,,,,,0.018,0.006,0.016,,,,,,"$GPGST,201040.90,0.280,0.018,0.006,0.694,0.018,0.006,0.016*5F"
1777493441.027210,72641,tod,GGA,39.7382259,-84.17640916,242.2803,4,12,1.8,,,,,,,,,"$GPGGA,201041.00,3944.2935537,N,08410.5845497,W,4,12,1.8,242.2803,M,-33.3702,M,1.0,2991*70"
1777493441.028317,,,HDT,,,,,,,,,,14.868,,,,,"$GPHDT,14.868,T*06"
1777493441.033076,72641,tod,GST,,,,,,,0.018,0.005,0.016,,,,,,"$GPGST,201041.00,0.280,0.018,0.005,0.675,0.018,0.005,0.016*58"
1777493441.125489,72641.1,tod,GGA,39.73822613,-84.17640927,242.2771,4,12,1.8,,,,,,,,,"$GPGGA,201041.10,3944.2935675,N,08410.5845561,W,4,12,1.8,242.2771,M,-33.3702,M,1.1,2991*77"
1777493441.127837,,,HDT,,,,,,,,,,15.548,,,,,"$GPHDT,15.548,T*08"
1777493441.132575,72641.1,tod,GST,,,,,,,0.018,0.005,0.015,,,,,,"$GPGST,201041.10,0.319,0.018,0.005,0.673,0.018,0.005,0.015*5D"
1777493441.224948,72641.2,tod,GGA,39.73822648,-84.17640931,242.2858,4,11,1.8,,,,,,,,,"$GPGGA,201041.20,3944.2935887,N,08410.5845586,W,4,11,1.8,242.2858,M,-33.3702,M,1.2,2991*7A"
1777493441.227690,,,HDT,,,,,,,,,,16.328,,,,,"$GPHDT,16.328,T*0B"
1777493441.232277,72641.2,tod,GST,,,,,,,0.018,0.005,0.016,,,,,,"$GPGST,201041.20,0.319,0.018,0.005,0.714,0.018,0.005,0.016*5D"
1777493441.324824,72641.3,tod,GGA,39.7382268,-84.17640932,242.2991,4,11,1.8,,,,,,,,,"$GPGGA,201041.30,3944.2936077,N,08410.5845590,W,4,11,1.8,242.2991,M,-33.3702,M,1.3,2991*7D"
1777493441.327190,,,HDT,,,,,,,,,,17.138,,,,,"$GPHDT,17.138,T*09"
1777493441.331835,72641.3,tod,GST,,,,,,,0.018,0.006,0.016,,,,,,"$GPGST,201041.30,0.319,0.018,0.006,0.740,0.018,0.006,0.016*5D"
1777493441.426438,72641.4,tod,GGA,39.73822699,-84.17640927,242.3155,4,11,1.8,,,,,,,,,"$GPGGA,201041.40,3944.2936194,N,08410.5845560,W,4,11,1.8,242.3155,M,-33.3702,M,1.4,2991*7F"
1777493441.428493,,,HDT,,,,,,,,,,17.45,,,,,"$GPHDT,17.450,T*02"
1777493441.433623,72641.4,tod,GST,,,,,,,0.018,0.006,0.016,,,,,,"$GPGST,201041.40,0.319,0.018,0.006,0.661,0.018,0.006,0.016*58"
1777493441.524049,72641.5,tod,GGA,39.73822711,-84.17640929,242.3242,4,11,1.8,,,,,,,,,"$GPGGA,201041.50,3944.2936264,N,08410.5845571,W,4,11,1.8,242.3242,M,-33.3702,M,1.5,2991*76"
1777493441.526427,,,HDT,,,,,,,,,,18.159,,,,,"$GPHDT,18.159,T*01"
1777493441.531017,72641.5,tod,GST,,,,,,,0.018,0.005,0.015,,,,,,"$GPGST,201041.50,0.319,0.018,0.005,0.504,0.018,0.005,0.015*5A"
1777493441.625208,72641.6,tod,GGA,39.73822718,-84.17640933,242.3478,4,11,1.8,,,,,,,,,"$GPGGA,201041.60,3944.2936309,N,08410.5845600,W,4,11,1.8,242.3478,M,-33.3702,M,0.6,2991*77"
1777493441.627953,,,HDT,,,,,,,,,,18.86,,,,,"$GPHDT,18.860,T*02"
1777493441.631248,72641.6,tod,GST,,,,,,,0.018,0.005,0.015,,,,,,"$GPGST,201041.60,0.259,0.018,0.005,0.362,0.018,0.005,0.015*5A"
1777493441.723524,72641.7,tod,GGA,39.73822722,-84.17640937,242.3699,4,11,1.8,,,,,,,,,"$GPGGA,201041.70,3944.2936332,N,08410.5845621,W,4,11,1.8,242.3699,M,-33.3702,M,0.7,2991*71"
1777493441.725874,,,HDT,,,,,,,,,,19.381,,,,,"$GPHDT,19.381,T*07"
1777493441.730223,72641.7,tod,GST,,,,,,,0.018,0.005,0.015,,,,,,"$GPGST,201041.70,0.259,0.018,0.005,0.345,0.018,0.005,0.015*5E"
1777493441.825585,72641.8,tod,GGA,39.73822721,-84.17640944,242.3911,4,11,1.8,,,,,,,,,"$GPGGA,201041.80,3944.2936326,N,08410.5845663,W,4,11,1.8,242.3911,M,-33.3702,M,0.8,2991*7D"
1777493441.828034,,,HDT,,,,,,,,,,20.007,,,,,"$GPHDT,20.007,T*00"
1777493441.832771,72641.8,tod,GST,,,,,,,0.018,0.005,0.015,,,,,,"$GPGST,201041.80,0.259,0.018,0.005,0.337,0.018,0.005,0.015*54"
1777493441.925285,72641.9,tod,GGA,39.73822711,-84.17640955,242.4236,4,11,1.8,,,,,,,,,"$GPGGA,201041.90,3944.2936263,N,08410.5845728,W,4,11,1.8,242.4236,M,-33.3702,M,0.9,2991*7A"
1777493441.927710,,,HDT,,,,,,,,,,20.384,,,,,"$GPHDT,20.384,T*08"
1777493441.932478,72641.9,tod,GST,,,,,,,0.018,0.005,0.016,,,,,,"$GPGST,201041.90,0.259,0.018,0.005,0.334,0.018,0.005,0.016*55"
1777493442.024816,72642,tod,GGA,39.73822685,-84.17640964,242.4572,4,11,1.8,,,,,,,,,"$GPGGA,201042.00,3944.2936108,N,08410.5845786,W,4,11,1.8,242.4572,M,-33.3702,M,1.0,2991*75"
1777493442.027243,,,HDT,,,,,,,,,,20.516,,,,,"$GPHDT,20.516,T*05"
1777493442.031545,72642,tod,GST,,,,,,,0.018,0.006,0.016,,,,,,"$GPGST,201042.00,0.259,0.018,0.006,0.374,0.018,0.006,0.016*5B"
1777493442.126310,72642.1,tod,GGA,39.73822644,-84.17640981,242.4784,4,12,1.8,,,,,,,,,"$GPGGA,201042.10,3944.2935862,N,08410.5845885,W,4,12,1.8,242.4784,M,-33.3702,M,1.1,2991*77"
1777493442.129323,,,HDT,,,,,,,,,,20.534,,,,,"$GPHDT,20.534,T*05"
1777493442.133754,72642.1,tod,GST,,,,,,,0.019,0.006,0.017,,,,,,"$GPGST,201042.10,0.234,0.019,0.006,0.256,0.019,0.006,0.017*51"
1777493442.224393,72642.2,tod,GGA,39.73822621,-84.17640993,242.4797,4,12,1.8,,,,,,,,,"$GPGGA,201042.20,3944.2935728,N,08410.5845955,W,4,12,1.8,242.4797,M,-33.3702,M,1.2,2991*78"
1777493442.226618,,,HDT,,,,,,,,,,21.355,,,,,"$GPHDT,21.355,T*05"
1777493442.231620,72642.2,tod,GST,,,,,,,0.02,0.006,0.02,,,,,,"$GPGST,201042.20,0.234,0.020,0.006,359.991,0.020,0.006,0.020*59"
1777493442.324179,72642.3,tod,GGA,39.73822611,-84.1764101,242.4936,4,12,1.8,,,,,,,,,"$GPGGA,201042.30,3944.2935667,N,08410.5846061,W,4,12,1.8,242.4936,M,-33.3702,M,1.3,2991*7A"
1777493442.326411,,,HDT,,,,,,,,,,22.076,,,,,"$GPHDT,22.076,T*04"
1777493442.330947,72642.3,tod,GST,,,,,,,0.019,0.006,0.018,,,,,,"$GPGST,201042.30,0.234,0.019,0.006,0.147,0.019,0.006,0.018*5F"
1777493442.423777,72642.4,tod,GGA,39.73822599,-84.17641027,242.489,4,12,1.8,,,,,,,,,"$GPGGA,201042.40,3944.2935592,N,08410.5846160,W,4,12,1.8,242.4890,M,-33.3702,M,1.4,2991*7E"
1777493442.426058,,,HDT,,,,,,,,,,22.37,,,,,"$GPHDT,22.370,T*01"
1777493442.431265,72642.4,tod,GST,,,,,,,0.019,0.006,0.019,,,,,,"$GPGST,201042.40,0.234,0.019,0.006,359.957,0.019,0.006,0.019*5F"
1777493442.523488,72642.5,tod,GGA,39.73822583,-84.17641045,242.484,4,12,1.8,,,,,,,,,"$GPGGA,201042.50,3944.2935498,N,08410.5846268,W,4,12,1.8,242.4840,M,-33.3702,M,1.5,2991*73"
1777493442.525871,,,HDT,,,,,,,,,,21.998,,,,,"$GPHDT,21.998,T*0E"
1777493442.530651,72642.5,tod,GST,,,,,,,0.02,0.006,0.019,,,,,,"$GPGST,201042.50,0.234,0.020,0.006,359.867,0.020,0.006,0.019*5C"
1777493442.623917,72642.6,tod,GGA,39.7382253,-84.17641061,242.4698,4,12,1.8,,,,,,,,,"$GPGGA,201042.60,3944.2935179,N,08410.5846365,W,4,12,1.8,242.4698,M,-33.3702,M,0.6,2991*7F"
1777493442.625904,,,HDT,,,,,,,,,,21.454,,,,,"$GPHDT,21.454,T*03"
1777493442.630735,72642.6,tod,GST,,,,,,,0.02,0.006,0.019,,,,,,"$GPGST,201042.60,0.290,0.020,0.006,359.933,0.020,0.006,0.019*51"
1777493442.724961,72642.7,tod,GGA,39.73822516,-84.17641072,242.4621,4,12,1.8,,,,,,,,,"$GPGGA,201042.70,3944.2935097,N,08410.5846431,W,4,12,1.8,242.4621,M,-33.3702,M,0.7,2991*7A"
1777493442.726144,,,HDT,,,,,,,,,,20.479,,,,,"$GPHDT,20.479,T*0D"
1777493442.730768,72642.7,tod,GST,,,,,,,0.02,0.006,0.018,,,,,,"$GPGST,201042.70,0.290,0.020,0.006,0.190,0.020,0.006,0.018*5F"
1777493442.825904,72642.8,tod,GGA,39.73822499,-84.17641078,242.4512,4,12,1.8,,,,,,,,,"$GPGGA,201042.80,3944.2934994,N,08410.5846465,W,4,12,1.8,242.4512,M,-33.3702,M,0.8,2991*73"
1777493442.829328,,,HDT,,,,,,,,,,18.843,,,,,"$GPHDT,18.843,T*03"
1777493442.832639,72642.8,tod,GST,,,,,,,0.02,0.006,0.019,,,,,,"$GPGST,201042.80,0.290,0.020,0.006,0.351,0.020,0.006,0.019*5E"
1777493442.925133,72642.9,tod,GGA,39.73822488,-84.17641074,242.4369,4,12,1.8,,,,,,,,,"$GPGGA,201042.90,3944.2934930,N,08410.5846443,W,4,12,1.8,242.4369,M,-33.3702,M,0.9,2991*73"
1777493442.928617,,,HDT,,,,,,,,,,17.406,,,,,"$GPHDT,17.406,T*01"
1777493442.932328,72642.9,tod,GST,,,,,,,0.02,0.006,0.019,,,,,,"$GPGST,201042.90,0.290,0.020,0.006,0.555,0.020,0.006,0.019*5D"
1777493443.024731,72643,tod,GGA,39.73822494,-84.17641064,242.4051,4,12,1.8,,,,,,,,,"$GPGGA,201043.00,3944.2934964,N,08410.5846381,W,4,12,1.8,242.4051,M,-33.3702,M,1.0,2991*73"
1777493443.027089,,,HDT,,,,,,,,,,15.934,,,,,"$GPHDT,15.934,T*0F"
1777493443.031746,72643,tod,GST,,,,,,,0.02,0.006,0.017,,,,,,"$GPGST,201043.00,0.290,0.020,0.006,0.767,0.020,0.006,0.017*58"
1777493443.124359,72643.1,tod,GGA,39.73822512,-84.17641045,242.3911,4,12,1.8,,,,,,,,,"$GPGGA,201043.10,3944.2935071,N,08410.5846267,W,4,12,1.8,242.3911,M,-33.3702,M,1.1,2991*7C"
1777493443.126837,,,HDT,,,,,,,,,,14.54,,,,,"$GPHDT,14.540,T*01"
1777493443.131397,72643.1,tod,GST,,,,,,,0.02,0.006,0.018,,,,,,"$GPGST,201043.10,0.287,0.020,0.006,0.968,0.020,0.006,0.018*51"
1777493443.224116,72643.2,tod,GGA,39.7382252,-84.17641035,242.3758,4,12,1.8,,,,,,,,,"$GPGGA,201043.20,3944.2935122,N,08410.5846207,W,4,12,1.8,242.3758,M,-33.3702,M,1.2,2991*7E"
1777493443.226574,,,HDT,,,,,,,,,,12.706,,,,,"$GPHDT,12.706,T*07"
1777493443.231441,72643.2,tod,GST,,,,,,,0.02,0.006,0.018,,,,,,"$GPGST,201043.20,0.287,0.020,0.006,1.255,0.020,0.006,0.018*56"
1777493443.323635,72643.3,tod,GGA,39.73822537,-84.17641031,242.3542,4,12,1.8,,,,,,,,,"$GPGGA,201043.30,3944.2935224,N,08410.5846183,W,4,12,1.8,242.3542,M,-33.3702,M,1.3,2991*7D"
1777493443.325934,,,HDT,,,,,,,,,,12.048,,,,,"$GPHDT,12.048,T*0A"
1777493443.329545,72643.3,tod,GST,,,,,,,0.02,0.006,0.018,,,,,,"$GPGST,201043.30,0.287,0.020,0.006,1.387,0.020,0.006,0.018*59"
1777493443.423215,72643.4,tod,GGA,39.7382255,-84.17641027,242.334,4,12,1.8,,,,,,,,,"$GPGGA,201043.40,3944.2935302,N,08410.5846161,W,4,12,1.8,242.3340,M,-33.3702,M,1.4,2991*70"
1777493443.425727,,,HDT,,,,,,,,,,12.525,,,,,"$GPHDT,12.525,T*04"
1777493443.429483,72643.4,tod,GST,,,,,,,0.021,0.006,0.02,,,,,,"$GPGST,201043.40,0.287,0.021,0.006,1.524,0.021,0.006,0.020*5A"
1777493443.523211,72643.5,tod,GGA,39.73822556,-84.17641019,242.3288,4,12,1.8,,,,,,,,,"$GPGGA,201043.50,3944.2935338,N,08410.5846111,W,4,12,1.8,242.3288,M,-33.3702,M,1.5,2991*7B"
1777493443.525770,,,HDT,,,,,,,,,,11.752,,,,,"$GPHDT,11.752,T*05"
1777493443.530382,72643.5,tod,GST,,,,,,,0.02,0.006,0.018,,,,,,"$GPGST,201043.50,0.287,0.020,0.006,1.296,0.020,0.006,0.018*5E"
1777493443.625238,72643.6,tod,GGA,39.73822554,-84.17641016,242.3804,4,12,1.8,,,,,,,,,"$GPGGA,201043.60,3944.2935321,N,08410.5846097,W,4,12,1.8,242.3804,M,-33.3702,M,0.6,2991*73"
1777493443.627504,,,HDT,,,,,,,,,,10.88,,,,,"$GPHDT,10.880,T*04"
1777493443.632111,72643.6,tod,GST,,,,,,,0.019,0.006,0.017,,,,,,"$GPGST,201043.60,0.436,0.019,0.006,1.036,0.019,0.006,0.017*56"
1777493443.724908,72643.7,tod,GGA,39.7382255,-84.17641014,242.3959,4,11,2.2,,,,,,,,,"$GPGGA,201043.70,3944.2935301,N,08410.5846085,W,4,11,2.2,242.3959,M,-33.3702,M,0.7,2991*71"
1777493443.727241,,,HDT,,,,,,,,,,10.234,,,,,"$GPHDT,10.234,T*01"
1777493443.731965,72643.7,tod,GST,,,,,,,0.02,0.006,0.018,,,,,,"$GPGST,201043.70,0.436,0.020,0.006,1.163,0.020,0.006,0.018*59"
1777493443.826233,72643.8,tod,GGA,39.73822553,-84.17641017,242.4205,4,11,2.2,,,,,,,,,"$GPGGA,201043.80,3944.2935317,N,08410.5846102,W,4,11,2.2,242.4205,M,-33.3702,M,0.8,2991*7D"
1777493443.827231,,,HDT,,,,,,,,,,10.423,,,,,"$GPHDT,10.423,T*01"
1777493443.829464,72643.8,tod,GST,,,,,,,0.019,0.006,0.017,,,,,,"$GPGST,201043.80,0.436,0.019,0.006,1.112,0.019,0.006,0.017*5F"
1777493443.925089,72643.9,tod,GGA,39.73822557,-84.17641017,242.4212,4,12,1.8,,,,,,,,,"$GPGGA,201043.90,3944.2935341,N,08410.5846103,W,4,12,1.8,242.4212,M,-33.3702,M,0.9,2991*73"
1777493443.928507,,,HDT,,,,,,,,,,10.311,,,,,"$GPHDT,10.311,T*07"
1777493443.931729,72643.9,tod,GST,,,,,,,0.033,0.011,0.036,,,,,,"$GPGST,201043.90,0.436,0.033,0.011,1.488,0.033,0.011,0.036*5B"
1777493444.026036,72644,tod,GGA,39.73822558,-84.17641011,242.4127,4,12,1.8,,,,,,,,,"$GPGGA,201044.00,3944.2935349,N,08410.5846066,W,4,12,1.8,242.4127,M,-33.3702,M,1.0,2991*7A"
1777493444.028075,,,HDT,,,,,,,,,,9.318,,,,,"$GPHDT,9.318,T*36"
1777493444.031756,72644,tod,GST,,,,,,,0.019,0.006,0.018,,,,,,"$GPGST,201044.00,0.436,0.019,0.006,1.180,0.019,0.006,0.018*54"
1777493444.124047,72644.1,tod,GGA,39.73822535,-84.17641007,242.3764,4,12,1.8,,,,,,,,,"$GPGGA,201044.10,3944.2935212,N,08410.5846042,W,4,12,1.8,242.3764,M,-33.3702,M,1.1,2991*75"
1777493444.127624,,,HDT,,,,,,,,,,7.567,,,,,"$GPHDT,7.567,T*36"
1777493444.131427,72644.1,tod,GST,,,,,,,0.023,0.008,0.023,,,,,,"$GPGST,201044.10,0.473,0.023,0.008,1.206,0.023,0.008,0.023*51"
1777493444.223288,72644.2,tod,GGA,39.7382252,-84.17641003,242.382,4,12,1.8,,,,,,,,,"$GPGGA,201044.20,3944.2935122,N,08410.5846016,W,4,12,1.8,242.3820,M,-33.3702,M,1.2,2991*7B"
1777493444.225668,,,HDT,,,,,,,,,,5.697,,,,,"$GPHDT,5.697,T*38"
1777493444.230536,72644.2,tod,GST,,,,,,,0.024,0.008,0.023,,,,,,"$GPGST,201044.20,0.473,0.024,0.008,1.249,0.024,0.008,0.023*59"
1777493444.324651,72644.3,tod,GGA,39.73822508,-84.17641009,242.4033,4,11,2.2,,,,,,,,,"$GPGGA,201044.30,3944.2935050,N,08410.5846053,W,4,11,2.2,242.4033,M,-33.3702,M,1.3,2991*79"
1777493444.326730,,,HDT,,,,,,,,,,3.504,,,,,"$GPHDT,3.504,T*37"
1777493444.332446,72644.3,tod,GST,,,,,,,0.02,0.006,0.018,,,,,,"$GPGST,201044.30,0.473,0.020,0.006,1.607,0.020,0.006,0.018*5E"
1777493444.423029,72644.4,tod,GGA,39.73822476,-84.17641026,242.4192,4,11,2.2,,,,,,,,,"$GPGGA,201044.40,3944.2934854,N,08410.5846153,W,4,11,2.2,242.4192,M,-33.3702,M,1.4,2991*7F"
1777493444.425635,,,HDT,,,,,,,,,,2.623,,,,,"$GPHDT,2.623,T*30"
1777493444.432819,72644.4,tod,GST,,,,,,,0.024,0.008,0.023,,,,,,"$GPGST,201044.40,0.473,0.024,0.008,2.268,0.024,0.008,0.023*5F"
1777493444.525015,72644.5,tod,GGA,39.73822452,-84.17641038,242.4113,4,11,2.2,,,,,,,,,"$GPGGA,201044.50,3944.2934712,N,08410.5846228,W,4,11,2.2,242.4113,M,-33.3702,M,1.5,2991*74"
1777493444.527340,,,HDT,,,,,,,,,,1.922,,,,,"$GPHDT,1.922,T*3D"
1777493444.531965,72644.5,tod,GST,,,,,,,0.024,0.008,0.023,,,,,,"$GPGST,201044.50,0.473,0.024,0.007,2.065,0.024,0.008,0.023*5E"
1777493444.624801,72644.6,tod,GGA,39.73822473,-84.17641029,242.3704,4,12,1.9,,,,,,,,,"$GPGGA,201044.60,3944.2934839,N,08410.5846175,W,4,12,1.9,242.3704,M,-33.3702,M,0.6,2991*74"
1777493444.627217,,,HDT,,,,,,,,,,0.766,,,,,"$GPHDT,0.766,T*32"
1777493444.631789,72644.6,tod,GST,,,,,,,0.022,0.007,0.019,,,,,,"$GPGST,201044.60,0.368,0.022,0.007,1.144,0.022,0.007,0.019*57"
1777493444.724255,72644.7,tod,GGA,39.7382247,-84.17641029,242.3549,4,12,1.9,,,,,,,,,"$GPGGA,201044.70,3944.2934822,N,08410.5846171,W,4,12,1.9,242.3549,M,-33.3702,M,0.7,2991*71"
1777493444.725472,,,HDT,,,,,,,,,,0.599,,,,,"$GPHDT,0.599,T*30"
1777493444.731527,72644.7,tod,GST,,,,,,,0.023,0.007,0.02,,,,,,"$GPGST,201044.70,0.368,0.023,0.007,0.420,0.023,0.007,0.020*5A"
1777493444.824316,72644.8,tod,GGA,39.73822464,-84.17641025,242.3375,4,12,1.9,,,,,,,,,"$GPGGA,201044.80,3944.2934781,N,08410.5846147,W,4,12,1.9,242.3375,M,-33.3702,M,0.8,2991*7B"
1777493444.826816,,,HDT,,,,,,,,,,0.466,,,,,"$GPHDT,0.466,T*31"
1777493444.831155,72644.8,tod,GST,,,,,,,0.022,0.007,0.019,,,,,,"$GPGST,201044.80,0.368,0.022,0.007,359.969,0.022,0.007,0.019*50"
1777493444.925636,72644.9,tod,GGA,39.73822457,-84.17641014,242.309,4,12,1.9,,,,,,,,,"$GPGGA,201044.90,3944.2934739,N,08410.5846082,W,4,12,1.9,242.3090,M,-33.3702,M,0.9,2991*78"
1777493444.928444,,,HDT,,,,,,,,,,358.565,,,,,"$GPHDT,358.565,T*3D"
1777493444.931538,72644.9,tod,GST,,,,,,,0.022,0.007,0.019,,,,,,"$GPGST,201044.90,0.368,0.022,0.007,359.684,0.022,0.007,0.019*5D"
1777493445.025918,72645,tod,GGA,39.73822446,-84.17640998,242.2893,4,12,1.9,,,,,,,,,"$GPGGA,201045.00,3944.2934675,N,08410.5845990,W,4,12,1.9,242.2893,M,-33.3702,M,1.0,2991*72"
1777493445.028426,,,HDT,,,,,,,,,,356.53,,,,,"$GPHDT,356.530,T*33"
1777493445.033074,72645,tod,GST,,,,,,,0.023,0.007,0.019,,,,,,"$GPGST,201045.00,0.368,0.023,0.007,359.894,0.023,0.007,0.019*5A"
1777493445.125556,72645.1,tod,GGA,39.73822396,-84.17641009,242.2852,4,13,1.7,,,,,,,,,"$GPGGA,201045.10,3944.2934373,N,08410.5846054,W,4,13,1.7,242.2852,M,-33.3702,M,1.1,2991*71"
1777493445.127899,,,HDT,,,,,,,,,,356.147,,,,,"$GPHDT,356.147,T*37"
1777493445.132326,72645.1,tod,GST,,,,,,,0.022,0.006,0.018,,,,,,"$GPGST,201045.10,0.352,0.022,0.006,0.703,0.022,0.006,0.018*5D"
1777493445.223216,72645.2,tod,GGA,39.73822353,-84.17641,242.2783,4,13,1.7,,,,,,,,,"$GPGGA,201045.20,3944.2934120,N,08410.5846001,W,4,13,1.7,242.2783,M,-33.3702,M,1.2,2991*76"
1777493445.225598,,,HDT,,,,,,,,,,355.391,,,,,"$GPHDT,355.391,T*3D"
1777493445.230191,72645.2,tod,GST,,,,,,,0.024,0.007,0.019,,,,,,"$GPGST,201045.20,0.352,0.024,0.007,1.694,0.024,0.007,0.019*51"
1777493445.324806,72645.3,tod,GGA,39.73822343,-84.17640983,242.2611,4,13,1.7,,,,,,,,,"$GPGGA,201045.30,3944.2934060,N,08410.5845900,W,4,13,1.7,242.2611,M,-33.3702,M,1.3,2991*72"
1777493445.327376,,,HDT,,,,,,,,,,353.802,,,,,"$GPHDT,353.802,T*3A"
1777493445.332058,72645.3,tod,GST,,,,,,,0.026,0.007,0.02,,,,,,"$GPGST,201045.30,0.352,0.026,0.007,2.121,0.026,0.007,0.020*50"
1777493445.424902,72645.4,tod,GGA,39.73822325,-84.17640968,242.2523,4,13,1.7,,,,,,,,,"$GPGGA,201045.40,3944.2933952,N,08410.5845810,W,4,13,1.7,242.2523,M,-33.3702,M,1.4,2991*7F"
1777493445.427347,,,HDT,,,,,,,,,,353.047,,,,,"$GPHDT,353.047,T*33"
1777493445.431693,72645.4,tod,GST,,,,,,,0.024,0.007,0.02,,,,,,"$GPGST,201045.40,0.352,0.024,0.007,1.674,0.024,0.007,0.020*53"
1777493445.524496,72645.5,tod,GGA,39.73822333,-84.17640953,242.2462,4,12,2.3,,,,,,,,,"$GPGGA,201045.50,3944.2933997,N,08410.5845716,W,4,12,2.3,242.2462,M,-33.3702,M,1.5,2991*7D"
1777493445.526940,,,HDT,,,,,,,,,,351.789,,,,,"$GPHDT,351.789,T*34"
1777493445.531573,72645.5,tod,GST,,,,,,,0.023,0.007,0.019,,,,,,"$GPGST,201045.50,0.352,0.023,0.007,1.546,0.023,0.007,0.019*5A"
1777493445.625024,72645.6,tod,GGA,39.73822303,-84.17640933,242.248,4,12,2.3,,,,,,,,,"$GPGGA,201045.60,3944.2933817,N,08410.5845598,W,4,12,2.3,242.2480,M,-33.3702,M,0.6,2991*7D"
1777493445.628611,,,HDT,,,,,,,,,,350.983,,,,,"$GPHDT,350.983,T*31"
1777493445.631822,72645.6,tod,GST,,,,,,,0.02,0.006,0.016,,,,,,"$GPGST,201045.60,0.161,0.020,0.006,1.301,0.020,0.006,0.016*51"
1777493445.724011,72645.7,tod,GGA,39.73822314,-84.17640927,242.2367,4,12,2.3,,,,,,,,,"$GPGGA,201045.70,3944.2933885,N,08410.5845559,W,4,12,2.3,242.2367,M,-33.3702,M,0.7,2991*75"
1777493445.726588,,,HDT,,,,,,,,,,350.387,,,,,"$GPHDT,350.387,T*3F"
1777493445.731387,72645.7,tod,GST,,,,,,,0.021,0.006,0.016,,,,,,"$GPGST,201045.70,0.161,0.021,0.006,1.617,0.021,0.006,0.016*52"
1777493445.823621,72645.8,tod,GGA,39.73822313,-84.17640924,242.2382,4,12,2.3,,,,,,,,,"$GPGGA,201045.80,3944.2933878,N,08410.5845541,W,4,12,2.3,242.2382,M,-33.3702,M,0.8,2991*75"
1777493445.826143,,,HDT,,,,,,,,,,350.369,,,,,"$GPHDT,350.369,T*3F"
1777493445.830794,72645.8,tod,GST,,,,,,,0.02,0.006,0.016,,,,,,"$GPGST,201045.80,0.161,0.021,0.006,2.040,0.020,0.006,0.016*5B"
1777493445.925003,72645.9,tod,GGA,39.73822305,-84.1764092,242.2321,4,12,2.3,,,,,,,,,"$GPGGA,201045.90,3944.2933827,N,08410.5845518,W,4,12,2.3,242.2321,M,-33.3702,M,0.9,2991*7A"
1777493445.927470,,,HDT,,,,,,,,,,350.108,,,,,"$GPHDT,350.108,T*3A"
1777493445.930806,72645.9,tod,GST,,,,,,,0.031,0.009,0.028,,,,,,"$GPGST,201045.90,0.161,0.031,0.008,2.148,0.031,0.009,0.028*5E"
1777493446.023402,72646,tod,GGA,39.73822305,-84.17640924,242.2403,4,12,2.3,,,,,,,,,"$GPGGA,201046.00,3944.2933832,N,08410.5845543,W,4,12,2.3,242.2403,M,-33.3702,M,1.0,2991*75"
1777493446.025735,,,HDT,,,,,,,,,,350.552,,,,,"$GPHDT,350.552,T*31"
1777493446.029827,72646,tod,GST,,,,,,,0.039,0.011,0.036,,,,,,"$GPGST,201046.00,0.161,0.039,0.011,2.171,0.039,0.011,0.036*50"
1777493446.123791,72646.1,tod,GGA,39.73822296,-84.17640923,242.2409,4,12,2.3,,,,,,,,,"$GPGGA,201046.10,3944.2933778,N,08410.5845537,W,4,12,2.3,242.2409,M,-33.3702,M,1.1,2991*7D"
1777493446.125731,,,HDT,,,,,,,,,,350.376,,,,,"$GPHDT,350.376,T*31"
1777493446.130045,72646.1,tod,GST,,,,,,,0.021,0.006,0.015,,,,,,"$GPGST,201046.10,0.137,0.021,0.006,3.221,0.021,0.006,0.015*54"
1777493446.224159,72646.2,tod,GGA,39.73822299,-84.17640922,242.2386,4,12,2.3,,,,,,,,,"$GPGGA,201046.20,3944.2933793,N,08410.5845534,W,4,12,2.3,242.2386,M,-33.3702,M,1.2,2991*7B"
1777493446.225219,,,HDT,,,,,,,,,,349.783,,,,,"$GPHDT,349.783,T*37"
1777493446.229988,72646.2,tod,GST,,,,,,,0.038,0.01,0.034,,,,,,"$GPGST,201046.20,0.137,0.038,0.010,2.257,0.038,0.010,0.034*54"
1777493446.324610,72646.3,tod,GGA,39.73822299,-84.17640926,242.2573,4,12,2.3,,,,,,,,,"$GPGGA,201046.30,3944.2933792,N,08410.5845554,W,4,12,2.3,242.2573,M,-33.3702,M,1.3,2991*70"
1777493446.327153,,,HDT,,,,,,,,,,349.372,,,,,"$GPHDT,349.372,T*3D"
1777493446.331834,72646.3,tod,GST,,,,,,,0.022,0.006,0.016,,,,,,"$GPGST,201046.30,0.137,0.022,0.006,3.601,0.022,0.006,0.016*53"
1777493446.426006,72646.4,tod,GGA,39.73822286,-84.17640934,242.3056,4,12,2.3,,,,,,,,,"$GPGGA,201046.40,3944.2933714,N,08410.5845603,W,4,12,2.3,242.3056,M,-33.3702,M,1.4,2991*7C"
1777493446.428732,,,HDT,,,,,,,,,,350.31,,,,,"$GPHDT,350.310,T*31"
1777493446.433515,72646.4,tod,GST,,,,,,,0.024,0.006,0.019,,,,,,"$GPGST,201046.40,0.137,0.024,0.006,3.180,0.024,0.006,0.019*55"
1777493446.524136,72646.5,tod,GGA,39.73822283,-84.17640937,242.3274,4,12,2.3,,,,,,,,,"$GPGGA,201046.50,3944.2933697,N,08410.5845621,W,4,12,2.3,242.3274,M,-33.3702,M,1.5,2991*74"
1777493446.528086,,,HDT,,,,,,,,,,350.446,,,,,"$GPHDT,350.446,T*35"
1777493446.531436,72646.5,tod,GST,,,,,,,0.025,0.007,0.019,,,,,,"$GPGST,201046.50,0.137,0.025,0.006,2.822,0.025,0.007,0.019*55"
1777493446.624687,72646.6,tod,GGA,39.738223,-84.17640912,242.2824,4,13,2.2,,,,,,,,,"$GPGGA,201046.60,3944.2933797,N,08410.5845470,W,4,13,2.2,242.2824,M,-33.3702,M,0.6,2991*7C"
1777493446.626537,,,HDT,,,,,,,,,,349.437,,,,,"$GPHDT,349.437,T*3B"
1777493446.630939,72646.6,tod,GST,,,,,,,0.023,0.006,0.017,,,,,,"$GPGST,201046.60,0.125,0.023,0.006,3.079,0.023,0.006,0.017*5D"
1777493446.723615,72646.7,tod,GGA,39.73822333,-84.17640893,242.224,4,13,2.2,,,,,,,,,"$GPGGA,201046.70,3944.2933997,N,08410.5845359,W,4,13,2.2,242.2240,M,-33.3702,M,0.7,2991*76"
1777493446.727670,,,HDT,,,,,,,,,,348.69,,,,,"$GPHDT,348.690,T*35"
1777493446.730972,72646.7,tod,GST,,,,,,,0.027,0.007,0.021,,,,,,"$GPGST,201046.70,0.125,0.027,0.007,1.847,0.027,0.007,0.021*5E"
1777493446.823279,72646.8,tod,GGA,39.73822331,-84.17640896,242.18,4,13,2.2,,,,,,,,,"$GPGGA,201046.80,3944.2933985,N,08410.5845378,W,4,13,2.2,242.1800,M,-33.3702,M,0.8,2991*7B"
1777493446.825712,,,HDT,,,,,,,,,,348.657,,,,,"$GPHDT,348.657,T*3E"
1777493446.830511,72646.8,tod,GST,,,,,,,0.027,0.007,0.021,,,,,,"$GPGST,201046.80,0.125,0.027,0.007,2.089,0.027,0.007,0.021*58"
1777493446.924398,72646.9,tod,GGA,39.7382233,-84.17640899,242.1779,4,13,2.2,,,,,,,,,"$GPGGA,201046.90,3944.2933981,N,08410.5845394,W,4,13,2.2,242.1779,M,-33.3702,M,0.9,2991*7C"
1777493446.927186,,,HDT,,,,,,,,,,348.833,,,,,"$GPHDT,348.833,T*32"
1777493446.930500,72646.9,tod,GST,,,,,,,0.024,0.006,0.017,,,,,,"$GPGST,201046.90,0.125,0.024,0.006,3.196,0.024,0.006,0.017*52"
1777493447.025142,72647,tod,GGA,39.73822335,-84.17640913,242.1838,4,13,2.2,,,,,,,,,"$GPGGA,201047.00,3944.2934007,N,08410.5845479,W,4,13,2.2,242.1838,M,-33.3702,M,1.0,2991*72"
1777493447.027591,,,HDT,,,,,,,,,,350.041,,,,,"$GPHDT,350.041,T*36"
1777493447.032541,72647,tod,GST,,,,,,,0.023,0.006,0.017,,,,,,"$GPGST,201047.00,0.125,0.023,0.006,3.488,0.023,0.006,0.017*50"
1777493447.123928,72647.1,tod,GGA,39.73822348,-84.17640928,242.2058,4,13,2.2,,,,,,,,,"$GPGGA,201047.10,3944.2934088,N,08410.5845570,W,4,13,2.2,242.2058,M,-33.3702,M,1.1,2991*70"
1777493447.126509,,,HDT,,,,,,,,,,351.654,,,,,"$GPHDT,351.654,T*35"
1777493447.129928,72647.1,tod,GST,,,,,,,0.023,0.006,0.017,,,,,,"$GPGST,201047.10,0.225,0.023,0.006,3.679,0.023,0.006,0.017*5E"
1777493447.224442,72647.2,tod,GGA,39.73822324,-84.17640943,242.202,4,13,2.2,,,,,,,,,"$GPGGA,201047.20,3944.2933943,N,08410.5845657,W,4,13,2.2,242.2020,M,-33.3702,M,1.2,2991*70"
1777493447.226883,,,HDT,,,,,,,,,,353.03,,,,,"$GPHDT,353.030,T*33"
1777493447.231544,72647.2,tod,GST,,,,,,,0.022,0.006,0.016,,,,,,"$GPGST,201047.20,0.225,0.022,0.006,3.904,0.022,0.006,0.016*59"
1777493447.326067,72647.3,tod,GGA,39.73822304,-84.17640954,242.2148,4,13,2.2,,,,,,,,,"$GPGGA,201047.30,3944.2933821,N,08410.5845724,W,4,13,2.2,242.2148,M,-33.3702,M,1.3,2991*7F"
1777493447.328706,,,HDT,,,,,,,,,,353.381,,,,,"$GPHDT,353.381,T*3A"
1777493447.333586,72647.3,tod,GST,,,,,,,0.024,0.006,0.018,,,,,,"$GPGST,201047.30,0.225,0.024,0.006,4.039,0.024,0.006,0.018*56"
1777493447.425579,72647.4,tod,GGA,39.73822289,-84.17640961,242.223,4,13,2.2,,,,,,,,,"$GPGGA,201047.40,3944.2933733,N,08410.5845765,W,4,13,2.2,242.2230,M,-33.3702,M,1.4,2991*7A"
1777493447.428278,,,HDT,,,,,,,,,,353.44,,,,,"$GPHDT,353.440,T*30"
1777493447.433173,72647.4,tod,GST,,,,,,,0.023,0.006,0.018,,,,,,"$GPGST,201047.40,0.225,0.023,0.006,4.083,0.023,0.006,0.018*50"
1777493447.523724,72647.5,tod,GGA,39.73822287,-84.17640964,242.2154,4,13,2.2,,,,,,,,,"$GPGGA,201047.50,3944.2933722,N,08410.5845786,W,4,13,2.2,242.2154,M,-33.3702,M,1.5,2991*76"
1777493447.526084,,,HDT,,,,,,,,,,353.542,,,,,"$GPHDT,353.542,T*33"
1777493447.530530,72647.5,tod,GST,,,,,,,0.021,0.006,0.016,,,,,,"$GPGST,201047.50,0.225,0.021,0.005,4.207,0.021,0.006,0.016*52"
1777493447.623347,72647.6,tod,GGA,39.73822299,-84.17640963,242.2428,4,13,2.2,,,,,,,,,"$GPGGA,201047.60,3944.2933793,N,08410.5845777,W,4,13,2.2,242.2428,M,-33.3702,M,0.6,2991*7D"
1777493447.625895,,,HDT,,,,,,,,,,354.167,,,,,"$GPHDT,354.167,T*37"
1777493447.630781,72647.6,tod,GST,,,,,,,0.034,0.01,0.032,,,,,,"$GPGST,201047.60,0.308,0.034,0.010,4.257,0.034,0.010,0.032*5F"
1777493447.721665,72647.7,tod,GGA,39.73822307,-84.17640973,242.2628,4,13,2.2,,,,,,,,,"$GPGGA,201047.70,3944.2933844,N,08410.5845839,W,4,13,2.2,242.2628,M,-33.3702,M,0.7,2991*7F"
1777493447.726160,,,HDT,,,,,,,,,,354.17,,,,,"$GPHDT,354.170,T*31"
1777493447.730369,72647.7,tod,GST,,,,,,,0.022,0.006,0.018,,,,,,"$GPGST,201047.70,0.308,0.022,0.006,4.471,0.022,0.006,0.018*54"
1777493447.823298,72647.8,tod,GGA,39.73822301,-84.17640986,242.2873,4,13,2.2,,,,,,,,,"$GPGGA,201047.80,3944.2933808,N,08410.5845915,W,4,13,2.2,242.2873,M,-33.3702,M,0.8,2991*78"
1777493447.829444,,,HDT,,,,,,,,,,354.811,,,,,"$GPHDT,354.811,T*3F"
1777493447.834043,72647.8,tod,GST,,,,,,,0.023,0.006,0.019,,,,,,"$GPGST,201047.80,0.308,0.023,0.006,4.408,0.023,0.006,0.019*54"
1777493447.924257,72647.9,tod,GGA,39.73822301,-84.17640989,242.2974,4,13,2.2,,,,,,,,,"$GPGGA,201047.90,3944.2933808,N,08410.5845935,W,4,13,2.2,242.2974,M,-33.3702,M,0.9,2991*7C"
1777493447.926931,,,HDT,,,,,,,,,,355.428,,,,,"$GPHDT,355.428,T*38"
1777493447.928808,72647.9,tod,GST,,,,,,,0.021,0.006,0.016,,,,,,"$GPGST,201047.90,0.308,0.021,0.006,4.541,0.021,0.006,0.016*56"
1777493448.024538,72648,tod,GGA,39.73822294,-84.17640983,242.3037,4,13,2.2,,,,,,,,,"$GPGGA,201048.00,3944.2933766,N,08410.5845900,W,4,13,2.2,242.3037,M,-33.3702,M,1.0,2991*7C"
1777493448.027097,,,HDT,,,,,,,,,,355.32,,,,,"$GPHDT,355.320,T*37"
1777493448.031286,72648,tod,GST,,,,,,,0.032,0.011,0.034,,,,,,"$GPGST,201048.00,0.308,0.032,0.011,2.421,0.032,0.011,0.034*51"
1777493448.124385,72648.1,tod,GGA,39.73822296,-84.17640964,242.2915,4,13,2.2,,,,,,,,,"$GPGGA,201048.10,3944.2933775,N,08410.5845786,W,4,13,2.2,242.2915,M,-33.3702,M,1.1,2991*76"
1777493448.126836,,,HDT,,,,,,,,,,354.674,,,,,"$GPHDT,354.674,T*32"
1777493448.131654,72648.1,tod,GST,,,,,,,0.021,0.006,0.016,,,,,,"$GPGST,201048.10,0.275,0.021,0.006,4.426,0.021,0.006,0.016*5A"
1777493448.223943,72648.2,tod,GGA,39.7382229,-84.17640949,242.2829,4,13,2.2,,,,,,,,,"$GPGGA,201048.20,3944.2933737,N,08410.5845691,W,4,13,2.2,242.2829,M,-33.3702,M,1.2,2991*79"
1777493448.226367,,,HDT,,,,,,,,,,353.487,,,,,"$GPHDT,353.487,T*3B"
1777493448.231125,72648.2,tod,GST,,,,,,,0.021,0.006,0.016,,,,,,"$GPGST,201048.20,0.275,0.021,0.006,4.419,0.021,0.006,0.016*55"
1777493448.323869,72648.3,tod,GGA,39.73822289,-84.17640933,242.2757,4,13,2.2,,,,,,,,,"$GPGGA,201048.30,3944.2933734,N,08410.5845596,W,4,13,2.2,242.2757,M,-33.3702,M,1.3,2991*78"
1777493448.327507,,,HDT,,,,,,,,,,352.067,,,,,"$GPHDT,352.067,T*30"
1777493448.331055,72648.3,tod,GST,,,,,,,0.021,0.006,0.016,,,,,,"$GPGST,201048.30,0.275,0.021,0.006,4.441,0.021,0.006,0.016*59"
1777493448.423419,72648.4,tod,GGA,39.73822283,-84.17640918,242.254,4,13,2.2,,,,,,,,,"$GPGGA,201048.40,3944.2933697,N,08410.5845509,W,4,13,2.2,242.2540,M,-33.3702,M,1.4,2991*72"
1777493448.427609,,,HDT,,,,,,,,,,351.023,,,,,"$GPHDT,351.023,T*33"
1777493448.432704,72648.4,tod,GST,,,,,,,0.021,0.006,0.017,,,,,,"$GPGST,201048.40,0.275,0.021,0.006,4.448,0.021,0.006,0.017*56"
1777493448.523008,72648.5,tod,GGA,39.73822274,-84.17640912,242.2402,4,13,2.2,,,,,,,,,"$GPGGA,201048.50,3944.2933643,N,08410.5845474,W,4,13,2.2,242.2402,M,-33.3702,M,1.5,2991*77"
1777493448.525574,,,HDT,,,,,,,,,,350.718,,,,,"$GPHDT,350.718,T*3D"
1777493448.530396,72648.5,tod,GST,,,,,,,0.021,0.006,0.017,,,,,,"$GPGST,201048.50,0.275,0.021,0.006,4.423,0.021,0.006,0.017*5A"
1777493448.622811,72648.6,tod,GGA,39.7382227,-84.17640908,242.2426,4,14,1.6,,,,,,,,,"$GPGGA,201048.60,3944.2933618,N,08410.5845448,W,4,14,1.6,242.2426,M,-33.3702,M,0.6,2991*71"
1777493448.625228,,,HDT,,,,,,,,,,350.911,,,,,"$GPHDT,350.911,T*3A"
1777493448.630063,72648.6,tod,GST,,,,,,,0.021,0.006,0.016,,,,,,"$GPGST,201048.60,0.614,0.021,0.006,4.442,0.021,0.006,0.016*5C"
1777493448.723525,72648.7,tod,GGA,39.73822277,-84.17640917,242.2334,4,14,1.6,,,,,,,,,"$GPGGA,201048.70,3944.2933661,N,08410.5845499,W,4,14,1.6,242.2334,M,-33.3702,M,0.7,2991*77"
1777493448.726653,,,HDT,,,,,,,,,,351.753,,,,,"$GPHDT,351.753,T*33"
1777493448.731707,72648.7,tod,GST,,,,,,,0.021,0.006,0.016,,,,,,"$GPGST,201048.70,0.614,0.021,0.005,4.467,0.021,0.006,0.016*59"
1777493448.823469,72648.8,tod,GGA,39.73822276,-84.17640926,242.2221,4,14,1.6,,,,,,,,,"$GPGGA,201048.80,3944.2933656,N,08410.5845557,W,4,14,1.6,242.2221,M,-33.3702,M,0.8,2991*75"
1777493448.824080,,,HDT,,,,,,,,,,353.639,,,,,"$GPHDT,353.639,T*3C"
1777493448.825736,72648.8,tod,GST,,,,,,,0.021,0.006,0.016,,,,,,"$GPGST,201048.80,0.614,0.021,0.005,4.461,0.021,0.006,0.016*50"
1777493448.924061,72648.9,tod,GGA,39.73822271,-84.17640941,242.2212,4,14,1.6,,,,,,,,,"$GPGGA,201048.90,3944.2933628,N,08410.5845648,W,4,14,1.6,242.2212,M,-33.3702,M,0.9,2991*71"
1777493448.926277,,,HDT,,,,,,,,,,355.959,,,,,"$GPHDT,355.959,T*33"
1777493448.930546,72648.9,tod,GST,,,,,,,0.021,0.006,0.016,,,,,,"$GPGST,201048.90,0.614,0.021,0.005,4.506,0.021,0.006,0.016*51"
1777493449.024637,72649,tod,GGA,39.73822268,-84.17640956,242.2283,4,13,1.7,,,,,,,,,"$GPGGA,201049.00,3944.2933610,N,08410.5845735,W,4,13,1.7,242.2283,M,-33.3702,M,1.0,2991*7F"
1777493449.026574,,,HDT,,,,,,,,,,358.498,,,,,"$GPHDT,358.498,T*3E"
1777493449.031399,72649,tod,GST,,,,,,,0.021,0.006,0.016,,,,,,"$GPGST,201049.00,0.614,0.021,0.006,4.548,0.021,0.006,0.016*50"
1777493449.123789,72649.1,tod,GGA,39.7382226,-84.17640981,242.2175,4,12,2.2,,,,,,,,,"$GPGGA,201049.10,3944.2933561,N,08410.5845883,W,4,12,2.2,242.2175,M,-33.3702,M,1.1,2991*75"
1777493449.126158,,,HDT,,,,,,,,,,0.229,,,,,"$GPHDT,0.229,T*3C"
1777493449.130637,72649.1,tod,GST,,,,,,,0.021,0.006,0.017,,,,,,"$GPGST,201049.10,0.165,0.021,0.006,4.596,0.021,0.006,0.017*52"
1777493449.223219,72649.2,tod,GGA,39.73822262,-84.17640995,242.2184,4,12,2.2,,,,,,,,,"$GPGGA,201049.20,3944.2933573,N,08410.5845969,W,4,12,2.2,242.2184,M,-33.3702,M,1.2,2991*7D"
1777493449.225576,,,HDT,,,,,,,,,,0.458,,,,,"$GPHDT,0.458,T*3C"
1777493449.229909,72649.2,tod,GST,,,,,,,0.02,0.006,0.016,,,,,,"$GPGST,201049.20,0.165,0.020,0.006,4.668,0.020,0.006,0.016*52"
1777493449.322824,72649.3,tod,GGA,39.73822267,-84.1764101,242.2167,4,12,2.2,,,,,,,,,"$GPGGA,201049.30,3944.2933601,N,08410.5846062,W,4,12,2.2,242.2167,M,-33.3702,M,1.3,2991*77"
1777493449.325267,,,HDT,,,,,,,,,,0.695,,,,,"$GPHDT,0.695,T*3F"
1777493449.327210,72649.3,tod,GST,,,,,,,0.02,0.005,0.015,,,,,,"$GPGST,201049.30,0.165,0.020,0.005,4.684,0.020,0.005,0.015*52"
1777493449.423525,72649.4,tod,GGA,39.73822266,-84.17641028,242.2125,4,12,2.2,,,,,,,,,"$GPGGA,201049.40,3944.2933596,N,08410.5846165,W,4,12,2.2,242.2125,M,-33.3702,M,1.4,2991*7A"
1777493449.425694,,,HDT,,,,,,,,,,0.542,,,,,"$GPHDT,0.542,T*36"
1777493449.430398,72649.4,tod,GST,,,,,,,0.02,0.005,0.015,,,,,,"$GPGST,201049.40,0.165,0.020,0.005,4.628,0.020,0.005,0.015*53"
1777493449.524444,72649.5,tod,GGA,39.73822264,-84.17641047,242.2075,4,12,2.2,,,,,,,,,"$GPGGA,201049.50,3944.2933581,N,08410.5846284,W,4,12,2.2,242.2075,M,-33.3702,M,1.5,2991*74"
1777493449.526897,,,HDT,,,,,,,,,,0.453,,,,,"$GPHDT,0.453,T*37"
1777493449.531447,72649.5,tod,GST,,,,,,,0.02,0.005,0.016,,,,,,"$GPGST,201049.50,0.165,0.020,0.005,4.504,0.020,0.005,0.016*5C"
1777493449.623229,72649.6,tod,GGA,39.73822265,-84.17641071,242.2081,4,12,2.2,,,,,,,,,"$GPGGA,201049.60,3944.2933589,N,08410.5846426,W,4,12,2.2,242.2081,M,-33.3702,M,0.6,2991*78"
1777493449.626931,,,HDT,,,,,,,,,,0.081,,,,,"$GPHDT,0.081,T*3C"
1777493449.631648,72649.6,tod,GST,,,,,,,0.02,0.006,0.016,,,,,,"$GPGST,201049.60,0.206,0.020,0.005,4.294,0.020,0.006,0.016*54"
1777493449.724491,72649.7,tod,GGA,39.73822272,-84.17641089,242.2237,4,12,2.2,,,,,,,,,"$GPGGA,201049.70,3944.2933631,N,08410.5846531,W,4,12,2.2,242.2237,M,-33.3702,M,0.7,2991*70"
1777493449.726941,,,HDT,,,,,,,,,,359.953,,,,,"$GPHDT,359.953,T*35"
1777493449.731687,72649.7,tod,GST,,,,,,,0.02,0.006,0.016,,,,,,"$GPGST,201049.70,0.206,0.020,0.005,4.286,0.020,0.006,0.016*56"
1777493449.824101,72649.8,tod,GGA,39.73822285,-84.17641108,242.2299,4,12,2.2,,,,,,,,,"$GPGGA,201049.80,3944.2933709,N,08410.5846650,W,4,12,2.2,242.2299,M,-33.3702,M,0.8,2991*7A"
1777493449.826068,,,HDT,,,,,,,,,,0.372,,,,,"$GPHDT,0.372,T*33"
1777493449.828557,72649.8,tod,GST,,,,,,,0.021,0.006,0.016,,,,,,"$GPGST,201049.80,0.206,0.021,0.005,4.301,0.021,0.006,0.016*57"
1777493449.923793,72649.9,tod,GGA,39.73822292,-84.17641128,242.238,4,12,2.2,,,,,,,,,"$GPGGA,201049.90,3944.2933749,N,08410.5846765,W,4,12,2.2,242.2380,M,-33.3702,M,0.9,2991*70"
1777493449.926132,,,HDT,,,,,,,,,,0.896,,,,,"$GPHDT,0.896,T*32"
1777493449.930609,72649.9,tod,GST,,,,,,,0.02,0.006,0.016,,,,,,"$GPGST,201049.90,0.206,0.020,0.005,4.295,0.020,0.006,0.016*5A"
1777493450.023717,72650,tod,GGA,39.73822297,-84.17641146,242.2459,4,12,2.2,,,,,,,,,"$GPGGA,201050.00,3944.2933782,N,08410.5846877,W,4,12,2.2,242.2459,M,-33.3702,M,1.0,2991*71"
1777493450.025921,,,HDT,,,,,,,,,,1.589,,,,,"$GPHDT,1.589,T*30"
1777493450.030411,72650,tod,GST,,,,,,,0.02,0.006,0.016,,,,,,"$GPGST,201050.00,0.206,0.020,0.005,4.286,0.020,0.006,0.016*59"
1777493450.123106,72650.1,tod,GGA,39.73822299,-84.17641161,242.2364,4,12,2.2,,,,,,,,,"$GPGGA,201050.10,3944.2933792,N,08410.5846966,W,4,12,2.2,242.2364,M,-33.3702,M,1.1,2991*78"
1777493450.125510,,,HDT,,,,,,,,,,2.523,,,,,"$GPHDT,2.523,T*33"
1777493450.130227,72650.1,tod,GST,,,,,,,0.02,0.005,0.016,,,,,,"$GPGST,201050.10,0.249,0.020,0.005,4.226,0.020,0.005,0.016*5A"
