time,source,lat,lon,alt,ve,vn,vu,yaw,pitch,roll,drift_m,imu_dt,gps_age
1776967298.874997,gps,39.7375482283,-84.1765603650,241.0071,0.0000,0.0000,0.0000,80.32,3.62,-7.90,0.0000,0.000000,0.002
1776967298.879230,dr,39.7375482283,-84.1765603650,241.0071,-0.0002,0.0002,0.0002,145.16,3.61,-7.89,0.0000,0.002500,0.005
1776967298.882146,dr,39.7375482283,-84.1765603650,241.0071,-0.0004,0.0001,0.0005,80.43,3.62,-7.92,0.0000,0.002500,0.008
1776967298.884023,dr,39.7375482283,-84.1765603650,241.0071,-0.0006,0.0000,0.0008,80.42,3.61,-7.94,0.0000,0.002500,0.010
1776967298.886527,dr,39.7375482283,-84.1765603650,241.0071,-0.0008,0.0000,0.0011,80.40,3.61,-7.95,0.0000,0.002500,0.012
1776967298.889168,dr,39.7375482283,-84.1765603651,241.0071,-0.0009,0.0000,0.0013,80.39,3.60,-7.97,0.0000,0.002500,0.015
1776967298.891492,dr,39.7375482283,-84.1765603651,241.0071,-0.0010,0.0001,0.0016,80.37,3.60,-7.98,0.0000,0.002500,0.017
1776967298.894042,dr,39.7375482283,-84.1765603651,241.0071,-0.0012,0.0001,0.0019,80.35,3.60,-7.99,0.0000,0.002500,0.020
1776967298.896437,dr,39.7375482283,-84.1765603652,241.0071,-0.0014,0.0002,0.0022,80.34,3.60,-8.00,0.0000,0.002500,0.022
1776967298.899053,dr,39.7375482284,-84.1765603652,241.0071,-0.0015,0.0003,0.0025,80.33,3.60,-8.02,0.0000,0.002500,0.025
1776967298.901667,dr,39.7375482284,-84.1765603653,241.0071,-0.0017,0.0004,0.0027,80.31,3.60,-8.03,0.0000,0.002500,0.028
1776967298.903942,dr,39.7375482284,-84.1765603653,241.0071,-0.0018,0.0005,0.0030,80.29,3.60,-8.04,0.0000,0.002500,0.030
1776967298.906534,dr,39.7375482284,-84.1765603654,241.0071,-0.0020,0.0007,0.0033,80.28,3.61,-8.06,0.0000,0.002500,0.032
1776967298.908950,dr,39.7375482284,-84.1765603654,241.0072,-0.0022,0.0008,0.0035,80.26,3.61,-8.07,0.0000,0.002500,0.035
1776967298.911454,dr,39.7375482284,-84.1765603655,241.0072,-0.0024,0.0009,0.0038,80.24,3.62,-8.09,0.0000,0.002500,0.037
1776967298.913839,dr,39.7375482284,-84.1765603656,241.0072,-0.0026,0.0010,0.0041,80.23,3.62,-8.10,0.0001,0.002500,0.040
1776967298.916603,dr,39.7375482285,-84.1765603656,241.0072,-0.0027,0.0011,0.0044,80.21,3.62,-8.12,0.0001,0.002500,0.043
1776967298.919040,dr,39.7375482285,-84.1765603657,241.0072,-0.0029,0.0012,0.0046,80.19,3.63,-8.13,0.0001,0.002500,0.045
1776967298.921486,dr,39.7375482285,-84.1765603658,241.0072,-0.0031,0.0013,0.0049,80.18,3.63,-8.14,0.0001,0.002500,0.048
1776967298.923870,dr,39.7375482286,-84.1765603659,241.0072,-0.0032,0.0014,0.0052,80.16,3.63,-8.16,0.0001,0.002500,0.049
1776967298.926648,dr,39.7375482286,-84.1765603660,241.0072,-0.0034,0.0014,0.0055,80.14,3.64,-8.17,0.0001,0.002500,0.053
1776967298.928961,dr,39.7375482286,-84.1765603661,241.0072,-0.0036,0.0014,0.0058,80.13,3.64,-8.19,0.0001,0.002500,0.055
1776967298.931416,dr,39.7375482286,-84.1765603662,241.0073,-0.0037,0.0013,0.0060,80.11,3.64,-8.20,0.0001,0.002500,0.058
1776967298.933964,dr,39.7375482287,-84.1765603663,241.0073,-0.0039,0.0012,0.0063,80.10,3.63,-8.21,0.0001,0.002500,0.060
1776967298.936388,dr,39.7375482287,-84.1765603664,241.0073,-0.0040,0.0011,0.0066,80.08,3.62,-8.22,0.0001,0.002500,0.062
1776967298.938937,dr,39.7375482287,-84.1765603666,241.0073,-0.0041,0.0010,0.0068,80.07,3.62,-8.22,0.0001,0.002500,0.065
1776967298.941436,dr,39.7375482287,-84.1765603667,241.0073,-0.0042,0.0008,0.0071,80.05,3.61,-8.23,0.0002,0.002500,0.068
1776967298.943820,dr,39.7375482288,-84.1765603668,241.0073,-0.0043,0.0006,0.0074,80.04,3.60,-8.24,0.0002,0.002500,0.070
1776967298.946330,dr,39.7375482288,-84.1765603669,241.0074,-0.0044,0.0004,0.0076,80.02,3.59,-8.25,0.0002,0.002500,0.072
1776967298.948859,dr,39.7375482288,-84.1765603671,241.0074,-0.0045,0.0001,0.0079,80.01,3.57,-8.25,0.0002,0.002500,0.075
1776967298.951381,dr,39.7375482288,-84.1765603672,241.0074,-0.0046,-0.0002,0.0081,80.00,3.56,-8.25,0.0002,0.002500,0.078
1776967298.953775,dr,39.7375482288,-84.1765603673,241.0074,-0.0048,-0.0006,0.0084,79.98,3.54,-8.26,0.0002,0.002500,0.080
1776967298.956330,dr,39.7375482287,-84.1765603675,241.0074,-0.0049,-0.0009,0.0087,79.97,3.52,-8.26,0.0002,0.002500,0.083
1776967298.958797,dr,39.7375482287,-84.1765603676,241.0075,-0.0049,-0.0014,0.0089,79.96,3.50,-8.27,0.0002,0.002500,0.085
1776967298.961356,dr,39.7375482287,-84.1765603678,241.0075,-0.0050,-0.0018,0.0092,79.95,3.47,-8.27,0.0002,0.002500,0.087
1776967298.963932,dr,39.7375482286,-84.1765603679,241.0075,-0.0051,-0.0023,0.0094,79.94,3.45,-8.27,0.0003,0.002500,0.090
1776967298.966396,dr,39.7375482286,-84.1765603681,241.0075,-0.0051,-0.0028,0.0096,79.93,3.42,-8.27,0.0003,0.002500,0.092
1776967298.968851,dr,39.7375482285,-84.1765603682,241.0076,-0.0052,-0.0033,0.0099,79.92,3.39,-8.27,0.0003,0.002500,0.095
1776967298.971238,dr,39.7375482284,-84.1765603684,241.0076,-0.0053,-0.0039,0.0102,79.91,3.36,-8.27,0.0003,0.002500,0.097
1776967298.973818,dr,39.7375482283,-84.1765603685,241.0076,-0.0054,-0.0045,0.0104,79.90,3.33,-8.28,0.0003,0.002500,0.100
1776967298.976419,dr,39.7375482282,-84.1765603687,241.0076,-0.0054,-0.0050,0.0107,79.89,3.29,-8.28,0.0003,0.002500,0.103
1776967298.979018,gps,39.7375482000,-84.1765604017,241.0110,-0.0302,-0.0303,0.0375,79.74,3.24,-8.29,0.0000,0.002500,0.001
1776967298.980519,dr,39.7375481993,-84.1765604025,241.0111,-0.0302,-0.0309,0.0377,79.88,3.26,-8.28,0.0001,0.002500,0.003
1776967298.982560,dr,39.7375481986,-84.1765604034,241.0112,-0.0302,-0.0314,0.0380,79.87,3.23,-8.28,0.0002,0.002500,0.005
1776967298.984957,dr,39.7375481979,-84.1765604043,241.0113,-0.0303,-0.0320,0.0383,79.86,3.20,-8.28,0.0003,0.002500,0.007
1776967298.986935,dr,39.7375481972,-84.1765604052,241.0114,-0.0308,-0.0322,0.0385,144.40,3.14,-8.26,0.0004,0.002500,0.009
1776967298.989117,dr,39.7375481964,-84.1765604061,241.0115,-0.0309,-0.0328,0.0387,79.84,3.12,-8.28,0.0005,0.002500,0.011
1776967298.991812,dr,39.7375481957,-84.1765604070,241.0116,-0.0308,-0.0334,0.0390,79.83,3.08,-8.28,0.0007,0.002500,0.014
1776967298.993615,dr,39.7375481949,-84.1765604079,241.0117,-0.0308,-0.0340,0.0392,79.82,3.05,-8.27,0.0008,0.002500,0.015
1776967298.996211,dr,39.7375481942,-84.1765604088,241.0118,-0.0308,-0.0346,0.0395,79.81,3.01,-8.26,0.0009,0.002500,0.018
1776967298.998709,dr,39.7375481934,-84.1765604097,241.0119,-0.0308,-0.0352,0.0397,79.81,2.98,-8.26,0.0010,0.002500,0.021
1776967299.001199,dr,39.7375481926,-84.1765604106,241.0120,-0.0309,-0.0358,0.0399,79.80,2.94,-8.27,0.0011,0.002500,0.023
1776967299.003699,dr,39.7375481918,-84.1765604115,241.0121,-0.0310,-0.0365,0.0402,79.79,2.90,-8.28,0.0012,0.002500,0.026
1776967299.006172,dr,39.7375481909,-84.1765604124,241.0122,-0.0310,-0.0371,0.0404,79.78,2.86,-8.28,0.0014,0.002500,0.028
1776967299.008675,dr,39.7375481901,-84.1765604133,241.0123,-0.0311,-0.0377,0.0407,79.77,2.82,-8.29,0.0015,0.002500,0.031
1776967299.011148,dr,39.7375481892,-84.1765604142,241.0124,-0.0311,-0.0383,0.0409,79.76,2.78,-8.30,0.0016,0.002500,0.033
1776967299.013647,dr,39.7375481884,-84.1765604151,241.0125,-0.0311,-0.0390,0.0411,79.76,2.75,-8.30,0.0017,0.002500,0.036
1776967299.016308,dr,39.7375481875,-84.1765604160,241.0126,-0.0311,-0.0396,0.0413,79.75,2.71,-8.31,0.0019,0.002500,0.038
1776967299.018689,dr,39.7375481866,-84.1765604170,241.0127,-0.0311,-0.0403,0.0416,79.74,2.67,-8.31,0.0020,0.002500,0.041
1776967299.021080,dr,39.7375481857,-84.1765604179,241.0128,-0.0311,-0.0410,0.0418,79.74,2.63,-8.32,0.0021,0.002500,0.043
1776967299.023610,dr,39.7375481847,-84.1765604188,241.0129,-0.0311,-0.0416,0.0420,79.73,2.59,-8.32,0.0022,0.002500,0.045
1776967299.026078,dr,39.7375481838,-84.1765604197,241.0130,-0.0310,-0.0423,0.0422,79.72,2.55,-8.32,0.0024,0.002500,0.048
1776967299.028702,dr,39.7375481828,-84.1765604206,241.0131,-0.0309,-0.0430,0.0424,79.72,2.50,-8.32,0.0025,0.002500,0.051
1776967299.031191,dr,39.7375481819,-84.1765604215,241.0132,-0.0308,-0.0437,0.0426,79.71,2.46,-8.31,0.0026,0.002500,0.053
1776967299.033722,dr,39.7375481809,-84.1765604224,241.0133,-0.0307,-0.0445,0.0428,79.71,2.42,-8.31,0.0028,0.002500,0.056
1776967299.036114,dr,39.7375481799,-84.1765604233,241.0134,-0.0305,-0.0452,0.0430,79.70,2.37,-8.31,0.0029,0.002500,0.058
1776967299.038567,dr,39.7375481788,-84.1765604242,241.0135,-0.0303,-0.0460,0.0432,79.70,2.33,-8.29,0.0030,0.002500,0.061
1776967299.041186,dr,39.7375481778,-84.1765604250,241.0136,-0.0301,-0.0467,0.0433,79.70,2.29,-8.28,0.0032,0.002500,0.063
1776967299.043574,dr,39.7375481767,-84.1765604259,241.0137,-0.0299,-0.0475,0.0435,79.69,2.25,-8.27,0.0033,0.002500,0.066
1776967299.046085,dr,39.7375481757,-84.1765604268,241.0139,-0.0298,-0.0483,0.0437,79.69,2.20,-8.26,0.0035,0.002500,0.068
1776967299.048642,dr,39.7375481746,-84.1765604277,241.0140,-0.0296,-0.0491,0.0439,79.69,2.16,-8.25,0.0036,0.002500,0.071
1776967299.051185,dr,39.7375481735,-84.1765604285,241.0141,-0.0295,-0.0500,0.0440,79.68,2.10,-8.24,0.0037,0.002500,0.073
1776967299.053557,dr,39.7375481723,-84.1765604294,241.0142,-0.0294,-0.0509,0.0441,79.68,2.05,-8.23,0.0039,0.002500,0.076
1776967299.055986,dr,39.7375481712,-84.1765604302,241.0143,-0.0292,-0.0517,0.0443,79.68,2.00,-8.23,0.0040,0.002500,0.078
1776967299.058460,dr,39.7375481700,-84.1765604311,241.0144,-0.0291,-0.0526,0.0445,79.68,1.94,-8.22,0.0042,0.002500,0.080
1776967299.061020,dr,39.7375481688,-84.1765604319,241.0145,-0.0289,-0.0535,0.0446,79.68,1.89,-8.21,0.0043,0.002500,0.083
1776967299.063473,dr,39.7375481676,-84.1765604328,241.0146,-0.0288,-0.0543,0.0447,79.68,1.84,-8.20,0.0045,0.002500,0.085
1776967299.066091,dr,39.7375481664,-84.1765604336,241.0147,-0.0286,-0.0552,0.0448,79.68,1.79,-8.20,0.0046,0.002500,0.088
1776967299.068571,dr,39.7375481651,-84.1765604345,241.0149,-0.0285,-0.0561,0.0449,79.68,1.73,-8.19,0.0048,0.002500,0.091
1776967299.071077,dr,39.7375481638,-84.1765604353,241.0150,-0.0283,-0.0569,0.0450,79.68,1.68,-8.19,0.0049,0.002500,0.093
1776967299.073511,dr,39.7375481625,-84.1765604361,241.0151,-0.0281,-0.0578,0.0451,79.68,1.63,-8.18,0.0051,0.002500,0.096
1776967299.076141,dr,39.7375481612,-84.1765604369,241.0152,-0.0278,-0.0586,0.0452,79.69,1.58,-8.17,0.0053,0.002500,0.098
1776967299.078465,gps,39.7375482017,-84.1765604283,241.0078,-0.0230,0.0019,-0.0322,79.55,1.51,-8.16,0.0000,0.002500,0.001
1776967299.078657,dr,39.7375482017,-84.1765604290,241.0077,-0.0227,0.0011,-0.0321,79.69,1.53,-8.16,0.0001,0.002500,0.003
1776967299.082008,dr,39.7375482017,-84.1765604297,241.0076,-0.0225,0.0003,-0.0320,79.69,1.48,-8.15,0.0001,0.002500,0.005
1776967299.083701,dr,39.7375482017,-84.1765604303,241.0076,-0.0222,-0.0005,-0.0320,79.70,1.43,-8.13,0.0002,0.002500,0.007
1776967299.086776,dr,39.7375482017,-84.1765604310,241.0075,-0.0228,-0.0011,-0.0319,143.99,1.37,-8.10,0.0002,0.002500,0.009
1776967299.088797,dr,39.7375482017,-84.1765604316,241.0074,-0.0225,-0.0018,-0.0319,79.70,1.34,-8.11,0.0003,0.002500,0.012
1776967299.091121,dr,39.7375482016,-84.1765604323,241.0073,-0.0222,-0.0026,-0.0318,79.71,1.29,-8.09,0.0003,0.002500,0.014
1776967299.093505,dr,39.7375482015,-84.1765604329,241.0072,-0.0219,-0.0032,-0.0318,79.71,1.25,-8.08,0.0004,0.002500,0.016
1776967299.095882,dr,39.7375482015,-84.1765604336,241.0072,-0.0217,-0.0039,-0.0317,79.71,1.21,-8.07,0.0004,0.002500,0.019
1776967299.098578,dr,39.7375482014,-84.1765604342,241.0071,-0.0215,-0.0045,-0.0317,79.72,1.17,-8.05,0.0005,0.002500,0.021
1776967299.100926,dr,39.7375482013,-84.1765604348,241.0070,-0.0212,-0.0051,-0.0317,79.72,1.13,-8.04,0.0006,0.002500,0.024
1776967299.103479,dr,39.7375482011,-84.1765604354,241.0069,-0.0210,-0.0056,-0.0317,79.73,1.09,-8.03,0.0006,0.002500,0.026
1776967299.105982,dr,39.7375482010,-84.1765604360,241.0068,-0.0208,-0.0060,-0.0317,79.73,1.06,-8.02,0.0007,0.002500,0.028
1776967299.108358,dr,39.7375482009,-84.1765604367,241.0068,-0.0205,-0.0064,-0.0317,79.73,1.03,-8.00,0.0007,0.002500,0.031
1776967299.110875,dr,39.7375482007,-84.1765604372,241.0067,-0.0203,-0.0068,-0.0317,79.74,1.00,-7.99,0.0008,0.002500,0.034
1776967299.113362,dr,39.7375482006,-84.1765604378,241.0066,-0.0200,-0.0071,-0.0317,79.74,0.98,-7.98,0.0008,0.002500,0.035
1776967299.115877,dr,39.7375482004,-84.1765604384,241.0065,-0.0198,-0.0073,-0.0317,79.75,0.96,-7.96,0.0009,0.002500,0.038
1776967299.118365,dr,39.7375482002,-84.1765604390,241.0064,-0.0195,-0.0076,-0.0318,79.75,0.94,-7.95,0.0009,0.002500,0.041
1776967299.120844,dr,39.7375482001,-84.1765604396,241.0064,-0.0193,-0.0077,-0.0318,79.75,0.92,-7.94,0.0010,0.002500,0.044
1776967299.123437,dr,39.7375481999,-84.1765604401,241.0063,-0.0190,-0.0078,-0.0318,79.76,0.92,-7.92,0.0010,0.002500,0.046
1776967299.125782,dr,39.7375481997,-84.1765604407,241.0062,-0.0188,-0.0080,-0.0319,79.76,0.91,-7.91,0.0011,0.002500,0.048
1776967299.128372,dr,39.7375481995,-84.1765604412,241.0061,-0.0185,-0.0081,-0.0319,79.76,0.91,-7.89,0.0011,0.002500,0.051
1776967299.130877,dr,39.7375481994,-84.1765604417,241.0060,-0.0182,-0.0082,-0.0320,79.77,0.90,-7.88,0.0012,0.002500,0.053
1776967299.133337,dr,39.7375481992,-84.1765604423,241.0060,-0.0179,-0.0084,-0.0320,79.77,0.90,-7.86,0.0012,0.002500,0.056
1776967299.135780,dr,39.7375481990,-84.1765604428,241.0059,-0.0176,-0.0085,-0.0321,79.77,0.90,-7.85,0.0013,0.002500,0.059
1776967299.138269,dr,39.7375481988,-84.1765604433,241.0058,-0.0173,-0.0088,-0.0321,79.78,0.89,-7.83,0.0013,0.002500,0.061
1776967299.140744,dr,39.7375481986,-84.1765604438,241.0057,-0.0169,-0.0091,-0.0322,79.78,0.88,-7.81,0.0014,0.002500,0.063
1776967299.143271,dr,39.7375481984,-84.1765604443,241.0056,-0.0165,-0.0094,-0.0322,79.79,0.87,-7.79,0.0014,0.002500,0.066
1776967299.145791,dr,39.7375481982,-84.1765604448,241.0056,-0.0162,-0.0098,-0.0323,79.79,0.85,-7.77,0.0015,0.002500,0.068
1776967299.148222,dr,39.7375481979,-84.1765604452,241.0055,-0.0158,-0.0103,-0.0324,79.80,0.83,-7.75,0.0015,0.002500,0.071
1776967299.150851,dr,39.7375481977,-84.1765604457,241.0054,-0.0154,-0.0108,-0.0324,79.80,0.81,-7.72,0.0016,0.002500,0.074
1776967299.153289,dr,39.7375481974,-84.1765604461,241.0053,-0.0150,-0.0114,-0.0325,79.81,0.79,-7.70,0.0016,0.002500,0.076
1776967299.155832,dr,39.7375481972,-84.1765604466,241.0052,-0.0145,-0.0120,-0.0325,79.82,0.76,-7.68,0.0016,0.002500,0.079
1776967299.158212,dr,39.7375481969,-84.1765604470,241.0052,-0.0141,-0.0127,-0.0326,79.82,0.72,-7.65,0.0017,0.002500,0.080
1776967299.160795,dr,39.7375481966,-84.1765604474,241.0051,-0.0136,-0.0135,-0.0326,79.83,0.69,-7.62,0.0017,0.002500,0.084
1776967299.163225,dr,39.7375481963,-84.1765604478,241.0050,-0.0132,-0.0142,-0.0327,79.84,0.65,-7.59,0.0018,0.002500,0.086
1776967299.165738,dr,39.7375481960,-84.1765604482,241.0049,-0.0127,-0.0150,-0.0327,79.85,0.61,-7.57,0.0018,0.002500,0.088
1776967299.168311,dr,39.7375481956,-84.1765604485,241.0048,-0.0123,-0.0158,-0.0328,79.86,0.57,-7.54,0.0019,0.002500,0.091
1776967299.170710,dr,39.7375481953,-84.1765604489,241.0048,-0.0119,-0.0166,-0.0328,79.86,0.52,-7.51,0.0019,0.002500,0.093
1776967299.173275,dr,39.7375481949,-84.1765604492,241.0047,-0.0114,-0.0175,-0.0329,79.87,0.48,-7.49,0.0019,0.002500,0.096
1776967299.175805,dr,39.7375481945,-84.1765604495,241.0046,-0.0110,-0.0183,-0.0329,79.88,0.44,-7.46,0.0020,0.002500,0.098
1776967299.177957,gps,39.7375482183,-84.1765604117,241.0031,0.0143,0.0186,-0.0472,79.75,0.38,-7.44,0.0000,0.002500,0.001
1776967299.178676,dr,39.7375482187,-84.1765604112,241.0030,0.0148,0.0178,-0.0473,79.89,0.40,-7.43,0.0001,0.002500,0.003
1776967299.181466,dr,39.7375482191,-84.1765604108,241.0029,0.0152,0.0170,-0.0473,79.90,0.35,-7.41,0.0001,0.002500,0.005
1776967299.183285,dr,39.7375482195,-84.1765604104,241.0027,0.0157,0.0162,-0.0474,79.91,0.31,-7.38,0.0002,0.002500,0.007
1776967299.186780,dr,39.7375482199,-84.1765604099,241.0026,0.0152,0.0155,-0.0474,144.19,0.25,-7.34,0.0002,0.002500,0.010
1776967299.188534,dr,39.7375482202,-84.1765604095,241.0025,0.0156,0.0147,-0.0475,79.92,0.22,-7.33,0.0003,0.002500,0.012
1776967299.190909,dr,39.7375482205,-84.1765604090,241.0024,0.0161,0.0140,-0.0475,79.93,0.17,-7.30,0.0003,0.002500,0.015
1776967299.193084,dr,39.7375482208,-84.1765604085,241.0023,0.0165,0.0133,-0.0476,79.94,0.13,-7.27,0.0004,0.002500,0.017
1776967299.195626,dr,39.7375482211,-84.1765604080,241.0022,0.0170,0.0126,-0.0476,79.95,0.09,-7.24,0.0004,0.002500,0.019
1776967299.198171,dr,39.7375482214,-84.1765604075,241.0020,0.0174,0.0119,-0.0477,79.96,0.04,-7.21,0.0005,0.002500,0.021
1776967299.200697,dr,39.7375482217,-84.1765604070,241.0019,0.0178,0.0113,-0.0477,79.96,0.01,-7.19,0.0005,0.002500,0.024
1776967299.203065,dr,39.7375482219,-84.1765604065,241.0018,0.0182,0.0107,-0.0478,79.97,-0.03,-7.16,0.0006,0.002500,0.026
1776967299.205577,dr,39.7375482221,-84.1765604059,241.0017,0.0187,0.0102,-0.0478,79.98,-0.07,-7.13,0.0006,0.002500,0.029
1776967299.208202,dr,39.7375482224,-84.1765604054,241.0016,0.0191,0.0097,-0.0478,79.98,-0.10,-7.11,0.0007,0.002500,0.031
1776967299.210496,dr,39.7375482226,-84.1765604048,241.0014,0.0194,0.0092,-0.0479,79.99,-0.13,-7.08,0.0008,0.002500,0.034
1776967299.213090,dr,39.7375482228,-84.1765604043,241.0013,0.0198,0.0087,-0.0479,80.00,-0.16,-7.06,0.0008,0.002500,0.036
1776967299.215659,dr,39.7375482230,-84.1765604037,241.0012,0.0202,0.0083,-0.0479,80.00,-0.19,-7.03,0.0009,0.002500,0.039
1776967299.218107,dr,39.7375482231,-84.1765604031,241.0011,0.0205,0.0079,-0.0479,80.01,-0.21,-7.01,0.0009,0.002500,0.041
1776967299.220528,dr,39.7375482233,-84.1765604025,241.0010,0.0209,0.0076,-0.0480,80.01,-0.24,-6.98,0.0010,0.002500,0.044
1776967299.223032,dr,39.7375482235,-84.1765604019,241.0008,0.0212,0.0072,-0.0480,80.01,-0.26,-6.96,0.0010,0.002500,0.046
1776967299.225505,dr,39.7375482236,-84.1765604012,241.0007,0.0215,0.0068,-0.0480,80.02,-0.28,-6.94,0.0011,0.002500,0.049
1776967299.228033,dr,39.7375482238,-84.1765604006,241.0006,0.0219,0.0065,-0.0480,80.02,-0.30,-6.91,0.0011,0.002500,0.051
1776967299.230464,dr,39.7375482239,-84.1765604000,241.0005,0.0222,0.0062,-0.0480,80.02,-0.32,-6.89,0.0012,0.002500,0.054
1776967299.233087,dr,39.7375482241,-84.1765603993,241.0004,0.0226,0.0059,-0.0480,80.02,-0.34,-6.86,0.0012,0.002500,0.056
1776967299.235548,dr,39.7375482242,-84.1765603986,241.0002,0.0230,0.0056,-0.0480,80.03,-0.35,-6.84,0.0013,0.002500,0.059
1776967299.237993,dr,39.7375482243,-84.1765603980,241.0001,0.0233,0.0053,-0.0479,80.03,-0.37,-6.82,0.0013,0.002500,0.061
1776967299.240518,dr,39.7375482244,-84.1765603973,241.0000,0.0237,0.0050,-0.0479,80.03,-0.39,-6.79,0.0014,0.002500,0.064
1776967299.243172,dr,39.7375482246,-84.1765603966,240.9999,0.0240,0.0047,-0.0479,80.03,-0.40,-6.77,0.0015,0.002500,0.066
1776967299.245464,dr,39.7375482247,-84.1765603959,240.9998,0.0244,0.0045,-0.0479,80.03,-0.42,-6.74,0.0015,0.002500,0.069
1776967299.248011,dr,39.7375482248,-84.1765603952,240.9996,0.0248,0.0042,-0.0478,80.03,-0.43,-6.72,0.0016,0.002500,0.071
1776967299.250520,dr,39.7375482248,-84.1765603944,240.9995,0.0251,0.0039,-0.0478,80.03,-0.45,-6.69,0.0016,0.002500,0.074
1776967299.253063,dr,39.7375482249,-84.1765603937,240.9994,0.0255,0.0036,-0.0478,80.03,-0.46,-6.67,0.0017,0.002500,0.076
1776967299.255457,dr,39.7375482250,-84.1765603929,240.9993,0.0259,0.0034,-0.0477,80.03,-0.48,-6.64,0.0018,0.002500,0.079
1776967299.258002,dr,39.7375482251,-84.1765603922,240.9992,0.0262,0.0031,-0.0477,80.03,-0.49,-6.62,0.0018,0.002500,0.081
1776967299.260450,dr,39.7375482251,-84.1765603914,240.9990,0.0265,0.0028,-0.0476,80.03,-0.51,-6.60,0.0019,0.002500,0.084
1776967299.263041,dr,39.7375482252,-84.1765603906,240.9989,0.0268,0.0026,-0.0476,80.03,-0.52,-6.58,0.0020,0.002500,0.086
1776967299.265395,dr,39.7375482253,-84.1765603898,240.9988,0.0271,0.0023,-0.0476,80.03,-0.53,-6.56,0.0020,0.002500,0.089
1776967299.267936,dr,39.7375482253,-84.1765603890,240.9987,0.0274,0.0020,-0.0475,80.03,-0.55,-6.54,0.0021,0.002500,0.091
1776967299.270443,dr,39.7375482254,-84.1765603882,240.9986,0.0278,0.0018,-0.0475,80.03,-0.56,-6.51,0.0022,0.002500,0.094
1776967299.273014,dr,39.7375482254,-84.1765603874,240.9984,0.0282,0.0015,-0.0474,80.02,-0.58,-6.49,0.0022,0.002500,0.096
1776967299.275540,dr,39.7375482254,-84.1765603866,240.9983,0.0285,0.0013,-0.0474,80.02,-0.59,-6.47,0.0023,0.002500,0.099
1776967299.277658,gps,39.7375482417,-84.1765603867,240.9959,0.0215,0.0260,-0.0722,79.88,-0.62,-6.44,0.0000,0.002500,0.001
1776967299.279159,dr,39.7375482422,-84.1765603860,240.9957,0.0218,0.0258,-0.0722,80.02,-0.61,-6.44,0.0001,0.002500,0.003
1776967299.281123,dr,39.7375482428,-84.1765603854,240.9955,0.0221,0.0255,-0.0721,80.02,-0.62,-6.42,0.0002,0.002500,0.004
1776967299.283473,dr,39.7375482434,-84.1765603847,240.9954,0.0221,0.0251,-0.0721,144.63,-0.64,-6.38,0.0003,0.002500,0.007
1776967299.285540,dr,39.7375482440,-84.1765603841,240.9952,0.0224,0.0248,-0.0720,80.02,-0.65,-6.37,0.0003,0.002500,0.009
1776967299.288129,dr,39.7375482445,-84.1765603834,240.9950,0.0228,0.0246,-0.0720,80.02,-0.67,-6.35,0.0004,0.002500,0.011
1776967299.290500,dr,39.7375482451,-84.1765603828,240.9948,0.0231,0.0243,-0.0719,80.02,-0.69,-6.33,0.0005,0.002500,0.014
1776967299.292800,dr,39.7375482456,-84.1765603821,240.9946,0.0235,0.0241,-0.0719,80.02,-0.70,-6.31,0.0006,0.002500,0.016
1776967299.295302,dr,39.7375482461,-84.1765603814,240.9945,0.0238,0.0239,-0.0719,80.02,-0.72,-6.29,0.0007,0.002500,0.019
1776967299.297863,dr,39.7375482467,-84.1765603807,240.9943,0.0242,0.0237,-0.0718,80.02,-0.74,-6.27,0.0008,0.002500,0.021
1776967299.300407,dr,39.7375482472,-84.1765603800,240.9941,0.0245,0.0234,-0.0718,80.02,-0.76,-6.25,0.0008,0.002500,0.024
1776967299.302855,dr,39.7375482477,-84.1765603793,240.9939,0.0249,0.0232,-0.0718,80.02,-0.77,-6.23,0.0009,0.002500,0.026
1776967299.305271,dr,39.7375482483,-84.1765603785,240.9937,0.0252,0.0231,-0.0718,80.02,-0.79,-6.20,0.0010,0.002500,0.029
1776967299.307905,dr,39.7375482488,-84.1765603778,240.9936,0.0256,0.0229,-0.0718,80.02,-0.80,-6.19,0.0011,0.002500,0.031
1776967299.310333,dr,39.7375482493,-84.1765603770,240.9934,0.0259,0.0227,-0.0718,80.02,-0.82,-6.17,0.0012,0.002500,0.034
1776967299.312778,dr,39.7375482498,-84.1765603763,240.9932,0.0262,0.0226,-0.0717,80.02,-0.83,-6.15,0.0013,0.002500,0.036
1776967299.315284,dr,39.7375482503,-84.1765603755,240.9930,0.0266,0.0225,-0.0717,80.02,-0.84,-6.13,0.0014,0.002500,0.039
1776967299.317886,dr,39.7375482508,-84.1765603747,240.9928,0.0269,0.0225,-0.0717,80.02,-0.85,-6.11,0.0014,0.002500,0.041
1776967299.320204,dr,39.7375482513,-84.1765603739,240.9927,0.0272,0.0224,-0.0717,80.02,-0.85,-6.09,0.0015,0.002500,0.044
1776967299.322848,dr,39.7375482518,-84.1765603731,240.9925,0.0276,0.0224,-0.0717,80.02,-0.86,-6.07,0.0016,0.002500,0.046
1776967299.325265,dr,39.7375482523,-84.1765603723,240.9923,0.0279,0.0223,-0.0717,80.03,-0.86,-6.05,0.0017,0.002500,0.049
1776967299.327745,dr,39.7375482528,-84.1765603715,240.9921,0.0282,0.0223,-0.0718,80.03,-0.87,-6.04,0.0018,0.002500,0.051
1776967299.330329,dr,39.7375482533,-84.1765603707,240.9919,0.0286,0.0223,-0.0718,80.03,-0.87,-6.02,0.0019,0.002500,0.054
1776967299.332851,dr,39.7375482538,-84.1765603698,240.9918,0.0289,0.0223,-0.0718,80.03,-0.87,-6.00,0.0020,0.002500,0.056
1776967299.335232,dr,39.7375482543,-84.1765603690,240.9916,0.0293,0.0223,-0.0718,80.03,-0.87,-5.98,0.0021,0.002500,0.059
1776967299.337804,dr,39.7375482548,-84.1765603681,240.9914,0.0296,0.0223,-0.0718,80.03,-0.88,-5.96,0.0022,0.002500,0.061
1776967299.340255,dr,39.7375482553,-84.1765603673,240.9912,0.0299,0.0224,-0.0718,80.03,-0.88,-5.95,0.0023,0.002500,0.064
1776967299.342718,dr,39.7375482558,-84.1765603664,240.9910,0.0303,0.0224,-0.0719,80.03,-0.88,-5.93,0.0023,0.002500,0.066
1776967299.345202,dr,39.7375482563,-84.1765603655,240.9909,0.0306,0.0224,-0.0719,80.04,-0.88,-5.91,0.0024,0.002500,0.069
1776967299.347685,dr,39.7375482568,-84.1765603646,240.9907,0.0309,0.0225,-0.0719,80.04,-0.88,-5.89,0.0025,0.002500,0.071
1776967299.350169,dr,39.7375482574,-84.1765603637,240.9905,0.0312,0.0226,-0.0720,80.04,-0.87,-5.88,0.0026,0.002500,0.074
1776967299.352709,dr,39.7375482579,-84.1765603628,240.9903,0.0315,0.0227,-0.0720,80.04,-0.87,-5.87,0.0027,0.002500,0.076
1776967299.355120,dr,39.7375482584,-84.1765603618,240.9902,0.0319,0.0229,-0.0721,80.04,-0.87,-5.85,0.0028,0.002500,0.079
1776967299.357616,dr,39.7375482589,-84.1765603609,240.9900,0.0322,0.0231,-0.0721,80.05,-0.86,-5.84,0.0029,0.002500,0.081
1776967299.360113,dr,39.7375482594,-84.1765603600,240.9898,0.0325,0.0233,-0.0722,80.05,-0.85,-5.82,0.0030,0.002500,0.084
1776967299.362732,dr,39.7375482599,-84.1765603590,240.9896,0.0327,0.0235,-0.0722,80.05,-0.84,-5.81,0.0031,0.002500,0.086
1776967299.365182,dr,39.7375482605,-84.1765603581,240.9894,0.0329,0.0237,-0.0723,80.05,-0.83,-5.80,0.0032,0.002500,0.089
1776967299.367706,dr,39.7375482610,-84.1765603571,240.9892,0.0332,0.0240,-0.0723,80.05,-0.82,-5.79,0.0033,0.002500,0.091
1776967299.370122,dr,39.7375482615,-84.1765603561,240.9891,0.0335,0.0242,-0.0724,80.05,-0.80,-5.78,0.0034,0.002500,0.094
1776967299.374532,gps,39.7375482317,-84.1765603783,240.9898,0.0074,-0.0115,-0.0630,79.91,-0.81,-5.76,0.0000,0.002500,0.001
1776967299.374625,dr,39.7375482314,-84.1765603781,240.9896,0.0076,-0.0112,-0.0630,80.05,-0.79,-5.76,0.0000,0.002500,0.003
1776967299.377894,dr,39.7375482312,-84.1765603779,240.9895,0.0079,-0.0108,-0.0631,80.06,-0.77,-5.75,0.0001,0.002500,0.005
1776967299.378159,dr,39.7375482309,-84.1765603777,240.9893,0.0081,-0.0105,-0.0631,80.06,-0.75,-5.74,0.0001,0.002500,0.006
1776967299.380919,dr,39.7375482307,-84.1765603774,240.9892,0.0083,-0.0101,-0.0631,80.06,-0.73,-5.73,0.0001,0.002500,0.008
1776967299.383177,dr,39.7375482305,-84.1765603772,240.9890,0.0087,-0.0101,-0.0631,144.69,-0.72,-5.71,0.0002,0.002500,0.011
1776967299.385795,dr,39.7375482302,-84.1765603769,240.9889,0.0089,-0.0097,-0.0631,80.06,-0.69,-5.71,0.0002,0.002500,0.013
1776967299.387948,dr,39.7375482300,-84.1765603766,240.9887,0.0091,-0.0093,-0.0632,80.06,-0.66,-5.70,0.0002,0.002500,0.015
1776967299.390163,dr,39.7375482298,-84.1765603764,240.9885,0.0093,-0.0089,-0.0632,80.06,-0.63,-5.69,0.0003,0.002500,0.017
1776967299.392489,dr,39.7375482296,-84.1765603761,240.9884,0.0095,-0.0086,-0.0633,80.06,-0.61,-5.69,0.0003,0.002500,0.019
1776967299.395050,dr,39.7375482294,-84.1765603758,240.9882,0.0098,-0.0082,-0.0633,80.06,-0.59,-5.67,0.0003,0.002500,0.022
1776967299.397475,dr,39.7375482293,-84.1765603755,240.9881,0.0101,-0.0078,-0.0633,80.06,-0.56,-5.66,0.0004,0.002500,0.024
1776967299.400008,dr,39.7375482291,-84.1765603752,240.9879,0.0103,-0.0075,-0.0633,80.05,-0.54,-5.64,0.0004,0.002500,0.027
1776967299.402582,dr,39.7375482289,-84.1765603749,240.9877,0.0105,-0.0072,-0.0633,80.05,-0.52,-5.63,0.0004,0.002500,0.029
1776967299.404979,dr,39.7375482288,-84.1765603746,240.9876,0.0107,-0.0069,-0.0634,80.05,-0.50,-5.62,0.0005,0.002500,0.032
1776967299.407462,dr,39.7375482286,-84.1765603743,240.9874,0.0110,-0.0066,-0.0634,80.05,-0.48,-5.61,0.0005,0.002500,0.034
1776967299.410080,dr,39.7375482285,-84.1765603740,240.9873,0.0112,-0.0064,-0.0634,80.05,-0.46,-5.60,0.0005,0.002500,0.037
1776967299.412516,dr,39.7375482283,-84.1765603736,240.9871,0.0114,-0.0061,-0.0634,80.05,-0.44,-5.59,0.0005,0.002500,0.039
1776967299.415109,dr,39.7375482282,-84.1765603733,240.9870,0.0116,-0.0059,-0.0634,80.05,-0.42,-5.58,0.0006,0.002500,0.042
1776967299.417463,dr,39.7375482281,-84.1765603730,240.9868,0.0118,-0.0057,-0.0634,80.05,-0.41,-5.56,0.0006,0.002500,0.044
1776967299.420125,dr,39.7375482279,-84.1765603726,240.9866,0.0121,-0.0055,-0.0634,80.04,-0.39,-5.55,0.0006,0.002500,0.047
1776967299.422774,dr,39.7375482278,-84.1765603723,240.9865,0.0123,-0.0054,-0.0634,80.05,-0.38,-5.54,0.0007,0.002500,0.049
1776967299.424963,dr,39.7375482277,-84.1765603719,240.9863,0.0125,-0.0053,-0.0635,80.04,-0.37,-5.53,0.0007,0.002500,0.051
1776967299.427474,dr,39.7375482276,-84.1765603715,240.9862,0.0127,-0.0052,-0.0635,80.04,-0.36,-5.52,0.0007,0.002500,0.054
1776967299.430048,dr,39.7375482275,-84.1765603712,240.9860,0.0129,-0.0051,-0.0635,80.04,-0.35,-5.51,0.0008,0.002500,0.057
1776967299.432501,dr,39.7375482273,-84.1765603708,240.9858,0.0131,-0.0050,-0.0635,80.04,-0.34,-5.49,0.0008,0.002500,0.059
1776967299.435038,dr,39.7375482272,-84.1765603704,240.9857,0.0133,-0.0049,-0.0635,80.04,-0.33,-5.48,0.0008,0.002500,0.062
1776967299.437541,dr,39.7375482271,-84.1765603700,240.9855,0.0136,-0.0049,-0.0635,80.04,-0.32,-5.46,0.0009,0.002500,0.064
1776967299.439928,dr,39.7375482270,-84.1765603696,240.9854,0.0138,-0.0049,-0.0635,80.04,-0.32,-5.45,0.0009,0.002500,0.067
1776967299.442463,dr,39.7375482269,-84.1765603692,240.9852,0.0140,-0.0049,-0.0635,80.04,-0.32,-5.44,0.0009,0.002500,0.069
1776967299.445019,dr,39.7375482268,-84.1765603688,240.9851,0.0142,-0.0049,-0.0636,80.04,-0.31,-5.42,0.0010,0.002500,0.072
1776967299.447475,dr,39.7375482267,-84.1765603684,240.9849,0.0145,-0.0049,-0.0636,80.04,-0.31,-5.41,0.0010,0.002500,0.074
1776967299.449961,dr,39.7375482266,-84.1765603679,240.9847,0.0147,-0.0049,-0.0636,80.04,-0.31,-5.39,0.0011,0.002500,0.076
1776967299.452353,dr,39.7375482265,-84.1765603675,240.9846,0.0149,-0.0049,-0.0636,80.04,-0.31,-5.37,0.0011,0.002500,0.079
1776967299.454908,dr,39.7375482263,-84.1765603671,240.9844,0.0151,-0.0049,-0.0636,80.04,-0.31,-5.36,0.0011,0.002500,0.081
1776967299.457457,dr,39.7375482262,-84.1765603666,240.9843,0.0153,-0.0049,-0.0636,80.04,-0.31,-5.34,0.0012,0.002500,0.084
1776967299.460077,dr,39.7375482261,-84.1765603662,240.9841,0.0155,-0.0048,-0.0636,80.05,-0.31,-5.33,0.0012,0.002500,0.087
1776967299.462548,dr,39.7375482260,-84.1765603657,240.9839,0.0157,-0.0048,-0.0636,80.04,-0.31,-5.31,0.0012,0.002500,0.089
1776967299.464928,dr,39.7375482259,-84.1765603653,240.9838,0.0159,-0.0048,-0.0636,80.05,-0.31,-5.30,0.0013,0.002500,0.092
1776967299.467469,dr,39.7375482258,-84.1765603648,240.9836,0.0161,-0.0047,-0.0637,80.05,-0.30,-5.28,0.0013,0.002500,0.094
1776967299.469856,dr,39.7375482257,-84.1765603643,240.9835,0.0162,-0.0047,-0.0637,80.05,-0.30,-5.27,0.0014,0.002500,0.097
1776967299.472347,dr,39.7375482256,-84.1765603638,240.9833,0.0164,-0.0047,-0.0637,80.05,-0.29,-5.25,0.0014,0.002500,0.099
1776967299.474901,dr,39.7375482255,-84.1765603634,240.9831,0.0165,-0.0046,-0.0637,80.05,-0.29,-5.24,0.0015,0.002500,0.102
1776967299.477498,dr,39.7375482254,-84.1765603629,240.9830,0.0167,-0.0046,-0.0637,80.05,-0.29,-5.23,0.0015,0.002500,0.104
1776967299.479773,gps,39.7375482167,-84.1765604017,240.9846,-0.0190,-0.0158,-0.0494,79.91,-0.29,-5.22,0.0000,0.002500,0.001
1776967299.481192,dr,39.7375482163,-84.1765604022,240.9845,-0.0188,-0.0158,-0.0494,80.05,-0.28,-5.22,0.0001,0.002500,0.002
1776967299.482666,dr,39.7375482160,-84.1765604028,240.9844,-0.0186,-0.0158,-0.0495,80.05,-0.28,-5.20,0.0001,0.002500,0.004
1776967299.485372,dr,39.7375482156,-84.1765604033,240.9842,-0.0185,-0.0159,-0.0495,144.71,-0.28,-5.18,0.0002,0.002500,0.007
1776967299.487563,dr,39.7375482152,-84.1765604038,240.9841,-0.0184,-0.0159,-0.0495,80.05,-0.27,-5.18,0.0002,0.002500,0.009
1776967299.490047,dr,39.7375482149,-84.1765604044,240.9840,-0.0183,-0.0159,-0.0495,80.06,-0.26,-5.17,0.0003,0.002500,0.012
1776967299.492317,dr,39.7375482145,-84.1765604049,240.9839,-0.0181,-0.0159,-0.0496,80.05,-0.26,-5.16,0.0004,0.002500,0.014
1776967299.494740,dr,39.7375482142,-84.1765604054,240.9837,-0.0180,-0.0159,-0.0496,80.06,-0.26,-5.15,0.0004,0.002500,0.016
1776967299.497241,dr,39.7375482138,-84.1765604060,240.9836,-0.0178,-0.0159,-0.0497,80.06,-0.25,-5.14,0.0005,0.002500,0.019
1776967299.499814,dr,39.7375482134,-84.1765604065,240.9835,-0.0177,-0.0160,-0.0497,80.06,-0.25,-5.13,0.0005,0.002500,0.021
1776967299.502343,dr,39.7375482131,-84.1765604070,240.9834,-0.0175,-0.0160,-0.0497,80.06,-0.25,-5.12,0.0006,0.002500,0.024
1776967299.504720,dr,39.7375482127,-84.1765604075,240.9832,-0.0174,-0.0160,-0.0498,80.06,-0.25,-5.11,0.0007,0.002500,0.026
1776967299.507334,dr,39.7375482124,-84.1765604080,240.9831,-0.0173,-0.0160,-0.0498,80.07,-0.25,-5.10,0.0007,0.002500,0.029
1776967299.509737,dr,39.7375482120,-84.1765604085,240.9830,-0.0172,-0.0160,-0.0499,80.07,-0.24,-5.09,0.0008,0.002500,0.031
1776967299.512221,dr,39.7375482116,-84.1765604090,240.9829,-0.0172,-0.0160,-0.0499,80.07,-0.24,-5.09,0.0008,0.002500,0.034
1776967299.514885,dr,39.7375482113,-84.1765604095,240.9827,-0.0171,-0.0160,-0.0500,80.07,-0.24,-5.09,0.0009,0.002500,0.036
1776967299.517207,dr,39.7375482109,-84.1765604100,240.9826,-0.0171,-0.0159,-0.0500,80.08,-0.24,-5.08,0.0010,0.002500,0.038
1776967299.519749,dr,39.7375482106,-84.1765604105,240.9825,-0.0170,-0.0158,-0.0501,80.08,-0.24,-5.08,0.0010,0.002500,0.041
1776967299.522174,dr,39.7375482102,-84.1765604110,240.9824,-0.0169,-0.0158,-0.0501,80.08,-0.24,-5.08,0.0011,0.002500,0.044
1776967299.524716,dr,39.7375482099,-84.1765604115,240.9822,-0.0168,-0.0157,-0.0502,80.09,-0.24,-5.07,0.0011,0.002500,0.046
1776967299.527181,dr,39.7375482095,-84.1765604120,240.9821,-0.0168,-0.0156,-0.0502,80.09,-0.24,-5.07,0.0012,0.002500,0.048
1776967299.529606,dr,39.7375482092,-84.1765604125,240.9820,-0.0168,-0.0154,-0.0503,80.09,-0.23,-5.07,0.0012,0.002500,0.051
1776967299.532140,dr,39.7375482088,-84.1765604130,240.9819,-0.0167,-0.0153,-0.0503,80.09,-0.23,-5.06,0.0013,0.002500,0.053
1776967299.534701,dr,39.7375482085,-84.1765604135,240.9817,-0.0167,-0.0151,-0.0504,80.09,-0.22,-5.06,0.0014,0.002500,0.056
1776967299.537168,dr,39.7375482081,-84.1765604140,240.9816,-0.0167,-0.0149,-0.0504,80.10,-0.22,-5.06,0.0014,0.002500,0.059
1776967299.539729,dr,39.7375482078,-84.1765604144,240.9815,-0.0167,-0.0148,-0.0505,80.10,-0.21,-5.06,0.0015,0.002500,0.061
1776967299.542266,dr,39.7375482075,-84.1765604149,240.9814,-0.0167,-0.0146,-0.0505,80.10,-0.20,-5.07,0.0015,0.002500,0.064
1776967299.544602,dr,39.7375482072,-84.1765604154,240.9812,-0.0168,-0.0144,-0.0506,80.10,-0.19,-5.07,0.0016,0.002500,0.066
1776967299.547122,dr,39.7375482068,-84.1765604159,240.9811,-0.0168,-0.0141,-0.0506,80.11,-0.18,-5.07,0.0016,0.002500,0.069
1776967299.549612,dr,39.7375482065,-84.1765604164,240.9810,-0.0168,-0.0139,-0.0506,80.11,-0.17,-5.07,0.0017,0.002500,0.071
1776967299.552126,dr,39.7375482062,-84.1765604169,240.9808,-0.0168,-0.0137,-0.0507,80.11,-0.15,-5.07,0.0017,0.002500,0.074
1776967299.554620,dr,39.7375482059,-84.1765604174,240.9807,-0.0168,-0.0135,-0.0507,80.11,-0.13,-5.07,0.0018,0.002500,0.076
1776967299.557093,dr,39.7375482056,-84.1765604179,240.9806,-0.0169,-0.0133,-0.0508,80.11,-0.12,-5.07,0.0019,0.002500,0.079
1776967299.559617,dr,39.7375482053,-84.1765604184,240.9805,-0.0169,-0.0131,-0.0509,80.11,-0.10,-5.08,0.0019,0.002500,0.081
1776967299.562129,dr,39.7375482050,-84.1765604189,240.9803,-0.0169,-0.0129,-0.0509,80.12,-0.09,-5.08,0.0020,0.002500,0.084
1776967299.564646,dr,39.7375482047,-84.1765604194,240.9802,-0.0170,-0.0127,-0.0510,80.12,-0.07,-5.08,0.0020,0.002500,0.086
1776967299.567024,dr,39.7375482044,-84.1765604198,240.9801,-0.0170,-0.0126,-0.0510,80.12,-0.06,-5.09,0.0021,0.002500,0.089
1776967299.569646,dr,39.7375482042,-84.1765604203,240.9800,-0.0170,-0.0125,-0.0511,80.12,-0.05,-5.09,0.0021,0.002500,0.091
1776967299.572246,dr,39.7375482039,-84.1765604208,240.9798,-0.0171,-0.0124,-0.0511,80.13,-0.04,-5.09,0.0022,0.002500,0.094
1776967299.574697,dr,39.7375482036,-84.1765604213,240.9797,-0.0171,-0.0123,-0.0512,80.13,-0.03,-5.09,0.0022,0.002500,0.096
1776967299.577235,dr,39.7375482033,-84.1765604218,240.9796,-0.0172,-0.0123,-0.0513,80.13,-0.02,-5.09,0.0023,0.002500,0.099
1776967299.579365,gps,39.7375482167,-84.1765604300,240.9832,-0.0244,0.0000,-0.0141,79.99,-0.03,-5.10,0.0000,0.002500,0.001
1776967299.579513,dr,39.7375482167,-84.1765604307,240.9832,-0.0244,0.0000,-0.0141,80.14,-0.02,-5.10,0.0001,0.002500,0.003
1776967299.583352,dr,39.7375482167,-84.1765604314,240.9831,-0.0245,-0.0000,-0.0142,80.14,-0.01,-5.10,0.0001,0.002500,0.005
1776967299.585060,dr,39.7375482167,-84.1765604321,240.9831,-0.0245,0.0000,-0.0142,144.72,-0.02,-5.09,0.0002,0.002500,0.007
1776967299.587175,dr,39.7375482167,-84.1765604329,240.9831,-0.0246,-0.0000,-0.0143,80.14,-0.01,-5.11,0.0002,0.002500,0.010
1776967299.589827,dr,39.7375482167,-84.1765604336,240.9830,-0.0247,-0.0001,-0.0143,80.15,-0.00,-5.11,0.0003,0.002500,0.012
1776967299.592367,dr,39.7375482167,-84.1765604343,240.9830,-0.0247,-0.0001,-0.0144,80.15,-0.00,-5.12,0.0004,0.002500,0.014
1776967299.594498,dr,39.7375482167,-84.1765604350,240.9830,-0.0248,-0.0002,-0.0144,80.15,-0.00,-5.12,0.0004,0.002500,0.016
1776967299.596977,dr,39.7375482167,-84.1765604357,240.9829,-0.0249,-0.0003,-0.0145,80.16,-0.01,-5.13,0.0005,0.002500,0.019
1776967299.599529,dr,39.7375482166,-84.1765604365,240.9829,-0.0249,-0.0004,-0.0145,80.16,-0.01,-5.13,0.0006,0.002500,0.021
1776967299.601971,dr,39.7375482166,-84.1765604372,240.9828,-0.0250,-0.0005,-0.0146,80.16,-0.02,-5.14,0.0006,0.002500,0.024
1776967299.604496,dr,39.7375482166,-84.1765604379,240.9828,-0.0250,-0.0007,-0.0146,80.17,-0.03,-5.14,0.0007,0.002500,0.026
1776967299.607043,dr,39.7375482166,-84.1765604387,240.9828,-0.0251,-0.0008,-0.0147,80.17,-0.04,-5.15,0.0007,0.002500,0.029
1776967299.609374,dr,39.7375482166,-84.1765604394,240.9827,-0.0252,-0.0009,-0.0147,80.17,-0.05,-5.16,0.0008,0.002500,0.031
1776967299.612019,dr,39.7375482166,-84.1765604401,240.9827,-0.0253,-0.0010,-0.0148,80.17,-0.06,-5.16,0.0009,0.002500,0.034
1776967299.614381,dr,39.7375482165,-84.1765604409,240.9827,-0.0254,-0.0010,-0.0148,80.18,-0.07,-5.16,0.0009,0.002500,0.036
1776967299.617010,dr,39.7375482165,-84.1765604416,240.9826,-0.0255,-0.0011,-0.0148,80.18,-0.07,-5.16,0.0010,0.002500,0.039
1776967299.619430,dr,39.7375482165,-84.1765604424,240.9826,-0.0256,-0.0011,-0.0148,80.18,-0.08,-5.17,0.0011,0.002500,0.041
1776967299.621900,dr,39.7375482165,-84.1765604431,240.9825,-0.0257,-0.0011,-0.0149,80.18,-0.08,-5.17,0.0011,0.002500,0.044
1776967299.624314,dr,39.7375482164,-84.1765604439,240.9825,-0.0258,-0.0011,-0.0149,80.19,-0.08,-5.18,0.0012,0.002500,0.046
1776967299.626897,dr,39.7375482164,-84.1765604446,240.9825,-0.0259,-0.0011,-0.0149,80.19,-0.09,-5.18,0.0013,0.002500,0.049
1776967299.629402,dr,39.7375482164,-84.1765604454,240.9824,-0.0261,-0.0010,-0.0149,80.19,-0.09,-5.19,0.0013,0.002500,0.051
1776967299.631944,dr,39.7375482164,-84.1765604461,240.9824,-0.0262,-0.0010,-0.0150,80.19,-0.09,-5.20,0.0014,0.002500,0.054
1776967299.634370,dr,39.7375482164,-84.1765604469,240.9824,-0.0264,-0.0009,-0.0150,80.19,-0.08,-5.21,0.0014,0.002500,0.056
1776967299.636847,dr,39.7375482163,-84.1765604477,240.9823,-0.0265,-0.0007,-0.0150,80.19,-0.08,-5.23,0.0015,0.002500,0.059
1776967299.639392,dr,39.7375482163,-84.1765604485,240.9823,-0.0266,-0.0005,-0.0151,80.19,-0.08,-5.24,0.0016,0.002500,0.061
1776967299.641801,dr,39.7375482163,-84.1765604492,240.9822,-0.0268,-0.0003,-0.0151,80.19,-0.07,-5.24,0.0016,0.002500,0.064
1776967299.644271,dr,39.7375482163,-84.1765604500,240.9822,-0.0269,-0.0001,-0.0151,80.19,-0.06,-5.25,0.0017,0.002500,0.066
1776967299.646794,dr,39.7375482163,-84.1765604508,240.9822,-0.0271,0.0002,-0.0151,80.19,-0.05,-5.27,0.0018,0.002500,0.069
1776967299.649315,dr,39.7375482163,-84.1765604516,240.9821,-0.0273,0.0006,-0.0151,80.19,-0.03,-5.28,0.0019,0.002500,0.071
1776967299.651837,dr,39.7375482163,-84.1765604524,240.9821,-0.0275,0.0010,-0.0152,80.19,-0.02,-5.29,0.0019,0.002500,0.074
1776967299.654287,dr,39.7375482164,-84.1765604532,240.9821,-0.0277,0.0014,-0.0152,80.19,0.01,-5.30,0.0020,0.002500,0.076
1776967299.656909,dr,39.7375482164,-84.1765604540,240.9820,-0.0279,0.0019,-0.0152,80.19,0.03,-5.32,0.0021,0.002500,0.079
1776967299.659278,dr,39.7375482164,-84.1765604548,240.9820,-0.0281,0.0023,-0.0152,80.19,0.05,-5.33,0.0021,0.002500,0.081
1776967299.661767,dr,39.7375482165,-84.1765604557,240.9819,-0.0283,0.0028,-0.0153,80.19,0.08,-5.35,0.0022,0.002500,0.084
1776967299.664246,dr,39.7375482166,-84.1765604565,240.9819,-0.0285,0.0033,-0.0153,80.19,0.11,-5.36,0.0023,0.002500,0.086
1776967299.666732,dr,39.7375482167,-84.1765604573,240.9819,-0.0287,0.0038,-0.0153,80.19,0.14,-5.38,0.0023,0.002500,0.088
1776967299.669308,dr,39.7375482167,-84.1765604582,240.9818,-0.0289,0.0043,-0.0153,80.19,0.17,-5.39,0.0024,0.002500,0.091
1776967299.671896,dr,39.7375482168,-84.1765604590,240.9818,-0.0292,0.0048,-0.0154,80.19,0.20,-5.41,0.0025,0.002500,0.094
1776967299.674366,dr,39.7375482170,-84.1765604599,240.9818,-0.0293,0.0053,-0.0154,80.19,0.23,-5.43,0.0026,0.002500,0.096
1776967299.676800,dr,39.7375482171,-84.1765604607,240.9817,-0.0295,0.0058,-0.0154,80.19,0.25,-5.44,0.0026,0.002500,0.100
1776967299.677811,gps,39.7375482050,-84.1765604317,240.9835,-0.0014,-0.0132,0.0030,80.19,0.25,-5.44,0.0000,0.002500,0.002
1776967299.680471,dr,39.7375482047,-84.1765604317,240.9835,-0.0016,-0.0127,0.0030,80.18,0.28,-5.45,0.0000,0.002500,0.004
1776967299.682327,dr,39.7375482044,-84.1765604318,240.9835,-0.0018,-0.0123,0.0030,80.18,0.31,-5.47,0.0001,0.002500,0.006
1776967299.684316,dr,39.7375482042,-84.1765604318,240.9835,-0.0020,-0.0119,0.0030,80.18,0.34,-5.48,0.0001,0.002500,0.008
1776967299.686888,dr,39.7375482039,-84.1765604319,240.9835,-0.0022,-0.0116,0.0029,80.18,0.36,-5.50,0.0001,0.002500,0.011
1776967299.689281,dr,39.7375482036,-84.1765604319,240.9835,-0.0024,-0.0112,0.0029,80.18,0.38,-5.51,0.0002,0.002500,0.013
1776967299.691847,dr,39.7375482034,-84.1765604320,240.9835,-0.0025,-0.0109,0.0029,80.18,0.40,-5.52,0.0002,0.002500,0.015
1776967299.694234,dr,39.7375482031,-84.1765604321,240.9836,-0.0027,-0.0106,0.0029,80.18,0.42,-5.54,0.0002,0.002500,0.018
1776967299.696788,dr,39.7375482029,-84.1765604322,240.9836,-0.0029,-0.0104,0.0028,80.18,0.44,-5.55,0.0002,0.002500,0.020
1776967299.699302,dr,39.7375482027,-84.1765604323,240.9836,-0.0031,-0.0101,0.0028,80.18,0.45,-5.56,0.0003,0.002500,0.023
1776967299.701698,dr,39.7375482025,-84.1765604324,240.9836,-0.0032,-0.0098,0.0028,80.18,0.47,-5.58,0.0003,0.002500,0.025
1776967299.704285,dr,39.7375482022,-84.1765604325,240.9836,-0.0034,-0.0096,0.0027,80.18,0.49,-5.59,0.0003,0.002500,0.028
1776967299.706638,dr,39.7375482020,-84.1765604326,240.9836,-0.0036,-0.0093,0.0027,80.18,0.50,-5.60,0.0003,0.002500,0.030
1776967299.709177,dr,39.7375482018,-84.1765604327,240.9836,-0.0037,-0.0091,0.0027,80.18,0.51,-5.62,0.0004,0.002500,0.033
1776967299.711644,dr,39.7375482016,-84.1765604328,240.9836,-0.0039,-0.0088,0.0026,80.18,0.53,-5.63,0.0004,0.002500,0.035
1776967299.714301,dr,39.7375482014,-84.1765604329,240.9836,-0.0040,-0.0086,0.0026,80.18,0.54,-5.64,0.0004,0.002500,0.038
1776967299.716622,dr,39.7375482012,-84.1765604330,240.9836,-0.0042,-0.0083,0.0026,80.18,0.56,-5.65,0.0004,0.002500,0.040
1776967299.719288,dr,39.7375482010,-84.1765604331,240.9836,-0.0043,-0.0080,0.0025,80.18,0.58,-5.67,0.0005,0.002500,0.043
1776967299.721628,dr,39.7375482009,-84.1765604333,240.9836,-0.0045,-0.0077,0.0025,80.19,0.59,-5.68,0.0005,0.002500,0.045
1776967299.724147,dr,39.7375482007,-84.1765604334,240.9836,-0.0046,-0.0074,0.0025,80.19,0.61,-5.69,0.0005,0.002500,0.047
1776967299.726652,dr,39.7375482005,-84.1765604335,240.9836,-0.0047,-0.0071,0.0024,80.19,0.62,-5.70,0.0005,0.002500,0.050
1776967299.729184,dr,39.7375482004,-84.1765604337,240.9836,-0.0048,-0.0068,0.0024,80.19,0.63,-5.71,0.0005,0.002500,0.053
1776967299.731538,dr,39.7375482002,-84.1765604338,240.9836,-0.0049,-0.0064,0.0024,80.19,0.65,-5.71,0.0006,0.002500,0.055
1776967299.734146,dr,39.7375482001,-84.1765604340,240.9837,-0.0051,-0.0060,0.0023,80.19,0.67,-5.71,0.0006,0.002500,0.058
1776967299.736559,dr,39.7375482000,-84.1765604341,240.9837,-0.0052,-0.0056,0.0023,80.19,0.70,-5.72,0.0006,0.002500,0.060
1776967299.739134,dr,39.7375481998,-84.1765604343,240.9837,-0.0053,-0.0052,0.0023,80.19,0.72,-5.73,0.0006,0.002500,0.063
1776967299.741544,dr,39.7375481997,-84.1765604344,240.9837,-0.0054,-0.0048,0.0022,80.19,0.74,-5.74,0.0006,0.002500,0.065
1776967299.744104,dr,39.7375481996,-84.1765604346,240.9837,-0.0055,-0.0043,0.0022,80.19,0.76,-5.74,0.0006,0.002500,0.068
1776967299.746626,dr,39.7375481995,-84.1765604347,240.9837,-0.0056,-0.0039,0.0021,80.19,0.79,-5.74,0.0007,0.002500,0.070
1776967299.749056,dr,39.7375481994,-84.1765604349,240.9837,-0.0057,-0.0034,0.0021,80.19,0.82,-5.75,0.0007,0.002500,0.072
1776967299.751571,dr,39.7375481994,-84.1765604351,240.9837,-0.0058,-0.0029,0.0021,80.18,0.85,-5.75,0.0007,0.002500,0.075
1776967299.754063,dr,39.7375481993,-84.1765604352,240.9837,-0.0059,-0.0024,0.0020,80.18,0.88,-5.75,0.0007,0.002500,0.077
1776967299.756461,dr,39.7375481993,-84.1765604354,240.9837,-0.0060,-0.0019,0.0020,80.18,0.91,-5.76,0.0007,0.002500,0.080
1776967299.759040,dr,39.7375481992,-84.1765604356,240.9837,-0.0061,-0.0014,0.0020,80.18,0.94,-5.76,0.0007,0.002500,0.082
1776967299.761523,dr,39.7375481992,-84.1765604358,240.9837,-0.0062,-0.0008,0.0019,80.18,0.97,-5.76,0.0007,0.002500,0.085
1776967299.764010,dr,39.7375481992,-84.1765604360,240.9837,-0.0063,-0.0003,0.0019,80.18,1.01,-5.76,0.0007,0.002500,0.087
1776967299.766577,dr,39.7375481992,-84.1765604362,240.9837,-0.0064,0.0002,0.0018,80.18,1.04,-5.77,0.0008,0.002500,0.090
1776967299.769015,dr,39.7375481992,-84.1765604363,240.9837,-0.0064,0.0007,0.0018,80.18,1.08,-5.77,0.0008,0.002500,0.092
1776967299.771567,dr,39.7375481992,-84.1765604365,240.9837,-0.0065,0.0012,0.0017,80.18,1.11,-5.77,0.0008,0.002500,0.095
1776967299.774066,dr,39.7375481993,-84.1765604367,240.9837,-0.0065,0.0016,0.0017,80.18,1.14,-5.77,0.0008,0.002500,0.097
1776967299.776439,dr,39.7375481993,-84.1765604369,240.9837,-0.0065,0.0021,0.0016,80.18,1.17,-5.76,0.0008,0.002500,0.100
1776967299.779212,gps,39.7375482050,-84.1765604600,240.9816,-0.0239,0.0000,-0.0187,80.04,1.19,-5.77,0.0000,0.002500,0.001
1776967299.779361,dr,39.7375482050,-84.1765604607,240.9816,-0.0239,0.0004,-0.0188,80.18,1.20,-5.77,0.0001,0.002500,0.003
1776967299.782786,dr,39.7375482050,-84.1765604614,240.9815,-0.0240,0.0008,-0.0189,80.18,1.23,-5.77,0.0001,0.002500,0.005
1776967299.784042,dr,39.7375482050,-84.1765604621,240.9815,-0.0240,0.0011,-0.0189,80.18,1.26,-5.77,0.0002,0.002500,0.006
1776967299.786762,dr,39.7375482051,-84.1765604628,240.9814,-0.0237,0.0012,-0.0189,144.83,1.27,-5.76,0.0002,0.002500,0.009
1776967299.789033,dr,39.7375482051,-84.1765604635,240.9814,-0.0236,0.0015,-0.0190,80.18,1.31,-5.77,0.0003,0.002500,0.011
1776967299.791421,dr,39.7375482051,-84.1765604642,240.9813,-0.0236,0.0018,-0.0190,80.18,1.33,-5.77,0.0004,0.002500,0.014
1776967299.794115,dr,39.7375482052,-84.1765604649,240.9813,-0.0236,0.0020,-0.0190,80.18,1.35,-5.76,0.0004,0.002500,0.016
1776967299.796435,dr,39.7375482052,-84.1765604656,240.9812,-0.0236,0.0022,-0.0191,80.18,1.36,-5.76,0.0005,0.002500,0.018
1776967299.798989,dr,39.7375482053,-84.1765604662,240.9812,-0.0236,0.0024,-0.0191,80.18,1.38,-5.76,0.0005,0.002500,0.021
1776967299.801506,dr,39.7375482053,-84.1765604669,240.9811,-0.0235,0.0026,-0.0191,80.18,1.40,-5.76,0.0006,0.002500,0.023
1776967299.803964,dr,39.7375482054,-84.1765604676,240.9811,-0.0235,0.0027,-0.0192,80.19,1.41,-5.76,0.0007,0.002500,0.026
1776967299.806311,dr,39.7375482055,-84.1765604683,240.9810,-0.0234,0.0028,-0.0192,80.19,1.42,-5.76,0.0007,0.002500,0.028
1776967299.808803,dr,39.7375482055,-84.1765604690,240.9810,-0.0233,0.0029,-0.0192,80.19,1.43,-5.75,0.0008,0.002500,0.031
1776967299.811400,dr,39.7375482056,-84.1765604697,240.9809,-0.0233,0.0030,-0.0192,80.18,1.44,-5.74,0.0008,0.002500,0.033
1776967299.813851,dr,39.7375482057,-84.1765604703,240.9809,-0.0232,0.0030,-0.0192,80.18,1.45,-5.74,0.0009,0.002500,0.036
1776967299.816406,dr,39.7375482057,-84.1765604710,240.9808,-0.0231,0.0031,-0.0192,80.19,1.46,-5.74,0.0009,0.002500,0.038
1776967299.818937,dr,39.7375482058,-84.1765604717,240.9808,-0.0230,0.0031,-0.0192,80.19,1.47,-5.73,0.0010,0.002500,0.041
1776967299.821331,dr,39.7375482059,-84.1765604724,240.9807,-0.0229,0.0031,-0.0192,80.19,1.48,-5.72,0.0011,0.002500,0.043
1776967299.823911,dr,39.7375482059,-84.1765604730,240.9807,-0.0227,0.0031,-0.0193,80.19,1.48,-5.71,0.0011,0.002500,0.046
1776967299.826329,dr,39.7375482060,-84.1765604737,240.9806,-0.0226,0.0031,-0.0193,80.18,1.48,-5.70,0.0012,0.002500,0.048
1776967299.828861,dr,39.7375482061,-84.1765604743,240.9806,-0.0225,0.0030,-0.0193,80.18,1.49,-5.69,0.0012,0.002500,0.051
1776967299.831334,dr,39.7375482061,-84.1765604750,240.9805,-0.0223,0.0029,-0.0193,80.19,1.49,-5.69,0.0013,0.002500,0.053
1776967299.833886,dr,39.7375482062,-84.1765604756,240.9805,-0.0222,0.0028,-0.0193,80.19,1.49,-5.68,0.0013,0.002500,0.056
1776967299.836372,dr,39.7375482063,-84.1765604763,240.9805,-0.0220,0.0027,-0.0193,80.19,1.49,-5.67,0.0014,0.002500,0.058
1776967299.839102,dr,39.7375482063,-84.1765604769,240.9804,-0.0219,0.0025,-0.0192,80.19,1.49,-5.66,0.0015,0.002500,0.061
1776967299.841370,dr,39.7375482064,-84.1765604776,240.9804,-0.0217,0.0024,-0.0192,80.19,1.48,-5.65,0.0015,0.002500,0.063
1776967299.843753,dr,39.7375482064,-84.1765604782,240.9803,-0.0216,0.0022,-0.0192,80.19,1.48,-5.63,0.0016,0.002500,0.066
1776967299.846303,dr,39.7375482065,-84.1765604788,240.9803,-0.0214,0.0020,-0.0192,80.18,1.47,-5.62,0.0016,0.002500,0.068
1776967299.848699,dr,39.7375482065,-84.1765604795,240.9802,-0.0212,0.0017,-0.0192,80.18,1.46,-5.61,0.0017,0.002500,0.071
1776967299.851325,dr,39.7375482066,-84.1765604801,240.9802,-0.0210,0.0015,-0.0192,80.19,1.45,-5.60,0.0017,0.002500,0.073
1776967299.853722,dr,39.7375482066,-84.1765604807,240.9801,-0.0208,0.0013,-0.0191,80.19,1.45,-5.59,0.0018,0.002500,0.076
1776967299.856167,dr,39.7375482066,-84.1765604813,240.9801,-0.0206,0.0011,-0.0191,80.19,1.44,-5.58,0.0018,0.002500,0.078
1776967299.858781,dr,39.7375482066,-84.1765604819,240.9800,-0.0204,0.0008,-0.0191,80.19,1.43,-5.56,0.0019,0.002500,0.081
1776967299.861164,dr,39.7375482066,-84.1765604825,240.9800,-0.0202,0.0006,-0.0191,80.19,1.42,-5.55,0.0019,0.002500,0.083
1776967299.863685,dr,39.7375482067,-84.1765604831,240.9799,-0.0200,0.0003,-0.0191,80.19,1.41,-5.54,0.0020,0.002500,0.086
1776967299.866154,dr,39.7375482067,-84.1765604836,240.9799,-0.0198,0.0001,-0.0190,80.19,1.40,-5.53,0.0020,0.002500,0.088
1776967299.868630,dr,39.7375482067,-84.1765604842,240.9798,-0.0196,-0.0001,-0.0190,80.19,1.40,-5.52,0.0021,0.002500,0.091
1776967299.871172,dr,39.7375482067,-84.1765604848,240.9798,-0.0194,-0.0004,-0.0190,80.19,1.39,-5.51,0.0021,0.002500,0.093
1776967299.873770,dr,39.7375482066,-84.1765604854,240.9797,-0.0192,-0.0007,-0.0190,80.19,1.38,-5.51,0.0022,0.002500,0.096
1776967299.876368,dr,39.7375482066,-84.1765604859,240.9797,-0.0189,-0.0009,-0.0190,80.19,1.36,-5.50,0.0022,0.002500,0.098
1776967299.878381,gps,39.7375482150,-84.1765604967,240.9808,-0.0317,0.0112,-0.0081,80.05,1.34,-5.49,0.0000,0.002500,0.001
1776967299.879796,dr,39.7375482152,-84.1765604976,240.9808,-0.0314,0.0110,-0.0081,80.19,1.35,-5.49,0.0001,0.002500,0.003
1776967299.881588,dr,39.7375482155,-84.1765604985,240.9808,-0.0312,0.0107,-0.0080,80.19,1.34,-5.48,0.0002,0.002500,0.004
1776967299.884300,dr,39.7375482157,-84.1765604994,240.9807,-0.0313,0.0103,-0.0080,144.89,1.32,-5.46,0.0002,0.002500,0.007
1776967299.886550,dr,39.7375482160,-84.1765605003,240.9807,-0.0311,0.0101,-0.0080,80.20,1.31,-5.46,0.0003,0.002500,0.009
1776967299.888772,dr,39.7375482162,-84.1765605012,240.9807,-0.0308,0.0098,-0.0080,80.20,1.29,-5.45,0.0004,0.002500,0.012
1776967299.891241,dr,39.7375482164,-84.1765605021,240.9807,-0.0306,0.0095,-0.0080,80.20,1.28,-5.44,0.0005,0.002500,0.014
1776967299.893549,dr,39.7375482166,-84.1765605030,240.9807,-0.0303,0.0093,-0.0079,80.19,1.26,-5.42,0.0006,0.002500,0.016
1776967299.896160,dr,39.7375482168,-84.1765605039,240.9806,-0.0301,0.0090,-0.0079,80.19,1.24,-5.40,0.0007,0.002500,0.019
1776967299.898653,dr,39.7375482170,-84.1765605048,240.9806,-0.0298,0.0088,-0.0079,80.19,1.23,-5.39,0.0007,0.002500,0.021
1776967299.901103,dr,39.7375482172,-84.1765605056,240.9806,-0.0296,0.0085,-0.0079,80.19,1.22,-5.37,0.0008,0.002500,0.024
1776967299.903642,dr,39.7375482174,-84.1765605065,240.9806,-0.0293,0.0083,-0.0078,80.19,1.22,-5.36,0.0009,0.002500,0.026
1776967299.906102,dr,39.7375482176,-84.1765605074,240.9806,-0.0291,0.0081,-0.0078,80.19,1.21,-5.34,0.0010,0.002500,0.029
1776967299.908525,dr,39.7375482178,-84.1765605082,240.9805,-0.0288,0.0079,-0.0078,80.20,1.19,-5.33,0.0010,0.002500,0.031
1776967299.911130,dr,39.7375482179,-84.1765605090,240.9805,-0.0285,0.0077,-0.0078,80.19,1.18,-5.31,0.0011,0.002500,0.034
1776967299.913592,dr,39.7375482181,-84.1765605099,240.9805,-0.0283,0.0074,-0.0078,80.20,1.17,-5.30,0.0012,0.002500,0.036
1776967299.916043,dr,39.7375482183,-84.1765605107,240.9805,-0.0280,0.0072,-0.0078,80.20,1.16,-5.29,0.0013,0.002500,0.039
1776967299.918526,dr,39.7375482184,-84.1765605115,240.9805,-0.0278,0.0070,-0.0077,80.20,1.15,-5.27,0.0013,0.002500,0.041
1776967299.921136,dr,39.7375482186,-84.1765605123,240.9804,-0.0275,0.0068,-0.0077,80.20,1.14,-5.25,0.0014,0.002500,0.044
1776967299.923634,dr,39.7375482187,-84.1765605131,240.9804,-0.0272,0.0066,-0.0077,80.20,1.12,-5.24,0.0015,0.002500,0.046
1776967299.925985,dr,39.7375482189,-84.1765605139,240.9804,-0.0269,0.0064,-0.0077,80.20,1.11,-5.22,0.0015,0.002500,0.049
1776967299.928513,dr,39.7375482190,-84.1765605147,240.9804,-0.0266,0.0062,-0.0077,80.20,1.09,-5.20,0.0016,0.002500,0.051
1776967299.931047,dr,39.7375482192,-84.1765605155,240.9804,-0.0264,0.0060,-0.0077,80.20,1.08,-5.18,0.0017,0.002500,0.054
1776967299.933565,dr,39.7375482193,-84.1765605162,240.9803,-0.0261,0.0058,-0.0077,80.21,1.07,-5.16,0.0017,0.002500,0.056
1776967299.936030,dr,39.7375482194,-84.1765605170,240.9803,-0.0258,0.0056,-0.0077,80.21,1.07,-5.14,0.0018,0.002500,0.059
1776967299.938522,dr,39.7375482196,-84.1765605177,240.9803,-0.0256,0.0054,-0.0076,80.21,1.06,-5.13,0.0019,0.002500,0.061
1776967299.940959,dr,39.7375482197,-84.1765605185,240.9803,-0.0253,0.0052,-0.0076,80.21,1.05,-5.11,0.0019,0.002500,0.064
1776967299.943570,dr,39.7375482198,-84.1765605192,240.9803,-0.0250,0.0050,-0.0076,80.20,1.04,-5.09,0.0020,0.002500,0.066
1776967299.945949,dr,39.7375482199,-84.1765605199,240.9803,-0.0247,0.0047,-0.0076,80.21,1.04,-5.06,0.0021,0.002500,0.069
1776967299.948393,dr,39.7375482200,-84.1765605207,240.9802,-0.0244,0.0045,-0.0076,80.21,1.03,-5.05,0.0021,0.002500,0.071
1776967299.951029,dr,39.7375482201,-84.1765605214,240.9802,-0.0242,0.0042,-0.0076,80.21,1.02,-5.03,0.0022,0.002500,0.074
1776967299.953521,dr,39.7375482202,-84.1765605221,240.9802,-0.0239,0.0039,-0.0076,80.21,1.01,-5.01,0.0022,0.002500,0.076
1776967299.955935,dr,39.7375482203,-84.1765605228,240.9802,-0.0236,0.0036,-0.0076,80.21,1.00,-5.00,0.0023,0.002500,0.079
1776967299.958399,dr,39.7375482203,-84.1765605234,240.9802,-0.0233,0.0032,-0.0076,80.21,0.98,-4.98,0.0024,0.002500,0.081
1776967299.961015,dr,39.7375482204,-84.1765605241,240.9801,-0.0230,0.0029,-0.0076,80.22,0.96,-4.96,0.0024,0.002500,0.084
1776967299.963464,dr,39.7375482205,-84.1765605248,240.9801,-0.0227,0.0025,-0.0076,80.22,0.94,-4.95,0.0025,0.002500,0.086
1776967299.965886,dr,39.7375482205,-84.1765605254,240.9801,-0.0224,0.0021,-0.0076,80.22,0.92,-4.93,0.0025,0.002500,0.089
1776967299.968352,dr,39.7375482206,-84.1765605261,240.9801,-0.0221,0.0016,-0.0077,80.22,0.90,-4.91,0.0026,0.002500,0.091
1776967299.970994,dr,39.7375482206,-84.1765605267,240.9801,-0.0218,0.0012,-0.0077,80.23,0.88,-4.89,0.0026,0.002500,0.094
1776967299.973437,dr,39.7375482206,-84.1765605274,240.9800,-0.0215,0.0007,-0.0077,80.23,0.85,-4.87,0.0027,0.002500,0.096
1776967299.976004,dr,39.7375482206,-84.1765605280,240.9800,-0.0212,0.0003,-0.0077,80.23,0.83,-4.86,0.0028,0.002500,0.099
1776967299.978227,gps,39.7375482333,-84.1765605067,240.9712,-0.0086,0.0204,-0.0961,80.10,0.79,-4.84,0.0000,0.002500,0.001
1776967299.979586,dr,39.7375482338,-84.1765605069,240.9710,-0.0083,0.0199,-0.0962,80.24,0.80,-4.84,0.0001,0.002500,0.003
1776967299.981741,dr,39.7375482342,-84.1765605072,240.9707,-0.0080,0.0194,-0.0962,80.24,0.77,-4.82,0.0001,0.002500,0.005
1776967299.983593,dr,39.7375482347,-84.1765605074,240.9705,-0.0077,0.0189,-0.0962,80.25,0.74,-4.81,0.0002,0.002500,0.006
1776967299.986218,dr,39.7375482351,-84.1765605076,240.9702,-0.0080,0.0184,-0.0962,144.82,0.71,-4.79,0.0002,0.002500,0.009
1776967299.988527,dr,39.7375482355,-84.1765605078,240.9700,-0.0077,0.0179,-0.0962,80.26,0.69,-4.79,0.0003,0.002500,0.012
1776967299.991039,dr,39.7375482359,-84.1765605081,240.9698,-0.0074,0.0174,-0.0963,80.26,0.66,-4.77,0.0003,0.002500,0.014
1776967299.993336,dr,39.7375482363,-84.1765605083,240.9695,-0.0072,0.0168,-0.0963,80.26,0.63,-4.76,0.0004,0.002500,0.016
1776967299.995799,dr,39.7375482366,-84.1765605085,240.9693,-0.0069,0.0163,-0.0963,80.27,0.60,-4.74,0.0004,0.002500,0.019
1776967299.998275,dr,39.7375482370,-84.1765605087,240.9690,-0.0066,0.0158,-0.0963,80.27,0.57,-4.73,0.0004,0.002500,0.021
1776967300.000839,dr,39.7375482373,-84.1765605089,240.9688,-0.0063,0.0153,-0.0963,80.28,0.54,-4.72,0.0005,0.002500,0.024
1776967300.003292,dr,39.7375482377,-84.1765605090,240.9686,-0.0060,0.0148,-0.0963,80.28,0.51,-4.71,0.0005,0.002500,0.026
1776967300.005828,dr,39.7375482380,-84.1765605092,240.9683,-0.0058,0.0143,-0.0963,80.28,0.47,-4.70,0.0006,0.002500,0.029
1776967300.008322,dr,39.7375482383,-84.1765605094,240.9681,-0.0055,0.0138,-0.0963,80.29,0.44,-4.68,0.0006,0.002500,0.031
1776967300.010800,dr,39.7375482386,-84.1765605095,240.9678,-0.0053,0.0133,-0.0964,80.29,0.41,-4.67,0.0006,0.002500,0.034
1776967300.013277,dr,39.7375482389,-84.1765605097,240.9676,-0.0050,0.0128,-0.0964,80.29,0.38,-4.66,0.0007,0.002500,0.036
1776967300.015738,dr,39.7375482392,-84.1765605098,240.9673,-0.0048,0.0123,-0.0964,80.30,0.35,-4.65,0.0007,0.002500,0.039
1776967300.018310,dr,39.7375482395,-84.1765605100,240.9671,-0.0045,0.0118,-0.0964,80.30,0.32,-4.63,0.0007,0.002500,0.041
1776967300.020794,dr,39.7375482397,-84.1765605101,240.9669,-0.0042,0.0113,-0.0964,80.30,0.29,-4.61,0.0008,0.002500,0.044
1776967300.023292,dr,39.7375482400,-84.1765605102,240.9666,-0.0040,0.0109,-0.0964,80.31,0.26,-4.60,0.0008,0.002500,0.046
1776967300.025696,dr,39.7375482402,-84.1765605103,240.9664,-0.0037,0.0105,-0.0964,80.31,0.23,-4.59,0.0008,0.002500,0.049
1776967300.028270,dr,39.7375482405,-84.1765605104,240.9661,-0.0035,0.0100,-0.0964,80.31,0.20,-4.57,0.0009,0.002500,0.051
1776967300.030754,dr,39.7375482407,-84.1765605105,240.9659,-0.0033,0.0096,-0.0964,80.31,0.18,-4.56,0.0009,0.002500,0.054
1776967300.033254,dr,39.7375482409,-84.1765605106,240.9657,-0.0031,0.0093,-0.0964,80.31,0.15,-4.55,0.0009,0.002500,0.056
1776967300.035703,dr,39.7375482411,-84.1765605107,240.9654,-0.0030,0.0089,-0.0964,80.32,0.13,-4.54,0.0009,0.002500,0.059
1776967300.038288,dr,39.7375482413,-84.1765605108,240.9652,-0.0028,0.0086,-0.0963,80.32,0.10,-4.53,0.0010,0.002500,0.061
1776967300.040953,dr,39.7375482415,-84.1765605109,240.9649,-0.0026,0.0083,-0.0963,80.32,0.08,-4.52,0.0010,0.002500,0.064
1776967300.043296,dr,39.7375482417,-84.1765605110,240.9647,-0.0025,0.0080,-0.0963,80.32,0.06,-4.51,0.0010,0.002500,0.066
1776967300.045842,dr,39.7375482418,-84.1765605110,240.9645,-0.0023,0.0078,-0.0963,80.32,0.04,-4.50,0.0010,0.002500,0.069
1776967300.048350,dr,39.7375482420,-84.1765605111,240.9642,-0.0022,0.0076,-0.0962,80.32,0.02,-4.50,0.0010,0.002500,0.071
1776967300.050720,dr,39.7375482422,-84.1765605112,240.9640,-0.0021,0.0074,-0.0962,80.32,0.01,-4.49,0.0011,0.002500,0.074
1776967300.053231,dr,39.7375482424,-84.1765605112,240.9637,-0.0020,0.0073,-0.0962,80.32,-0.00,-4.48,0.0011,0.002500,0.076
1776967300.055720,dr,39.7375482425,-84.1765605113,240.9635,-0.0019,0.0072,-0.0961,80.32,-0.01,-4.48,0.0011,0.002500,0.079
1776967300.058182,dr,39.7375482427,-84.1765605113,240.9633,-0.0018,0.0071,-0.0961,80.31,-0.03,-4.47,0.0011,0.002500,0.081
1776967300.060640,dr,39.7375482428,-84.1765605114,240.9630,-0.0017,0.0070,-0.0960,80.31,-0.03,-4.47,0.0011,0.002500,0.084
1776967300.063110,dr,39.7375482430,-84.1765605114,240.9628,-0.0016,0.0070,-0.0960,80.31,-0.04,-4.46,0.0011,0.002500,0.086
1776967300.065637,dr,39.7375482431,-84.1765605115,240.9625,-0.0015,0.0069,-0.0959,80.31,-0.05,-4.46,0.0012,0.002500,0.089
1776967300.068099,dr,39.7375482433,-84.1765605115,240.9623,-0.0015,0.0069,-0.0959,80.31,-0.05,-4.45,0.0012,0.002500,0.091
1776967300.070617,dr,39.7375482435,-84.1765605116,240.9621,-0.0015,0.0069,-0.0958,80.30,-0.05,-4.46,0.0012,0.002500,0.094
1776967300.073229,dr,39.7375482436,-84.1765605116,240.9618,-0.0015,0.0069,-0.0958,80.30,-0.06,-4.46,0.0012,0.002500,0.096
1776967300.075865,dr,39.7375482438,-84.1765605116,240.9616,-0.0014,0.0069,-0.0957,80.30,-0.06,-4.46,0.0012,0.002500,0.099
