wall_time,gps_utc,gps_utc_type,msg_type,lat,lon,alt,fix_quality,num_sats,hdop,lat_err_m,lon_err_m,alt_err_m,heading_deg,speed_knots,speed_kmh,course_true_deg,rmc_status,raw_nmea,nearest_imu_wall_time,nearest_imu_timestamp_us,nearest_imu_dt_ms
1777575711.733705,68457.200000,tod,GGA,39.7375786033,-84.1764192533,240.6867,4,11,1.00,,,,,,,,,"$GPGGA,190057.20,3944.2547162,N,08410.5851552,W,4,11,1.0,240.6867,M,-33.3702,M,1.2,1271*75",1777575711.733357,666575000,0.348
1777575711.738163,,,HDT,,,,,,,,,,93.1050,,,,,"$GPHDT,93.105,T*0B",1777575711.736346,666590000,1.817
1777575711.760021,68457.200000,tod,GST,,,,,,,0.0080,0.0070,0.0260,,,,,,"$GPGST,190057.20,0.157,0.009,0.007,331.329,0.008,0.007,0.026*50",1777575711.758793,666655000,1.228
1777575711.775596,68457.300000,tod,GGA,39.7375786050,-84.1764192600,240.6884,4,11,1.00,,,,,,,,,"$GPGGA,190057.30,3944.2547163,N,08410.5851556,W,4,11,1.0,240.6884,M,-33.3702,M,1.3,1271*7D",1777575711.773612,666712500,1.984
1777575711.776887,,,HDT,,,,,,,,,,93.3890,,,,,"$GPHDT,93.389,T*0D",1777575711.776154,666715000,0.733
1777575711.779809,68457.300000,tod,GST,,,,,,,0.0080,0.0070,0.0260,,,,,,"$GPGST,190057.30,0.157,0.009,0.006,331.464,0.008,0.007,0.026*5E",1777575711.778653,666717500,1.155
1777575711.783294,68457.400000,tod,GGA,39.7375786200,-84.1764192533,240.6861,4,11,1.00,,,,,,,,,"$GPGGA,190057.40,3944.2547172,N,08410.5851552,W,4,11,1.0,240.6861,M,-33.3702,M,1.4,1271*72",1777575711.781340,666720000,1.954
1777575711.784467,,,HDT,,,,,,,,,,94.1790,,,,,"$GPHDT,94.179,T*07",1777575711.783748,666722500,0.719
1777575711.786581,68457.400000,tod,GST,,,,,,,0.0080,0.0070,0.0260,,,,,,"$GPGST,190057.40,0.157,0.009,0.006,331.399,0.008,0.007,0.026*5C",1777575711.786058,666725000,0.523
1777575711.789277,68457.500000,tod,GGA,39.7375786200,-84.1764192517,240.6857,4,11,1.00,,,,,,,,,"$GPGGA,190057.50,3944.2547172,N,08410.5851551,W,4,11,1.0,240.6857,M,-33.3702,M,1.5,1271*74",1777575711.788592,666727500,0.685
1777575711.789852,,,HDT,,,,,,,,,,94.3090,,,,,"$GPHDT,94.309,T*02",1777575711.788592,666727500,1.260
1777575711.792242,68457.500000,tod,GST,,,,,,,0.0080,0.0070,0.0260,,,,,,"$GPGST,190057.50,0.157,0.009,0.006,331.055,0.008,0.007,0.026*5E",1777575711.790968,666730000,1.273
1777575711.795062,68457.600000,tod,GGA,39.7375786200,-84.1764192500,240.6827,4,11,1.00,,,,,,,,,"$GPGGA,190057.60,3944.2547172,N,08410.5851550,W,4,11,1.0,240.6827,M,-33.3702,M,0.6,1271*73",1777575711.793529,666732500,1.533
1777575711.796846,,,HDT,,,,,,,,,,94.3370,,,,,"$GPHDT,94.337,T*0F",1777575711.796134,666735000,0.713
1777575711.799103,68457.600000,tod,GST,,,,,,,0.0080,0.0070,0.0260,,,,,,"$GPGST,190057.60,0.069,0.009,0.006,330.876,0.008,0.007,0.026*59",1777575711.798462,666737500,0.641
1777575711.802334,68457.700000,tod,GGA,39.7375786083,-84.1764192583,240.6861,4,11,1.00,,,,,,,,,"$GPGGA,190057.70,3944.2547165,N,08410.5851555,W,4,11,1.0,240.6861,M,-33.3702,M,0.7,1271*72",1777575711.800963,666740000,1.371
1777575711.802715,,,HDT,,,,,,,,,,94.3670,,,,,"$GPHDT,94.367,T*0A",1777575711.800963,666740000,1.751
1777575711.805028,68457.700000,tod,GST,,,,,,,0.0080,0.0070,0.0260,,,,,,"$GPGST,190057.70,0.069,0.009,0.006,331.425,0.008,0.007,0.026*53",1777575711.803495,666742500,1.534
1777575711.807856,68457.800000,tod,GGA,39.7375785983,-84.1764192500,240.6898,4,11,1.00,,,,,,,,,"$GPGGA,190057.80,3944.2547159,N,08410.5851550,W,4,11,1.0,240.6898,M,-33.3702,M,0.8,1271*7E",1777575711.805991,666745000,1.865
1777575711.809001,,,HDT,,,,,,,,,,94.1850,,,,,"$GPHDT,94.185,T*04",1777575711.808377,666747500,0.624
1777575711.810594,68457.800000,tod,GST,,,,,,,0.0080,0.0070,0.0260,,,,,,"$GPGST,190057.80,0.069,0.009,0.006,331.457,0.008,0.007,0.026*59",1777575711.808377,666747500,2.217
1777575711.813482,68457.900000,tod,GGA,39.7375785883,-84.1764192400,240.6864,4,11,1.00,,,,,,,,,"$GPGGA,190057.90,3944.2547153,N,08410.5851544,W,4,11,1.0,240.6864,M,-33.3702,M,0.9,1271*72",1777575711.810989,666750000,2.492
1777575711.815039,,,HDT,,,,,,,,,,93.6670,,,,,"$GPHDT,93.667,T*08",1777575711.813529,666752500,1.510
1777575711.817690,68457.900000,tod,GST,,,,,,,0.0080,0.0070,0.0260,,,,,,"$GPGST,190057.90,0.069,0.009,0.006,331.171,0.008,0.007,0.026*59",1777575711.816061,666755000,1.630
1777575711.821415,68511.300000,tod,GGA,39.7375786750,-84.1764192433,240.6823,4,13,1.00,,,,,,,,,"$GPGGA,190151.30,3944.2547205,N,08410.5851546,W,4,13,1.0,240.6823,M,-33.3702,M,1.3,1271*77",1777575711.820975,666760000,0.440
1777575711.822577,,,HDT,,,,,,,,,,93.6380,,,,,"$GPHDT,93.638,T*02",1777575711.820975,666760000,1.603
1777575711.824792,68511.300000,tod,GST,,,,,,,0.0080,0.0070,0.0230,,,,,,"$GPGST,190151.30,0.244,0.008,0.006,326.888,0.008,0.007,0.023*54",1777575711.823431,666762500,1.361
1777575711.827590,68511.400000,tod,GGA,39.7375786667,-84.1764192317,240.6802,4,13,1.00,,,,,,,,,"$GPGGA,190151.40,3944.2547200,N,08410.5851539,W,4,13,1.0,240.6802,M,-33.3702,M,1.4,1271*79",1777575711.825973,666765000,1.617
1777575711.828254,,,HDT,,,,,,,,,,93.5660,,,,,"$GPHDT,93.566,T*0A",1777575711.825973,666765000,2.282
1777575711.830490,68511.400000,tod,GST,,,,,,,0.0080,0.0070,0.0230,,,,,,"$GPGST,190151.40,0.244,0.008,0.006,326.471,0.008,0.007,0.023*59",1777575711.828397,666767500,2.094
1777575711.834026,68511.500000,tod,GGA,39.7375786667,-84.1764192317,240.6785,4,13,1.00,,,,,,,,,"$GPGGA,190151.50,3944.2547200,N,08410.5851539,W,4,13,1.0,240.6785,M,-33.3702,M,1.5,1271*79",1777575711.833440,666772500,0.586
1777575711.834660,,,HDT,,,,,,,,,,93.5750,,,,,"$GPHDT,93.575,T*08",1777575711.833440,666772500,1.220
1777575711.836700,68511.500000,tod,GST,,,,,,,0.0080,0.0070,0.0230,,,,,,"$GPGST,190151.50,0.244,0.008,0.006,326.723,0.008,0.007,0.023*5C",1777575711.835866,666775000,0.833
1777575711.839342,68511.600000,tod,GGA,39.7375786667,-84.1764192233,240.6815,4,13,1.00,,,,,,,,,"$GPGGA,190151.60,3944.2547200,N,08410.5851534,W,4,13,1.0,240.6815,M,-33.3702,M,0.6,1271*73",1777575711.838400,666777500,0.942
1777575711.840296,,,HDT,,,,,,,,,,93.5890,,,,,"$GPHDT,93.589,T*0B",1777575711.838400,666777500,1.896
1777575711.842868,68511.600000,tod,GST,,,,,,,0.0080,0.0070,0.0220,,,,,,"$GPGST,190151.60,0.174,0.008,0.006,326.787,0.008,0.007,0.022*50",1777575711.840984,666780000,1.884
1777575711.924479,68511.700000,tod,GGA,39.7375786583,-84.1764192250,240.6838,4,13,1.00,,,,,,,,,"$GPGGA,190151.70,3944.2547195,N,08410.5851535,W,4,13,1.0,240.6838,M,-33.3702,M,0.7,1271*72",1777575711.923156,666862500,1.323
1777575711.925971,,,HDT,,,,,,,,,,93.7110,,,,,"$GPHDT,93.711,T*08",1777575711.925600,666865000,0.372
1777575711.927973,68511.700000,tod,GST,,,,,,,0.0080,0.0070,0.0220,,,,,,"$GPGST,190151.70,0.174,0.008,0.006,326.539,0.008,0.007,0.022*56",1777575711.925600,666865000,2.373
1777575712.024940,68511.800000,tod,GGA,39.7375786567,-84.1764192267,240.6856,4,13,1.00,,,,,,,,,"$GPGGA,190151.80,3944.2547194,N,08410.5851536,W,4,13,1.0,240.6856,M,-33.3702,M,0.8,1271*78",1777575712.023113,666962500,1.827
1777575712.026437,,,HDT,,,,,,,,,,93.8430,,,,,"$GPHDT,93.843,T*00",1777575712.025630,666965000,0.807
1777575712.029546,68511.800000,tod,GST,,,,,,,0.0080,0.0070,0.0220,,,,,,"$GPGST,190151.80,0.174,0.008,0.006,326.552,0.008,0.007,0.022*54",1777575712.027988,666967500,1.559
1777575712.124224,68511.900000,tod,GGA,39.7375786500,-84.1764192283,240.6873,4,13,1.00,,,,,,,,,"$GPGGA,190151.90,3944.2547190,N,08410.5851537,W,4,13,1.0,240.6873,M,-33.3702,M,0.9,1271*7A",1777575712.123085,667062500,1.139
1777575712.125688,,,HDT,,,,,,,,,,93.5450,,,,,"$GPHDT,93.545,T*0B",1777575712.125337,667065000,0.351
1777575712.127515,68511.900000,tod,GST,,,,,,,0.0080,0.0070,0.0220,,,,,,"$GPGST,190151.90,0.174,0.008,0.006,326.446,0.008,0.007,0.022*51",1777575712.125337,667065000,2.177
1777575712.223834,68512.000000,tod,GGA,39.7375786467,-84.1764192317,240.6906,4,13,1.00,,,,,,,,,"$GPGGA,190152.00,3944.2547188,N,08410.5851539,W,4,13,1.0,240.6906,M,-33.3702,M,1.0,1271*7C",1777575712.222478,667162500,1.355
1777575712.224222,,,HDT,,,,,,,,,,93.5130,,,,,"$GPHDT,93.513,T*08",1777575712.222478,667162500,1.744
1777575712.226624,68512.000000,tod,GST,,,,,,,0.0080,0.0070,0.0220,,,,,,"$GPGST,190152.00,0.174,0.008,0.006,326.001,0.008,0.007,0.022*5C",1777575712.225229,667165000,1.395
1777575712.325915,68512.100000,tod,GGA,39.7375786550,-84.1764192217,240.6889,4,13,1.00,,,,,,,,,"$GPGGA,190152.10,3944.2547193,N,08410.5851533,W,4,13,1.0,240.6889,M,-33.3702,M,1.1,1271*7A",1777575712.324828,667265000,1.087
1777575712.327113,,,HDT,,,,,,,,,,93.7570,,,,,"$GPHDT,93.757,T*0A",1777575712.326785,667267500,0.329
1777575712.329478,68512.100000,tod,GST,,,,,,,0.0080,0.0070,0.0220,,,,,,"$GPGST,190152.10,0.203,0.008,0.006,325.873,0.008,0.007,0.022*50",1777575712.327278,667267500,2.201
1777575712.425014,68512.200000,tod,GGA,39.7375786450,-84.1764192133,240.6881,4,13,1.00,,,,,,,,,"$GPGGA,190152.20,3944.2547187,N,08410.5851528,W,4,13,1.0,240.6881,M,-33.3702,M,1.2,1271*7D",1777575712.424699,667365000,0.316
1777575712.425867,,,HDT,,,,,,,,,,93.6360,,,,,"$GPHDT,93.636,T*0C",1777575712.424699,667365000,1.168
1777575712.428204,68512.200000,tod,GST,,,,,,,0.0080,0.0070,0.0220,,,,,,"$GPGST,190152.20,0.203,0.008,0.006,326.193,0.008,0.007,0.022*57",1777575712.427590,667367500,0.614
1777575712.445275,,,PARSE_ERR,,,,,,,,,,,,,,,$TD,1777575712.444551,667385000,0.723
1777575712.704868,68512.300000,tod,GGA,39.7375786467,-84.1764192317,240.6909,4,13,1.00,,,,,,,,,"$GPGGA,190152.30,3944.2547188,N,08410.5851539,W,4,13,1.0,240.6909,M,-33.3702,M,1.3,1271*73",1777575712.703725,667645000,1.143
1777575712.705551,,,HDT,,,,,,,,,,93.6220,,,,,"$GPHDT,93.622,T*09",1777575712.703725,667645000,1.826
1777575712.707799,68512.300000,tod,GST,,,,,,,0.0080,0.0070,0.0220,,,,,,"$GPGST,190152.30,0.203,0.008,0.006,326.293,0.008,0.007,0.022*55",1777575712.706359,667647500,1.441
1777575712.710611,68512.400000,tod,GGA,39.7375786467,-84.1764192167,240.6871,4,13,1.00,,,,,,,,,"$GPGGA,190152.40,3944.2547188,N,08410.5851530,W,4,13,1.0,240.6871,M,-33.3702,M,1.4,1271*74",1777575712.708804,667650000,1.806
1777575712.712426,,,HDT,,,,,,,,,,93.8590,,,,,"$GPHDT,93.859,T*0B",1777575712.711336,667652500,1.090
1777575712.714890,68512.400000,tod,GST,,,,,,,0.0080,0.0070,0.0220,,,,,,"$GPGST,190152.40,0.203,0.008,0.006,326.624,0.008,0.007,0.022*5A",1777575712.713724,667655000,1.166
1777575712.723262,68512.500000,tod,GGA,39.7375786567,-84.1764192133,240.6834,4,13,1.00,,,,,,,,,"$GPGGA,190152.50,3944.2547194,N,08410.5851528,W,4,13,1.0,240.6834,M,-33.3702,M,1.5,1271*71",1777575712.721438,667662500,1.824
1777575712.724676,,,HDT,,,,,,,,,,93.6910,,,,,"$GPHDT,93.691,T*01",1777575712.723931,667665000,0.745
1777575712.726932,68512.500000,tod,GST,,,,,,,0.0080,0.0070,0.0220,,,,,,"$GPGST,190152.50,0.203,0.008,0.006,326.660,0.008,0.007,0.022*5B",1777575712.726176,667667500,0.756
1777575712.824856,68512.600000,tod,GGA,39.7375786467,-84.1764192083,240.6858,4,13,1.00,,,,,,,,,"$GPGGA,190152.60,3944.2547188,N,08410.5851525,W,4,13,1.0,240.6858,M,-33.3702,M,0.6,1271*7A",1777575712.823493,667765000,1.363
1777575712.825544,,,HDT,,,,,,,,,,93.5580,,,,,"$GPHDT,93.558,T*07",1777575712.823493,667765000,2.051
1777575712.827816,68512.600000,tod,GST,,,,,,,0.0080,0.0070,0.0220,,,,,,"$GPGST,190152.60,0.350,0.008,0.006,326.472,0.008,0.007,0.022*5E",1777575712.826164,667767500,1.652
1777575712.924041,68512.700000,tod,GGA,39.7375786417,-84.1764192217,240.6921,4,13,1.00,,,,,,,,,"$GPGGA,190152.70,3944.2547185,N,08410.5851533,W,4,13,1.0,240.6921,M,-33.3702,M,0.7,1271*7F",1777575712.923141,667865000,0.899
1777575712.924679,,,HDT,,,,,,,,,,93.4730,,,,,"$GPHDT,93.473,T*0F",1777575712.923141,667865000,1.537
1777575712.926939,68512.700000,tod,GST,,,,,,,0.0080,0.0070,0.0220,,,,,,"$GPGST,190152.70,0.350,0.008,0.006,326.292,0.008,0.007,0.022*57",1777575712.925727,667867500,1.212
1777575713.023854,68512.800000,tod,GGA,39.7375786467,-84.1764192267,240.6928,4,13,1.00,,,,,,,,,"$GPGGA,190152.80,3944.2547188,N,08410.5851536,W,4,13,1.0,240.6928,M,-33.3702,M,0.8,1271*7E",1777575713.022795,667965000,1.060
1777575713.024637,,,HDT,,,,,,,,,,93.5540,,,,,"$GPHDT,93.554,T*0B",1777575713.022795,667965000,1.842
1777575713.026873,68512.800000,tod,GST,,,,,,,0.0080,0.0070,0.0220,,,,,,"$GPGST,190152.80,0.350,0.008,0.006,326.004,0.008,0.007,0.022*55",1777575713.025387,667967500,1.487
1777575713.123536,68512.900000,tod,GGA,39.7375786600,-84.1764192350,240.6932,4,13,1.00,,,,,,,,,"$GPGGA,190152.90,3944.2547196,N,08410.5851541,W,4,13,1.0,240.6932,M,-33.3702,M,0.9,1271*7A",1777575713.122638,668065000,0.897
1777575713.124317,,,HDT,,,,,,,,,,93.9570,,,,,"$GPHDT,93.957,T*04",1777575713.122638,668065000,1.679
1777575713.126800,68512.900000,tod,GST,,,,,,,0.0080,0.0070,0.0220,,,,,,"$GPGST,190152.90,0.350,0.008,0.006,325.946,0.008,0.007,0.022*58",1777575713.125106,668067500,1.694
1777575713.224023,68513.000000,tod,GGA,39.7375786550,-84.1764192417,240.6962,4,13,1.00,,,,,,,,,"$GPGGA,190153.00,3944.2547193,N,08410.5851545,W,4,13,1.0,240.6962,M,-33.3702,M,1.0,1271*7E",1777575713.222330,668165000,1.693
1777575713.224838,,,HDT,,,,,,,,,,93.9510,,,,,"$GPHDT,93.951,T*02",1777575713.222330,668165000,2.509
1777575713.226999,68513.000000,tod,GST,,,,,,,0.0080,0.0070,0.0220,,,,,,"$GPGST,190153.00,0.350,0.008,0.006,326.090,0.008,0.007,0.022*51",1777575713.225082,668167500,1.917
1777575713.289039,,,PARSE_ERR,,,,,,,,,,,,,,,$TD,1777575713.287065,668230000,1.974
1777575713.512990,68513.100000,tod,GGA,39.7375786583,-84.1764192300,240.6940,4,13,1.00,,,,,,,,,"$GPGGA,190153.10,3944.2547195,N,08410.5851538,W,4,13,1.0,240.6940,M,-33.3702,M,1.1,1271*72",1777575713.511531,668455000,1.458
1777575713.513643,,,HDT,,,,,,,,,,93.8980,,,,,"$GPHDT,93.898,T*06",1777575713.511531,668455000,2.112
1777575713.515909,68513.100000,tod,GST,,,,,,,0.0080,0.0070,0.0220,,,,,,"$GPGST,190153.10,0.305,0.008,0.006,325.930,0.008,0.007,0.022*50",1777575713.514255,668457500,1.654
1777575713.520054,68513.200000,tod,GGA,39.7375786617,-84.1764192300,240.6934,4,13,1.00,,,,,,,,,"$GPGGA,190153.20,3944.2547197,N,08410.5851538,W,4,13,1.0,240.6934,M,-33.3702,M,1.2,1271*73",1777575713.519050,668462500,1.004
1777575713.520429,,,HDT,,,,,,,,,,93.9900,,,,,"$GPHDT,93.990,T*0F",1777575713.519050,668462500,1.379
1777575713.522879,68513.200000,tod,GST,,,,,,,0.0080,0.0070,0.0220,,,,,,"$GPGST,190153.20,0.305,0.008,0.006,326.001,0.008,0.007,0.022*5B",1777575713.521564,668465000,1.315
1777575713.525918,68513.300000,tod,GGA,39.7375786583,-84.1764192150,240.6925,4,13,1.00,,,,,,,,,"$GPGGA,190153.30,3944.2547195,N,08410.5851529,W,4,13,1.0,240.6925,M,-33.3702,M,1.3,1271*71",1777575713.524481,668467500,1.437
1777575713.527144,,,HDT,,,,,,,,,,93.8480,,,,,"$GPHDT,93.848,T*0B",1777575713.526885,668470000,0.260
1777575713.528994,68513.300000,tod,GST,,,,,,,0.0080,0.0070,0.0220,,,,,,"$GPGST,190153.30,0.305,0.008,0.006,326.399,0.008,0.007,0.022*58",1777575713.526885,668470000,2.109
1777575713.623353,68513.400000,tod,GGA,39.7375786583,-84.1764192283,240.6961,4,13,1.00,,,,,,,,,"$GPGGA,190153.40,3944.2547195,N,08410.5851537,W,4,13,1.0,240.6961,M,-33.3702,M,1.4,1271*7E",1777575713.621433,668565000,1.920
1777575713.625084,,,HDT,,,,,,,,,,94.2240,,,,,"$GPHDT,94.224,T*0C",1777575713.624046,668567500,1.039
1777575713.627470,68513.400000,tod,GST,,,,,,,0.0080,0.0070,0.0220,,,,,,"$GPGST,190153.40,0.305,0.008,0.006,326.467,0.008,0.007,0.022*59",1777575713.627017,668570000,0.452
1777575713.723039,68513.500000,tod,GGA,39.7375786583,-84.1764192217,240.6954,4,13,1.00,,,,,,,,,"$GPGGA,190153.50,3944.2547195,N,08410.5851533,W,4,13,1.0,240.6954,M,-33.3702,M,1.5,1271*7C",1777575713.721104,668665000,1.934
1777575713.724617,,,HDT,,,,,,,,,,94.2740,,,,,"$GPHDT,94.274,T*09",1777575713.723596,668667500,1.020
1777575713.726956,68513.500000,tod,GST,,,,,,,0.0080,0.0070,0.0220,,,,,,"$GPGST,190153.50,0.305,0.008,0.006,326.433,0.008,0.007,0.022*59",1777575713.726405,668670000,0.551
1777575713.827038,68513.600000,tod,GGA,39.7375786550,-84.1764191983,240.6956,4,13,1.00,,,,,,,,,"$GPGGA,190153.60,3944.2547193,N,08410.5851519,W,4,13,1.0,240.6956,M,-33.3702,M,0.6,1271*71",1777575713.825791,668770000,1.247
1777575713.827813,,,HDT,,,,,,,,,,94.1400,,,,,"$GPHDT,94.140,T*0D",1777575713.825791,668770000,2.023
1777575713.831135,68513.600000,tod,GST,,,,,,,0.0080,0.0070,0.0220,,,,,,"$GPGST,190153.60,0.187,0.008,0.006,326.286,0.008,0.007,0.022*5A",1777575713.830924,668775000,0.211
1777575713.924795,68513.700000,tod,GGA,39.7375786617,-84.1764192017,240.6928,4,13,1.00,,,,,,,,,"$GPGGA,190153.70,3944.2547197,N,08410.5851521,W,4,13,1.0,240.6928,M,-33.3702,M,0.7,1271*77",1777575713.923131,668867500,1.663
1777575713.925628,,,HDT,,,,,,,,,,94.4320,,,,,"$GPHDT,94.432,T*0D",1777575713.923131,668867500,2.496
1777575713.928753,68513.700000,tod,GST,,,,,,,0.0080,0.0070,0.0220,,,,,,"$GPGST,190153.70,0.187,0.008,0.006,326.693,0.008,0.007,0.022*5B",1777575713.928063,668872500,0.690
1777575714.024163,68513.800000,tod,GGA,39.7375786617,-84.1764191917,240.6908,4,13,1.00,,,,,,,,,"$GPGGA,190153.80,3944.2547197,N,08410.5851515,W,4,13,1.0,240.6908,M,-33.3702,M,0.8,1271*72",1777575714.022849,668967500,1.314
1777575714.024553,,,HDT,,,,,,,,,,94.3410,,,,,"$GPHDT,94.341,T*0E",1777575714.022849,668967500,1.704
1777575714.027135,68513.800000,tod,GST,,,,,,,0.0080,0.0070,0.0220,,,,,,"$GPGST,190153.80,0.187,0.008,0.006,327.106,0.008,0.007,0.022*5E",1777575714.025379,668970000,1.757
1777575714.123626,68513.900000,tod,GGA,39.7375786567,-84.1764192000,240.6920,4,13,1.00,,,,,,,,,"$GPGGA,190153.90,3944.2547194,N,08410.5851520,W,4,13,1.0,240.6920,M,-33.3702,M,0.9,1271*7D",1777575714.122704,669067500,0.922
1777575714.124297,,,HDT,,,,,,,,,,94.0920,,,,,"$GPHDT,94.092,T*03",1777575714.122704,669067500,1.593
1777575714.126430,68513.900000,tod,GST,,,,,,,0.0080,0.0070,0.0220,,,,,,"$GPGST,190153.90,0.187,0.008,0.006,327.227,0.008,0.007,0.022*5F",1777575714.125776,669070000,0.654
1777575714.223882,68514.000000,tod,GGA,39.7375786600,-84.1764191867,240.6901,4,13,1.00,,,,,,,,,"$GPGGA,190154.00,3944.2547196,N,08410.5851512,W,4,13,1.0,240.6901,M,-33.3702,M,1.0,1271*7B",1777575714.222402,669167500,1.480
1777575714.224265,,,HDT,,,,,,,,,,94.2440,,,,,"$GPHDT,94.244,T*0A",1777575714.222402,669167500,1.863
1777575714.226853,68514.000000,tod,GST,,,,,,,0.0080,0.0070,0.0220,,,,,,"$GPGST,190154.00,0.187,0.008,0.006,326.940,0.008,0.007,0.022*5A",1777575714.225796,669170000,1.057
1777575714.293066,,,PARSE_ERR,,,,,,,,,,,,,,,$TD,1777575714.292788,669237500,0.278
1777575714.512375,68514.100000,tod,GGA,39.7375786583,-84.1764191967,240.6900,4,13,1.00,,,,,,,,,"$GPGGA,190154.10,3944.2547195,N,08410.5851518,W,4,13,1.0,240.6900,M,-33.3702,M,1.1,1271*73",1777575714.511611,669457500,0.764
1777575714.512759,,,HDT,,,,,,,,,,94.0080,,,,,"$GPHDT,94.008,T*00",1777575714.511611,669457500,1.148
1777575714.515384,68514.100000,tod,GST,,,,,,,0.0080,0.0070,0.0220,,,,,,"$GPGST,190154.10,0.185,0.008,0.006,326.844,0.008,0.007,0.022*5C",1777575714.514171,669460000,1.213
1777575714.518298,68514.200000,tod,GGA,39.7375786583,-84.1764191850,240.6866,4,13,1.00,,,,,,,,,"$GPGGA,190154.20,3944.2547195,N,08410.5851511,W,4,13,1.0,240.6866,M,-33.3702,M,1.2,1271*7B",1777575714.516533,669462500,1.765
1777575714.519741,,,HDT,,,,,,,,,,93.9660,,,,,"$GPHDT,93.966,T*06",1777575714.519277,669465000,0.464
1777575714.521196,68514.200000,tod,GST,,,,,,,0.0080,0.0070,0.0220,,,,,,"$GPGST,190154.20,0.185,0.008,0.006,327.367,0.008,0.007,0.022*54",1777575714.519277,669465000,1.919
1777575714.525256,68514.300000,tod,GGA,39.7375786633,-84.1764192017,240.6899,4,13,1.00,,,,,,,,,"$GPGGA,190154.30,3944.2547198,N,08410.5851521,W,4,13,1.0,240.6899,M,-33.3702,M,1.3,1271*75",1777575714.524047,669470000,1.210
1777575714.525954,,,HDT,,,,,,,,,,94.2290,,,,,"$GPHDT,94.229,T*01",1777575714.524047,669470000,1.908
1777575714.528272,68514.300000,tod,GST,,,,,,,0.0080,0.0070,0.0220,,,,,,"$GPGST,190154.30,0.185,0.008,0.006,327.632,0.008,0.007,0.022*50",1777575714.526521,669472500,1.751
1777575714.622697,68514.400000,tod,GGA,39.7375786583,-84.1764192017,240.6902,4,13,1.00,,,,,,,,,"$GPGGA,190154.40,3944.2547195,N,08410.5851521,W,4,13,1.0,240.6902,M,-33.3702,M,1.4,1271*7B",1777575714.621276,669567500,1.420
1777575714.623117,,,HDT,,,,,,,,,,93.9790,,,,,"$GPHDT,93.979,T*08",1777575714.621276,669567500,1.841
1777575714.625479,68514.400000,tod,GST,,,,,,,0.0080,0.0070,0.0220,,,,,,"$GPGST,190154.40,0.185,0.008,0.006,327.478,0.008,0.007,0.022*5B",1777575714.623884,669570000,1.595
1777575714.724132,68514.500000,tod,GGA,39.7375786600,-84.1764191917,240.6859,4,13,1.00,,,,,,,,,"$GPGGA,190154.50,3944.2547196,N,08410.5851515,W,4,13,1.0,240.6859,M,-33.3702,M,1.5,1271*70",1777575714.723455,669670000,0.677
1777575714.724773,,,HDT,,,,,,,,,,94.1500,,,,,"$GPHDT,94.150,T*0C",1777575714.723455,669670000,1.318
1777575714.727267,68514.500000,tod,GST,,,,,,,0.0080,0.0070,0.0220,,,,,,"$GPGST,190154.50,0.185,0.008,0.006,327.416,0.008,0.007,0.022*52",1777575714.726003,669672500,1.264
1777575714.824239,68514.600000,tod,GGA,39.7375786667,-84.1764191917,240.6858,4,13,1.00,,,,,,,,,"$GPGGA,190154.60,3944.2547200,N,08410.5851515,W,4,13,1.0,240.6858,M,-33.3702,M,0.6,1271*7C",1777575714.823274,669770000,0.965
1777575714.824840,,,HDT,,,,,,,,,,93.8900,,,,,"$GPHDT,93.890,T*0E",1777575714.823274,669770000,1.566
1777575714.826937,68514.600000,tod,GST,,,,,,,0.0080,0.0070,0.0230,,,,,,"$GPGST,190154.60,0.255,0.009,0.006,327.619,0.008,0.007,0.023*52",1777575714.825838,669772500,1.099
1777575714.924008,68514.700000,tod,GGA,39.7375786517,-84.1764192117,240.6906,4,13,1.00,,,,,,,,,"$GPGGA,190154.70,3944.2547191,N,08410.5851527,W,4,13,1.0,240.6906,M,-33.3702,M,0.7,1271*7C",1777575714.923007,669870000,1.001
1777575714.924647,,,HDT,,,,,,,,,,93.7220,,,,,"$GPHDT,93.722,T*08",1777575714.923007,669870000,1.639
1777575714.927154,68514.700000,tod,GST,,,,,,,0.0080,0.0070,0.0220,,,,,,"$GPGST,190154.70,0.255,0.009,0.006,327.913,0.008,0.007,0.022*57",1777575714.926257,669872500,0.896
1777575715.023710,68514.800000,tod,GGA,39.7375786550,-84.1764192033,240.6926,4,13,1.00,,,,,,,,,"$GPGGA,190154.80,3944.2547193,N,08410.5851522,W,4,13,1.0,240.6926,M,-33.3702,M,0.8,1271*79",1777575715.022835,669970000,0.875
1777575715.024514,,,HDT,,,,,,,,,,93.7300,,,,,"$GPHDT,93.730,T*0B",1777575715.022835,669970000,1.680
1777575715.026929,68514.800000,tod,GST,,,,,,,0.0080,0.0070,0.0220,,,,,,"$GPGST,190154.80,0.255,0.008,0.006,327.968,0.008,0.007,0.022*55",1777575715.025425,669972500,1.504
1777575715.123736,68514.900000,tod,GGA,39.7375786667,-84.1764192067,240.6918,4,13,1.00,,,,,,,,,"$GPGGA,190154.90,3944.2547200,N,08410.5851524,W,4,13,1.0,240.6918,M,-33.3702,M,0.9,1271*7B",1777575715.122564,670070000,1.172
1777575715.124397,,,HDT,,,,,,,,,,93.9300,,,,,"$GPHDT,93.930,T*05",1777575715.122564,670070000,1.832
1777575715.128445,68514.900000,tod,GST,,,,,,,0.0080,0.0070,0.0220,,,,,,"$GPGST,190154.90,0.255,0.008,0.006,328.463,0.008,0.007,0.022*5D",1777575715.127524,670075000,0.921
1777575715.223407,68515.000000,tod,GGA,39.7375786683,-84.1764192167,240.6917,4,13,1.00,,,,,,,,,"$GPGGA,190155.00,3944.2547201,N,08410.5851530,W,4,13,1.0,240.6917,M,-33.3702,M,1.0,1271*70",1777575715.222391,670170000,1.016
1777575715.224041,,,HDT,,,,,,,,,,94.1130,,,,,"$GPHDT,94.113,T*0B",1777575715.222391,670170000,1.649
1777575715.226422,68515.000000,tod,GST,,,,,,,0.0080,0.0070,0.0220,,,,,,"$GPGST,190155.00,0.255,0.009,0.006,328.451,0.008,0.007,0.022*55",1777575715.225279,670172500,1.143
1777575715.290158,,,PARSE_ERR,,,,,,,,,,,,,,,$TD,1777575715.290003,670237500,0.155
1777575715.507433,68515.100000,tod,GGA,39.7375786800,-84.1764192217,240.6897,4,13,1.00,,,,,,,,,"$GPGGA,190155.10,3944.2547208,N,08410.5851533,W,4,13,1.0,240.6897,M,-33.3702,M,1.1,1271*73",1777575715.506448,670455000,0.985
1777575715.508122,,,HDT,,,,,,,,,,94.3400,,,,,"$GPHDT,94.340,T*0F",1777575715.506448,670455000,1.674
1777575715.512479,68515.100000,tod,GST,,,,,,,0.0080,0.0070,0.0220,,,,,,"$GPGST,190155.10,0.304,0.009,0.006,328.427,0.008,0.007,0.022*50",1777575715.511591,670460000,0.888
1777575715.515655,68515.200000,tod,GGA,39.7375786767,-84.1764192083,240.6897,4,13,1.00,,,,,,,,,"$GPGGA,190155.20,3944.2547206,N,08410.5851525,W,4,13,1.0,240.6897,M,-33.3702,M,1.2,1271*7A",1777575715.514025,670462500,1.629
1777575715.516928,,,HDT,,,,,,,,,,94.1420,,,,,"$GPHDT,94.142,T*0F",1777575715.516393,670465000,0.535
1777575715.519063,68515.200000,tod,GST,,,,,,,0.0080,0.0070,0.0220,,,,,,"$GPGST,190155.20,0.304,0.009,0.006,328.812,0.008,0.007,0.022*59",1777575715.518796,670467500,0.267
1777575715.522913,68515.300000,tod,GGA,39.7375786700,-84.1764192067,240.6907,4,13,1.00,,,,,,,,,"$GPGGA,190155.30,3944.2547202,N,08410.5851524,W,4,13,1.0,240.6907,M,-33.3702,M,1.3,1271*77",1777575715.521441,670470000,1.472
1777575715.523286,,,HDT,,,,,,,,,,93.7690,,,,,"$GPHDT,93.769,T*07",1777575715.521441,670470000,1.845
1777575715.525966,68515.300000,tod,GST,,,,,,,0.0080,0.0070,0.0220,,,,,,"$GPGST,190155.30,0.304,0.009,0.006,328.888,0.008,0.007,0.022*5B",1777575715.524536,670472500,1.431
1777575715.622771,68515.400000,tod,GGA,39.7375786733,-84.1764192200,240.6893,4,13,1.00,,,,,,,,,"$GPGGA,190155.40,3944.2547204,N,08410.5851532,W,4,13,1.0,240.6893,M,-33.3702,M,1.4,1271*7A",1777575715.621266,670570000,1.505
1777575715.624347,,,HDT,,,,,,,,,,94.0590,,,,,"$GPHDT,94.059,T*04",1777575715.623774,670572500,0.573
1777575715.626553,68515.400000,tod,GST,,,,,,,0.0080,0.0070,0.0220,,,,,,"$GPGST,190155.40,0.304,0.009,0.006,329.190,0.008,0.007,0.022*5D",1777575715.626140,670575000,0.413
1777575715.724399,68515.500000,tod,GGA,39.7375786783,-84.1764192033,240.6880,4,13,1.00,,,,,,,,,"$GPGGA,190155.50,3944.2547207,N,08410.5851522,W,4,13,1.0,240.6880,M,-33.3702,M,1.5,1271*7A",1777575715.723431,670672500,0.968
1777575715.725049,,,HDT,,,,,,,,,,94.1120,,,,,"$GPHDT,94.112,T*0A",1777575715.723431,670672500,1.618
1777575715.727424,68515.500000,tod,GST,,,,,,,0.0080,0.0070,0.0220,,,,,,"$GPGST,190155.50,0.304,0.009,0.006,329.188,0.008,0.007,0.022*55",1777575715.726188,670675000,1.236
1777575715.824315,68515.600000,tod,GGA,39.7375786850,-84.1764192067,240.6868,4,13,1.00,,,,,,,,,"$GPGGA,190155.60,3944.2547211,N,08410.5851524,W,4,13,1.0,240.6868,M,-33.3702,M,0.6,1271*7C",1777575715.823262,670772500,1.053
1777575715.824972,,,HDT,,,,,,,,,,94.2390,,,,,"$GPHDT,94.239,T*00",1777575715.823262,670772500,1.710
1777575715.828261,68515.600000,tod,GST,,,,,,,0.0080,0.0070,0.0220,,,,,,"$GPGST,190155.60,0.204,0.009,0.006,328.798,0.008,0.007,0.022*51",1777575715.827993,670777500,0.268
1777575715.924168,68515.700000,tod,GGA,39.7375786800,-84.1764191967,240.6871,4,13,1.00,,,,,,,,,"$GPGGA,190155.70,3944.2547208,N,08410.5851518,W,4,13,1.0,240.6871,M,-33.3702,M,0.7,1271*73",1777575715.923410,670872500,0.758
1777575715.924863,,,HDT,,,,,,,,,,94.1860,,,,,"$GPHDT,94.186,T*07",1777575715.923410,670872500,1.454
1777575715.927109,68515.700000,tod,GST,,,,,,,0.0080,0.0070,0.0220,,,,,,"$GPGST,190155.70,0.204,0.009,0.006,329.063,0.008,0.007,0.022*52",1777575715.925823,670875000,1.287
1777575716.023969,68515.800000,tod,GGA,39.7375786900,-84.1764192017,240.6863,4,13,1.00,,,,,,,,,"$GPGGA,190155.80,3944.2547214,N,08410.5851521,W,4,13,1.0,240.6863,M,-33.3702,M,0.8,1271*77",1777575716.023008,670972500,0.961
1777575716.024595,,,HDT,,,,,,,,,,94.1880,,,,,"$GPHDT,94.188,T*09",1777575716.023008,670972500,1.587
1777575716.026831,68515.800000,tod,GST,,,,,,,0.0080,0.0070,0.0220,,,,,,"$GPGST,190155.80,0.204,0.009,0.006,329.158,0.008,0.007,0.022*54",1777575716.025407,670975000,1.425
1777575716.123720,68515.900000,tod,GGA,39.7375786800,-84.1764192017,240.6879,4,13,1.00,,,,,,,,,"$GPGGA,190155.90,3944.2547208,N,08410.5851521,W,4,13,1.0,240.6879,M,-33.3702,M,0.9,1271*71",1777575716.122688,671072500,1.031
1777575716.124386,,,HDT,,,,,,,,,,94.0610,,,,,"$GPHDT,94.061,T*0F",1777575716.122688,671072500,1.697
1777575716.126773,68515.900000,tod,GST,,,,,,,0.0080,0.0070,0.0220,,,,,,"$GPGST,190155.90,0.204,0.009,0.006,329.107,0.008,0.007,0.022*5F",1777575716.125161,671075000,1.612
1777575716.223553,68516.000000,tod,GGA,39.7375786850,-84.1764192033,240.6864,4,13,1.00,,,,,,,,,"$GPGGA,190156.00,3944.2547211,N,08410.5851522,W,4,13,1.0,240.6864,M,-33.3702,M,1.0,1271*74",1777575716.222135,671172500,1.418
1777575716.224223,,,HDT,,,,,,,,,,93.8760,,,,,"$GPHDT,93.876,T*06",1777575716.222135,671172500,2.087
1777575716.226508,68516.000000,tod,GST,,,,,,,0.0080,0.0070,0.0220,,,,,,"$GPGST,190156.00,0.204,0.009,0.006,329.201,0.008,0.007,0.022*50",1777575716.224928,671175000,1.580
1777575716.291641,,,PARSE_ERR,,,,,,,,,,,,,,,$TD,1777575716.289708,671240000,1.933
1777575716.514119,68516.100000,tod,GGA,39.7375786917,-84.1764192200,240.6833,4,13,1.00,,,,,,,,,"$GPGGA,190156.10,3944.2547215,N,08410.5851532,W,4,13,1.0,240.6833,M,-33.3702,M,1.1,1271*73",1777575716.513806,671465000,0.313
1777575716.514859,,,HDT,,,,,,,,,,93.7180,,,,,"$GPHDT,93.718,T*01",1777575716.513806,671465000,1.053
1777575716.516999,68516.100000,tod,GST,,,,,,,0.0080,0.0070,0.0220,,,,,,"$GPGST,190156.10,0.207,0.009,0.006,328.965,0.008,0.007,0.022*5A",1777575716.516339,671467500,0.660
1777575716.519823,68516.200000,tod,GGA,39.7375786983,-84.1764192267,240.6784,4,13,1.00,,,,,,,,,"$GPGGA,190156.20,3944.2547219,N,08410.5851536,W,4,13,1.0,240.6784,M,-33.3702,M,1.2,1271*78",1777575716.518780,671470000,1.043
1777575716.520536,,,HDT,,,,,,,,,,93.5890,,,,,"$GPHDT,93.589,T*0B",1777575716.518780,671470000,1.756
1777575716.522867,68516.200000,tod,GST,,,,,,,0.0080,0.0070,0.0230,,,,,,"$GPGST,190156.20,0.207,0.009,0.007,329.118,0.008,0.007,0.023*5A",1777575716.521284,671472500,1.583
1777575716.525599,68516.300000,tod,GGA,39.7375786767,-84.1764192133,240.6918,4,13,1.00,,,,,,,,,"$GPGGA,190156.30,3944.2547206,N,08410.5851528,W,4,13,1.0,240.6918,M,-33.3702,M,1.3,1271*72",1777575716.523865,671475000,1.734
1777575716.526643,,,HDT,,,,,,,,,,93.5490,,,,,"$GPHDT,93.549,T*07",1777575716.526229,671477500,0.414
1777575716.528327,68516.300000,tod,GST,,,,,,,0.0080,0.0070,0.0220,,,,,,"$GPGST,190156.30,0.207,0.009,0.006,328.412,0.008,0.007,0.022*55",1777575716.526229,671477500,2.099
1777575716.624666,68516.400000,tod,GGA,39.7375786433,-84.1764191967,240.6969,4,13,1.00,,,,,,,,,"$GPGGA,190156.40,3944.2547186,N,08410.5851518,W,4,13,1.0,240.6969,M,-33.3702,M,1.4,1271*7C",1777575716.623493,671575000,1.173
1777575716.625319,,,HDT,,,,,,,,,,92.2740,,,,,"$GPHDT,92.274,T*0F",1777575716.623493,671575000,1.827
1777575716.627812,68516.400000,tod,GST,,,,,,,0.0090,0.0080,0.0240,,,,,,"$GPGST,190156.40,0.207,0.009,0.007,328.523,0.009,0.008,0.024*58",1777575716.626035,671577500,1.777
1777575716.724692,68516.500000,tod,GGA,39.7375786283,-84.1764192000,240.6932,4,13,1.00,,,,,,,,,"$GPGGA,190156.50,3944.2547177,N,08410.5851520,W,4,13,1.0,240.6932,M,-33.3702,M,1.5,1271*77",1777575716.723719,671675000,0.973
1777575716.725311,,,HDT,,,,,,,,,,91.5140,,,,,"$GPHDT,91.514,T*0D",1777575716.723719,671675000,1.592
1777575716.727620,68516.500000,tod,GST,,,,,,,0.0090,0.0080,0.0240,,,,,,"$GPGST,190156.50,0.207,0.009,0.007,328.322,0.009,0.008,0.024*5E",1777575716.726195,671677500,1.425
1777575716.824142,68516.600000,tod,GGA,39.7375786400,-84.1764192317,240.6889,4,13,1.00,,,,,,,,,"$GPGGA,190156.60,3944.2547184,N,08410.5851539,W,4,13,1.0,240.6889,M,-33.3702,M,0.6,1271*73",1777575716.823482,671775000,0.660
1777575716.824703,,,HDT,,,,,,,,,,91.6770,,,,,"$GPHDT,91.677,T*0B",1777575716.823482,671775000,1.221
1777575716.828847,68516.600000,tod,GST,,,,,,,0.0080,0.0070,0.0230,,,,,,"$GPGST,190156.60,0.324,0.009,0.007,328.607,0.008,0.007,0.023*56",1777575716.828184,671780000,0.664
1777575716.923676,68516.700000,tod,GGA,39.7375786333,-84.1764192667,240.6923,4,13,1.00,,,,,,,,,"$GPGGA,190156.70,3944.2547180,N,08410.5851560,W,4,13,1.0,240.6923,M,-33.3702,M,0.7,1271*7A",1777575716.923002,671875000,0.674
1777575716.924335,,,HDT,,,,,,,,,,91.6410,,,,,"$GPHDT,91.641,T*0E",1777575716.923002,671875000,1.333
1777575716.926583,68516.700000,tod,GST,,,,,,,0.0090,0.0070,0.0230,,,,,,"$GPGST,190156.70,0.324,0.009,0.007,328.467,0.009,0.007,0.023*52",1777575716.925474,671877500,1.109
1777575717.023571,68516.800000,tod,GGA,39.7375786417,-84.1764192783,240.6883,4,13,1.00,,,,,,,,,"$GPGGA,190156.80,3944.2547185,N,08410.5851567,W,4,13,1.0,240.6883,M,-33.3702,M,0.8,1271*73",1777575717.022510,671975000,1.061
1777575717.024232,,,HDT,,,,,,,,,,91.8250,,,,,"$GPHDT,91.825,T*02",1777575717.022510,671975000,1.722
1777575717.026407,68516.800000,tod,GST,,,,,,,0.0080,0.0070,0.0220,,,,,,"$GPGST,190156.80,0.324,0.009,0.007,329.137,0.008,0.007,0.022*5C",1777575717.025200,671977500,1.207
1777575717.124095,68516.900000,tod,GGA,39.7375786450,-84.1764193000,240.6903,4,13,1.00,,,,,,,,,"$GPGGA,190156.90,3944.2547187,N,08410.5851580,W,4,13,1.0,240.6903,M,-33.3702,M,0.9,1271*71",1777575717.122402,672075000,1.692
1777575717.124853,,,HDT,,,,,,,,,,92.1630,,,,,"$GPHDT,92.163,T*0A",1777575717.122402,672075000,2.450
1777575717.126950,68516.900000,tod,GST,,,,,,,0.0080,0.0070,0.0220,,,,,,"$GPGST,190156.90,0.324,0.009,0.006,329.550,0.008,0.007,0.022*59",1777575717.125061,672077500,1.890
1777575717.222926,68517.000000,tod,GGA,39.7375786483,-84.1764193067,240.6909,4,13,1.00,,,,,,,,,"$GPGGA,190157.00,3944.2547189,N,08410.5851584,W,4,13,1.0,240.6909,M,-33.3702,M,1.0,1271*71",1777575717.222144,672175000,0.782
1777575717.223868,,,HDT,,,,,,,,,,92.3720,,,,,"$GPHDT,92.372,T*08",1777575717.222144,672175000,1.724
1777575717.226514,68517.000000,tod,GST,,,,,,,0.0080,0.0070,0.0220,,,,,,"$GPGST,190157.00,0.324,0.009,0.006,329.831,0.008,0.007,0.022*5B",1777575717.225247,672177500,1.266
1777575717.292903,,,PARSE_ERR,,,,,,,,,,,,,,,$TD,1777575717.291810,672245000,1.093
1777575717.525172,68517.100000,tod,GGA,39.7375786417,-84.1764192933,240.6926,4,13,1.00,,,,,,,,,"$GPGGA,190157.10,3944.2547185,N,08410.5851576,W,4,13,1.0,240.6926,M,-33.3702,M,1.1,1271*7D",1777575717.523674,672477500,1.498
1777575717.525546,,,HDT,,,,,,,,,,92.4000,,,,,"$GPHDT,92.400,T*0A",1777575717.523674,672477500,1.873
1777575717.528031,68517.100000,tod,GST,,,,,,,0.0080,0.0070,0.0220,,,,,,"$GPGST,190157.10,0.251,0.009,0.006,329.841,0.008,0.007,0.022*5E",1777575717.526382,672480000,1.649
1777575717.531158,68517.200000,tod,GGA,39.7375786483,-84.1764192833,240.6909,4,13,1.00,,,,,,,,,"$GPGGA,190157.20,3944.2547189,N,08410.5851570,W,4,13,1.0,240.6909,M,-33.3702,M,1.2,1271*7A",1777575717.530939,672485000,0.219
1777575717.532298,,,HDT,,,,,,,,,,92.3040,,,,,"$GPHDT,92.304,T*09",1777575717.531175,672485000,1.122
1777575717.534602,68517.200000,tod,GST,,,,,,,0.0080,0.0070,0.0220,,,,,,"$GPGST,190157.20,0.251,0.009,0.006,330.009,0.008,0.007,0.022*51",1777575717.533745,672487500,0.857
1777575717.537487,68517.300000,tod,GGA,39.7375786500,-84.1764192750,240.6881,4,13,1.00,,,,,,,,,"$GPGGA,190157.30,3944.2547190,N,08410.5851565,W,4,13,1.0,240.6881,M,-33.3702,M,1.3,1271*77",1777575717.536179,672490000,1.308
1777575717.538094,,,HDT,,,,,,,,,,92.5910,,,,,"$GPHDT,92.591,T*03",1777575717.536179,672490000,1.915
1777575717.540330,68517.300000,tod,GST,,,,,,,0.0080,0.0070,0.0220,,,,,,"$GPGST,190157.30,0.251,0.009,0.007,330.364,0.008,0.007,0.022*59",1777575717.538677,672492500,1.654
1777575717.624627,68517.400000,tod,GGA,39.7375786367,-84.1764192617,240.6902,4,13,1.00,,,,,,,,,"$GPGGA,190157.40,3944.2547182,N,08410.5851557,W,4,13,1.0,240.6902,M,-33.3702,M,1.4,1271*7F",1777575717.623485,672577500,1.142
1777575717.625319,,,HDT,,,,,,,,,,92.4120,,,,,"$GPHDT,92.412,T*09",1777575717.623485,672577500,1.834
1777575717.627535,68517.400000,tod,GST,,,,,,,0.0080,0.0070,0.0220,,,,,,"$GPGST,190157.40,0.251,0.009,0.006,330.414,0.008,0.007,0.022*5F",1777575717.625925,672580000,1.610
1777575717.724618,68517.500000,tod,GGA,39.7375786317,-84.1764192517,240.6884,4,13,1.00,,,,,,,,,"$GPGGA,190157.50,3944.2547179,N,08410.5851551,W,4,13,1.0,240.6884,M,-33.3702,M,1.5,1271*72",1777575717.723285,672677500,1.333
1777575717.725005,,,HDT,,,,,,,,,,91.9700,,,,,"$GPHDT,91.970,T*03",1777575717.723285,672677500,1.719
1777575717.727291,68517.500000,tod,GST,,,,,,,0.0080,0.0070,0.0220,,,,,,"$GPGST,190157.50,0.251,0.009,0.006,330.268,0.008,0.007,0.022*53",1777575717.725982,672680000,1.308
1777575717.823435,68517.600000,tod,GGA,39.7375786450,-84.1764192683,240.6941,4,13,1.00,,,,,,,,,"$GPGGA,190157.60,3944.2547187,N,08410.5851561,W,4,13,1.0,240.6941,M,-33.3702,M,0.6,1271*79",1777575717.823172,672777500,0.263
1777575717.824359,,,HDT,,,,,,,,,,92.4790,,,,,"$GPHDT,92.479,T*04",1777575717.823172,672777500,1.187
1777575717.826568,68517.600000,tod,GST,,,,,,,0.0080,0.0070,0.0220,,,,,,"$GPGST,190157.60,0.289,0.009,0.006,330.346,0.008,0.007,0.022*58",1777575717.825382,672780000,1.185
1777575717.924036,68517.700000,tod,GGA,39.7375786550,-84.1764192550,240.6954,4,13,1.00,,,,,,,,,"$GPGGA,190157.70,3944.2547193,N,08410.5851553,W,4,13,1.0,240.6954,M,-33.3702,M,0.7,1271*79",1777575717.923159,672877500,0.877
1777575717.924748,,,HDT,,,,,,,,,,92.2800,,,,,"$GPHDT,92.280,T*04",1777575717.923159,672877500,1.589
1777575717.927128,68517.700000,tod,GST,,,,,,,0.0080,0.0070,0.0220,,,,,,"$GPGST,190157.70,0.289,0.009,0.006,330.480,0.008,0.007,0.022*54",1777575717.925343,672880000,1.786
1777575718.023758,68517.800000,tod,GGA,39.7375786633,-84.1764192483,240.6935,4,13,1.00,,,,,,,,,"$GPGGA,190157.80,3944.2547198,N,08410.5851549,W,4,13,1.0,240.6935,M,-33.3702,M,0.8,1271*7E",1777575718.022339,672977500,1.420
1777575718.024415,,,HDT,,,,,,,,,,91.8530,,,,,"$GPHDT,91.853,T*03",1777575718.022339,672977500,2.077
1777575718.026541,68517.800000,tod,GST,,,,,,,0.0080,0.0070,0.0220,,,,,,"$GPGST,190157.80,0.289,0.009,0.006,330.834,0.008,0.007,0.022*58",1777575718.024878,672980000,1.663
1777575718.122955,68517.900000,tod,GGA,39.7375786733,-84.1764192517,240.6934,4,13,1.00,,,,,,,,,"$GPGGA,190157.90,3944.2547204,N,08410.5851551,W,4,13,1.0,240.6934,M,-33.3702,M,0.9,1271*70",1777575718.122280,673077500,0.675
1777575718.123611,,,HDT,,,,,,,,,,92.0550,,,,,"$GPHDT,92.055,T*0E",1777575718.122280,673077500,1.331
1777575718.125931,68517.900000,tod,GST,,,,,,,0.0090,0.0070,0.0220,,,,,,"$GPGST,190157.90,0.289,0.009,0.007,330.686,0.009,0.007,0.022*5E",1777575718.124645,673080000,1.285
1777575718.223313,68518.000000,tod,GGA,39.7375786817,-84.1764192700,240.6950,4,13,1.00,,,,,,,,,"$GPGGA,190158.00,3944.2547209,N,08410.5851562,W,4,13,1.0,240.6950,M,-33.3702,M,1.0,1271*71",1777575718.221733,673177500,1.580
1777575718.224712,,,HDT,,,,,,,,,,92.2020,,,,,"$GPHDT,92.202,T*0E",1777575718.224271,673180000,0.442
1777575718.226223,68518.000000,tod,GST,,,,,,,0.0090,0.0070,0.0220,,,,,,"$GPGST,190158.00,0.289,0.009,0.007,330.506,0.009,0.007,0.022*53",1777575718.224271,673180000,1.953
1777575718.289737,,,PARSE_ERR,,,,,,,,,,,,,,,$TD,1777575718.286760,673242500,2.977
1777575718.519601,68518.100000,tod,GGA,39.7375786883,-84.1764192733,240.6948,4,13,1.00,,,,,,,,,"$GPGGA,190158.10,3944.2547213,N,08410.5851564,W,4,13,1.0,240.6948,M,-33.3702,M,1.1,1271*75",1777575718.518623,673475000,0.978
1777575718.520261,,,HDT,,,,,,,,,,92.5280,,,,,"$GPHDT,92.528,T*01",1777575718.518623,673475000,1.638
1777575718.522733,68518.100000,tod,GST,,,,,,,0.0080,0.0070,0.0220,,,,,,"$GPGST,190158.10,0.223,0.009,0.006,330.990,0.008,0.007,0.022*51",1777575718.521072,673477500,1.662
1777575718.525639,68518.200000,tod,GGA,39.7375786900,-84.1764192700,240.6917,4,13,1.00,,,,,,,,,"$GPGGA,190158.20,3944.2547214,N,08410.5851562,W,4,13,1.0,240.6917,M,-33.3702,M,1.2,1271*7E",1777575718.523603,673480000,2.036
1777575718.526933,,,HDT,,,,,,,,,,92.5160,,,,,"$GPHDT,92.516,T*0C",1777575718.526178,673482500,0.756
1777575718.529271,68518.200000,tod,GST,,,,,,,0.0080,0.0070,0.0220,,,,,,"$GPGST,190158.20,0.223,0.009,0.006,331.302,0.008,0.007,0.022*52",1777575718.528569,673485000,0.702
1777575718.532152,68518.300000,tod,GGA,39.7375786917,-84.1764192733,240.6908,4,13,1.00,,,,,,,,,"$GPGGA,190158.30,3944.2547215,N,08410.5851564,W,4,13,1.0,240.6908,M,-33.3702,M,1.3,1271*77",1777575718.531188,673487500,0.963
1777575718.532616,,,HDT,,,,,,,,,,92.5410,,,,,"$GPHDT,92.541,T*0E",1777575718.531188,673487500,1.428
1777575718.535126,68518.300000,tod,GST,,,,,,,0.0080,0.0070,0.0220,,,,,,"$GPGST,190158.30,0.223,0.009,0.006,331.362,0.008,0.007,0.022*55",1777575718.533610,673490000,1.517
1777575718.624313,68518.400000,tod,GGA,39.7375786967,-84.1764192683,240.6880,4,13,1.00,,,,,,,,,"$GPGGA,190158.40,3944.2547218,N,08410.5851561,W,4,13,1.0,240.6880,M,-33.3702,M,1.4,1271*7E",1777575718.623809,673580000,0.504
1777575718.624709,,,HDT,,,,,,,,,,93.0830,,,,,"$GPHDT,93.083,T*04",1777575718.623809,673580000,0.899
1777575718.628387,68518.400000,tod,GST,,,,,,,0.0090,0.0070,0.0220,,,,,,"$GPGST,190158.40,0.223,0.009,0.006,331.421,0.009,0.007,0.022*53",1777575718.625840,673582500,2.548
1777575718.723065,68518.500000,tod,GGA,39.7375787083,-84.1764192467,240.6840,4,13,1.00,,,,,,,,,"$GPGGA,190158.50,3944.2547225,N,08410.5851548,W,4,13,1.0,240.6840,M,-33.3702,M,1.5,1271*77",1777575718.720578,673677500,2.487
1777575718.724390,,,HDT,,,,,,,,,,93.3850,,,,,"$GPHDT,93.385,T*01",1777575718.723428,673680000,0.962
1777575718.726691,68518.500000,tod,GST,,,,,,,0.0090,0.0070,0.0220,,,,,,"$GPGST,190158.50,0.223,0.009,0.007,331.513,0.009,0.007,0.022*53",1777575718.725636,673682500,1.055
1777575718.823611,68518.600000,tod,GGA,39.7375786917,-84.1764192267,240.6816,4,13,1.00,,,,,,,,,"$GPGGA,190158.60,3944.2547215,N,08410.5851536,W,4,13,1.0,240.6816,M,-33.3702,M,1.6,1271*7E",1777575718.822867,673780000,0.744
1777575718.824271,,,HDT,,,,,,,,,,93.0970,,,,,"$GPHDT,93.097,T*01",1777575718.822867,673780000,1.404
1777575718.826630,68518.600000,tod,GST,,,,,,,0.0090,0.0070,0.0220,,,,,,"$GPGST,190158.60,0.181,0.009,0.007,331.582,0.009,0.007,0.022*53",1777575718.825323,673782500,1.307
1777575718.923215,68518.700000,tod,GGA,39.7375786983,-84.1764192267,240.6827,4,13,1.00,,,,,,,,,"$GPGGA,190158.70,3944.2547219,N,08410.5851536,W,4,13,1.0,240.6827,M,-33.3702,M,1.7,1271*70",1777575718.922532,673880000,0.683
1777575718.923858,,,HDT,,,,,,,,,,93.7940,,,,,"$GPHDT,93.794,T*05",1777575718.922532,673880000,1.326
1777575718.926228,68518.700000,tod,GST,,,,,,,0.0090,0.0070,0.0220,,,,,,"$GPGST,190158.70,0.181,0.009,0.006,331.524,0.009,0.007,0.022*5F",1777575718.925165,673882500,1.064
1777575719.023732,68518.800000,tod,GGA,39.7375786967,-84.1764192100,240.6758,4,13,1.00,,,,,,,,,"$GPGGA,190158.80,3944.2547218,N,08410.5851526,W,4,13,1.0,240.6758,M,-33.3702,M,1.8,1271*77",1777575719.022460,673980000,1.272
1777575719.024450,,,HDT,,,,,,,,,,93.7630,,,,,"$GPHDT,93.763,T*0D",1777575719.022460,673980000,1.990
1777575719.026907,68518.800000,tod,GST,,,,,,,0.0090,0.0070,0.0220,,,,,,"$GPGST,190158.80,0.181,0.009,0.006,331.683,0.009,0.007,0.022*5E",1777575719.024897,673982500,2.010
1777575719.122645,68518.900000,tod,GGA,39.7375786867,-84.1764191817,240.6742,4,13,1.00,,,,,,,,,"$GPGGA,190158.90,3944.2547212,N,08410.5851509,W,4,13,1.0,240.6742,M,-33.3702,M,1.9,1271*7B",1777575719.121948,674080000,0.697
1777575719.123303,,,HDT,,,,,,,,,,94.2240,,,,,"$GPHDT,94.224,T*0C",1777575719.121948,674080000,1.355
1777575719.125608,68518.900000,tod,GST,,,,,,,0.0090,0.0070,0.0220,,,,,,"$GPGST,190158.90,0.181,0.009,0.007,331.772,0.009,0.007,0.022*51",1777575719.125068,674082500,0.540
1777575719.225487,68519.000000,tod,GGA,39.7375786583,-84.1764192333,240.6843,4,13,1.00,,,,,,,,,"$GPGGA,190159.00,3944.2547195,N,08410.5851540,W,4,13,1.0,240.6843,M,-33.3702,M,2.0,1271*76",1777575719.224412,674182500,1.074
1777575719.226207,,,HDT,,,,,,,,,,94.4080,,,,,"$GPHDT,94.408,T*04",1777575719.224412,674182500,1.794
1777575719.228931,68519.000000,tod,GST,,,,,,,0.0090,0.0080,0.0230,,,,,,"$GPGST,190159.00,0.181,0.010,0.007,331.500,0.009,0.008,0.023*58",1777575719.227281,674185000,1.651
1777575719.294491,,,PARSE_ERR,,,,,,,,,,,,,,,$TD,1777575719.294338,674252500,0.152
1777575719.514510,68519.100000,tod,GGA,39.7375786617,-84.1764193233,240.6869,4,13,1.00,,,,,,,,,"$GPGGA,190159.10,3944.2547197,N,08410.5851594,W,4,13,1.0,240.6869,M,-33.3702,M,1.1,1271*76",1777575719.514190,674472500,0.319
1777575719.515859,,,HDT,,,,,,,,,,94.2420,,,,,"$GPHDT,94.242,T*0C",1777575719.514705,674472500,1.154
1777575719.518108,68519.100000,tod,GST,,,,,,,0.0100,0.0090,0.0250,,,,,,"$GPGST,190159.10,0.231,0.011,0.008,331.218,0.010,0.009,0.025*5E",1777575719.516135,674475000,1.972
1777575719.521051,68519.200000,tod,GGA,39.7375786450,-84.1764193700,240.6896,4,13,1.00,,,,,,,,,"$GPGGA,190159.20,3944.2547187,N,08410.5851622,W,4,13,1.0,240.6896,M,-33.3702,M,1.2,1271*79",1777575719.518903,674477500,2.148
1777575719.522170,,,HDT,,,,,,,,,,94.8480,,,,,"$GPHDT,94.848,T*0C",1777575719.521071,674480000,1.098
1777575719.524695,68519.200000,tod,GST,,,,,,,0.0100,0.0090,0.0260,,,,,,"$GPGST,190159.20,0.231,0.011,0.008,332.141,0.010,0.009,0.026*52",1777575719.523837,674482500,0.857
1777575719.528068,68519.300000,tod,GGA,39.7375786617,-84.1764193750,240.6788,4,13,1.00,,,,,,,,,"$GPGGA,190159.30,3944.2547197,N,08410.5851625,W,4,13,1.0,240.6788,M,-33.3702,M,1.3,1271*7F",1777575719.526206,674485000,1.862
1777575719.529351,,,HDT,,,,,,,,,,94.7150,,,,,"$GPHDT,94.715,T*0B",1777575719.528826,674487500,0.525
1777575719.531038,68519.300000,tod,GST,,,,,,,0.0100,0.0090,0.0270,,,,,,"$GPGST,190159.30,0.231,0.011,0.008,331.333,0.010,0.009,0.027*56",1777575719.530850,674490000,0.188
1777575719.624004,68519.400000,tod,GGA,39.7375786750,-84.1764193817,240.6757,4,13,1.00,,,,,,,,,"$GPGGA,190159.40,3944.2547205,N,08410.5851629,W,4,13,1.0,240.6757,M,-33.3702,M,1.4,1271*79",1777575719.623387,674582500,0.617
1777575719.624658,,,HDT,,,,,,,,,,94.1250,,,,,"$GPHDT,94.125,T*0E",1777575719.623387,674582500,1.271
1777575719.626907,68519.400000,tod,GST,,,,,,,0.0100,0.0090,0.0260,,,,,,"$GPGST,190159.40,0.231,0.011,0.008,330.137,0.010,0.009,0.026*57",1777575719.625849,674585000,1.058
1777575719.724091,68519.500000,tod,GGA,39.7375787067,-84.1764193617,240.6597,4,12,1.00,,,,,,,,,"$GPGGA,190159.50,3944.2547224,N,08410.5851617,W,4,12,1.0,240.6597,M,-33.3702,M,1.5,1271*78",1777575719.723095,674682500,0.996
1777575719.724753,,,HDT,,,,,,,,,,94.1810,,,,,"$GPHDT,94.181,T*00",1777575719.723095,674682500,1.658
1777575719.727029,68519.500000,tod,GST,,,,,,,0.0080,0.0070,0.0210,,,,,,"$GPGST,190159.50,0.231,0.009,0.006,332.161,0.008,0.007,0.021*50",1777575719.725624,674685000,1.405
1777575719.823926,68519.600000,tod,GGA,39.7375786717,-84.1764193883,240.6736,4,14,0.80,,,,,,,,,"$GPGGA,190159.60,3944.2547203,N,08410.5851633,W,4,14,0.8,240.6736,M,-33.3702,M,1.6,1271*7D",1777575719.822758,674782500,1.168
1777575719.824604,,,HDT,,,,,,,,,,93.7940,,,,,"$GPHDT,93.794,T*05",1777575719.822758,674782500,1.846
1777575719.826939,68519.600000,tod,GST,,,,,,,0.0090,0.0070,0.0230,,,,,,"$GPGST,190159.60,0.236,0.010,0.007,332.006,0.009,0.007,0.023*5E",1777575719.825463,674785000,1.476
1777575719.923937,68519.700000,tod,GGA,39.7375786683,-84.1764194267,240.6881,4,13,1.00,,,,,,,,,"$GPGGA,190159.70,3944.2547201,N,08410.5851656,W,4,13,1.0,240.6881,M,-33.3702,M,1.7,1271*71",1777575719.923146,674882500,0.791
1777575719.924321,,,HDT,,,,,,,,,,92.8290,,,,,"$GPHDT,92.829,T*0D",1777575719.923146,674882500,1.175
1777575719.926731,68519.700000,tod,GST,,,,,,,0.0080,0.0070,0.0210,,,,,,"$GPGST,190159.70,0.236,0.009,0.006,332.459,0.008,0.007,0.021*5B",1777575719.925552,674885000,1.179
1777575720.025299,68519.800000,tod,GGA,39.7375785967,-84.1764193883,240.6918,4,13,1.00,,,,,,,,,"$GPGGA,190159.80,3944.2547158,N,08410.5851633,W,4,13,1.0,240.6918,M,-33.3702,M,1.8,1271*7C",1777575720.023049,674982500,2.250
1777575720.028243,,,HDT,,,,,,,,,,91.4860,,,,,"$GPHDT,91.486,T*07",1777575720.027621,674987500,0.622
1777575720.030544,68519.800000,tod,GST,,,,,,,0.0100,0.0080,0.0250,,,,,,"$GPGST,190159.80,0.236,0.010,0.007,331.888,0.010,0.008,0.025*5C",1777575720.030052,674990000,0.492
1777575720.123731,68519.900000,tod,GGA,39.7375785833,-84.1764193783,240.7038,4,12,1.00,,,,,,,,,"$GPGGA,190159.90,3944.2547150,N,08410.5851627,W,4,12,1.0,240.7038,M,-33.3702,M,1.9,1271*7A",1777575720.122462,675082500,1.269
1777575720.124418,,,HDT,,,,,,,,,,92.3920,,,,,"$GPHDT,92.392,T*06",1777575720.122462,675082500,1.957
1777575720.126871,68519.900000,tod,GST,,,,,,,0.0110,0.0090,0.0270,,,,,,"$GPGST,190159.90,0.236,0.011,0.008,326.693,0.011,0.009,0.027*53",1777575720.124765,675085000,2.106
1777575720.225440,68520.000000,tod,GGA,39.7375786167,-84.1764193150,240.7002,4,12,1.00,,,,,,,,,"$GPGGA,190200.00,3944.2547170,N,08410.5851589,W,4,12,1.0,240.7002,M,-33.3702,M,2.0,1271*7A",1777575720.224523,675185000,0.916
1777575720.226093,,,HDT,,,,,,,,,,93.4180,,,,,"$GPHDT,93.418,T*02",1777575720.224523,675185000,1.570
1777575720.228221,68520.000000,tod,GST,,,,,,,0.0110,0.0090,0.0280,,,,,,"$GPGST,190200.00,0.236,0.012,0.008,326.332,0.011,0.009,0.028*57",1777575720.227049,675187500,1.173
1777575720.297529,,,PARSE_ERR,,,,,,,,,,,,,,,$TD,1777575720.296701,675257500,0.829
1777575720.515288,68520.100000,tod,GGA,39.7375786667,-84.1764192583,240.6910,4,13,1.00,,,,,,,,,"$GPGGA,190200.10,3944.2547200,N,08410.5851555,W,4,13,1.0,240.6910,M,-33.3702,M,1.1,1271*76",1777575720.513657,675475000,1.631
1777575720.516602,,,HDT,,,,,,,,,,93.6430,,,,,"$GPHDT,93.643,T*0E",1777575720.516128,675477500,0.475
1777575720.518151,68520.100000,tod,GST,,,,,,,0.0090,0.0070,0.0210,,,,,,"$GPGST,190200.10,0.331,0.009,0.006,332.499,0.009,0.007,0.021*59",1777575720.516128,675477500,2.023
1777575720.521660,68520.200000,tod,GGA,39.7375786967,-84.1764192350,240.6852,4,13,1.00,,,,,,,,,"$GPGGA,190200.20,3944.2547218,N,08410.5851541,W,4,13,1.0,240.6852,M,-33.3702,M,1.2,1271*7D",1777575720.521198,675482500,0.462
1777575720.522303,,,HDT,,,,,,,,,,93.3640,,,,,"$GPHDT,93.364,T*0E",1777575720.521198,675482500,1.105
1777575720.524761,68520.200000,tod,GST,,,,,,,0.0090,0.0070,0.0210,,,,,,"$GPGST,190200.20,0.331,0.009,0.006,332.763,0.009,0.007,0.021*5C",1777575720.523724,675485000,1.037
1777575720.527678,68520.300000,tod,GGA,39.7375787033,-84.1764192533,240.6899,4,13,1.00,,,,,,,,,"$GPGGA,190200.30,3944.2547222,N,08410.5851552,W,4,13,1.0,240.6899,M,-33.3702,M,1.3,1271*71",1777575720.526745,675487500,0.933
1777575720.528061,,,HDT,,,,,,,,,,92.8290,,,,,"$GPHDT,92.829,T*0D",1777575720.526745,675487500,1.316
1777575720.530466,68520.300000,tod,GST,,,,,,,0.0100,0.0090,0.0260,,,,,,"$GPGST,190200.30,0.331,0.011,0.008,334.263,0.010,0.009,0.026*58",1777575720.529166,675490000,1.299
1777575720.623286,68520.400000,tod,GGA,39.7375787050,-84.1764192783,240.6932,4,13,1.00,,,,,,,,,"$GPGGA,190200.40,3944.2547223,N,08410.5851567,W,4,13,1.0,240.6932,M,-33.3702,M,1.4,1271*76",1777575720.621254,675582500,2.032
1777575720.624634,,,HDT,,,,,,,,,,92.9670,,,,,"$GPHDT,92.967,T*06",1777575720.623856,675585000,0.778
1777575720.626923,68520.400000,tod,GST,,,,,,,0.0090,0.0070,0.0210,,,,,,"$GPGST,190200.40,0.331,0.009,0.006,332.909,0.009,0.007,0.021*58",1777575720.626281,675587500,0.643
1777575720.724542,68520.500000,tod,GGA,39.7375787000,-84.1764192633,240.6877,4,13,1.00,,,,,,,,,"$GPGGA,190200.50,3944.2547220,N,08410.5851558,W,4,13,1.0,240.6877,M,-33.3702,M,1.5,1271*79",1777575720.723368,675685000,1.174
1777575720.724925,,,HDT,,,,,,,,,,93.4310,,,,,"$GPHDT,93.431,T*09",1777575720.723368,675685000,1.556
1777575720.727327,68520.500000,tod,GST,,,,,,,0.0100,0.0080,0.0240,,,,,,"$GPGST,190200.50,0.331,0.010,0.007,331.864,0.010,0.008,0.024*5B",1777575720.725677,675687500,1.650
1777575720.825097,68520.600000,tod,GGA,39.7375786867,-84.1764192500,240.6878,4,13,1.00,,,,,,,,,"$GPGGA,190200.60,3944.2547212,N,08410.5851550,W,4,13,1.0,240.6878,M,-33.3702,M,0.6,1271*7E",1777575720.823216,675785000,1.881
1777575720.826684,,,HDT,,,,,,,,,,93.7990,,,,,"$GPHDT,93.799,T*08",1777575720.825740,675787500,0.944
1777575720.829283,68520.600000,tod,GST,,,,,,,0.0100,0.0080,0.0260,,,,,,"$GPGST,190200.60,0.363,0.011,0.008,330.412,0.010,0.008,0.026*5F",1777575720.828379,675790000,0.904
1777575720.923963,68520.700000,tod,GGA,39.7375786667,-84.1764192167,240.6834,4,13,1.00,,,,,,,,,"$GPGGA,190200.70,3944.2547200,N,08410.5851530,W,4,13,1.0,240.6834,M,-33.3702,M,0.7,1271*73",1777575720.922731,675885000,1.232
1777575720.924342,,,HDT,,,,,,,,,,93.1000,,,,,"$GPHDT,93.100,T*0E",1777575720.922731,675885000,1.611
1777575720.926850,68520.700000,tod,GST,,,,,,,0.0100,0.0080,0.0250,,,,,,"$GPGST,190200.70,0.363,0.010,0.007,330.763,0.010,0.008,0.025*56",1777575720.925636,675887500,1.214
1777575721.023629,68520.800000,tod,GGA,39.7375786600,-84.1764191867,240.6853,4,12,1.00,,,,,,,,,"$GPGGA,190200.80,3944.2547196,N,08410.5851512,W,4,12,1.0,240.6853,M,-33.3702,M,0.8,1271*7F",1777575721.022508,675985000,1.121
1777575721.024009,,,HDT,,,,,,,,,,92.9540,,,,,"$GPHDT,92.954,T*06",1777575721.022508,675985000,1.502
1777575721.026437,68520.800000,tod,GST,,,,,,,0.0100,0.0080,0.0240,,,,,,"$GPGST,190200.80,0.363,0.010,0.007,329.532,0.010,0.008,0.024*56",1777575721.025175,675987500,1.262
1777575721.123057,68520.900000,tod,GGA,39.7375786317,-84.1764191783,240.6875,4,12,1.00,,,,,,,,,"$GPGGA,190200.90,3944.2547179,N,08410.5851507,W,4,12,1.0,240.6875,M,-33.3702,M,0.9,1271*7E",1777575721.122339,676085000,0.718
1777575721.123785,,,HDT,,,,,,,,,,93.0740,,,,,"$GPHDT,93.074,T*0C",1777575721.122339,676085000,1.446
1777575721.126001,68520.900000,tod,GST,,,,,,,0.0100,0.0080,0.0240,,,,,,"$GPGST,190200.90,0.363,0.010,0.007,330.099,0.010,0.008,0.024*5B",1777575721.124976,676087500,1.025
1777575721.223741,68521.000000,tod,GGA,39.7375786550,-84.1764192100,240.6904,4,12,1.00,,,,,,,,,"$GPGGA,190201.00,3944.2547193,N,08410.5851526,W,4,12,1.0,240.6904,M,-33.3702,M,1.0,1271*7E",1777575721.222423,676185000,1.318
1777575721.224396,,,HDT,,,,,,,,,,93.1480,,,,,"$GPHDT,93.148,T*02",1777575721.222423,676185000,1.973
1777575721.226718,68521.000000,tod,GST,,,,,,,0.0100,0.0080,0.0240,,,,,,"$GPGST,190201.00,0.363,0.010,0.007,331.140,0.010,0.008,0.024*57",1777575721.225116,676187500,1.602
1777575721.290970,,,PARSE_ERR,,,,,,,,,,,,,,,$TD,1777575721.289868,676252500,1.102
1777575721.515507,68521.100000,tod,GGA,39.7375786867,-84.1764192433,240.6925,4,11,1.00,,,,,,,,,"$GPGGA,190201.10,3944.2547212,N,08410.5851546,W,4,11,1.0,240.6925,M,-33.3702,M,1.1,1271*72",1777575721.514036,676477500,1.471
1777575721.516159,,,HDT,,,,,,,,,,93.5050,,,,,"$GPHDT,93.505,T*0F",1777575721.514036,676477500,2.124
1777575721.518271,68521.100000,tod,GST,,,,,,,0.0100,0.0080,0.0250,,,,,,"$GPGST,190201.10,0.299,0.010,0.007,331.385,0.010,0.008,0.025*58",1777575721.516883,676480000,1.388
1777575721.521104,68521.200000,tod,GGA,39.7375787000,-84.1764192733,240.6854,4,11,1.00,,,,,,,,,"$GPGGA,190201.20,3944.2547220,N,08410.5851564,W,4,11,1.0,240.6854,M,-33.3702,M,1.2,1271*74",1777575721.519217,676482500,1.887
1777575721.522259,,,HDT,,,,,,,,,,94.0580,,,,,"$GPHDT,94.058,T*05",1777575721.521338,676485000,0.921
1777575721.523818,68521.200000,tod,GST,,,,,,,0.0100,0.0080,0.0250,,,,,,"$GPGST,190201.20,0.299,0.011,0.007,330.357,0.010,0.008,0.025*54",1777575721.521338,676485000,2.479
1777575721.527485,68521.300000,tod,GGA,39.7375787150,-84.1764193317,240.6980,4,11,1.00,,,,,,,,,"$GPGGA,190201.30,3944.2547229,N,08410.5851599,W,4,11,1.0,240.6980,M,-33.3702,M,1.3,1271*77",1777575721.526515,676490000,0.969
1777575721.527860,,,HDT,,,,,,,,,,94.3890,,,,,"$GPHDT,94.389,T*0A",1777575721.526515,676490000,1.344
1777575721.530705,68521.300000,tod,GST,,,,,,,0.0100,0.0080,0.0250,,,,,,"$GPGST,190201.30,0.299,0.011,0.007,329.885,0.010,0.008,0.025*59",1777575721.529321,676492500,1.384
1777575721.623082,68521.400000,tod,GGA,39.7375787167,-84.1764193033,240.6814,4,11,1.00,,,,,,,,,"$GPGGA,190201.40,3944.2547230,N,08410.5851582,W,4,11,1.0,240.6814,M,-33.3702,M,1.4,1271*79",1777575721.621296,676585000,1.786
1777575721.624521,,,HDT,,,,,,,,,,93.7550,,,,,"$GPHDT,93.755,T*08",1777575721.623980,676587500,0.541
1777575721.626405,68521.400000,tod,GST,,,,,,,0.0090,0.0070,0.0230,,,,,,"$GPGST,190201.40,0.299,0.010,0.007,331.007,0.009,0.007,0.023*55",1777575721.626062,676590000,0.342
1777575721.724302,68521.500000,tod,GGA,39.7375786583,-84.1764193600,240.6907,4,10,1.10,,,,,,,,,"$GPGGA,190201.50,3944.2547195,N,08410.5851616,W,4,10,1.1,240.6907,M,-33.3702,M,1.5,1271*78",1777575721.723378,676687500,0.924
1777575721.724684,,,HDT,,,,,,,,,,92.4900,,,,,"$GPHDT,92.490,T*03",1777575721.723378,676687500,1.306
1777575721.727314,68521.500000,tod,GST,,,,,,,0.0100,0.0090,0.0290,,,,,,"$GPGST,190201.50,0.299,0.011,0.008,339.628,0.010,0.009,0.029*55",1777575721.725932,676690000,1.381
1777575721.824475,68521.600000,tod,GGA,39.7375786650,-84.1764193817,240.6967,4,12,1.10,,,,,,,,,"$GPGGA,190201.60,3944.2547199,N,08410.5851629,W,4,12,1.1,240.6967,M,-33.3702,M,0.6,1271*7D",1777575721.823592,676787500,0.883
1777575721.824881,,,HDT,,,,,,,,,,92.5240,,,,,"$GPHDT,92.524,T*0D",1777575721.823592,676787500,1.289
1777575721.827288,68521.600000,tod,GST,,,,,,,0.0110,0.0080,0.0290,,,,,,"$GPGST,190201.60,0.219,0.011,0.008,343.113,0.011,0.008,0.029*5C",1777575721.825650,676790000,1.637
1777575721.922501,68521.700000,tod,GGA,39.7375787283,-84.1764193933,240.6920,4,12,1.10,,,,,,,,,"$GPGGA,190201.70,3944.2547237,N,08410.5851636,W,4,12,1.1,240.6920,M,-33.3702,M,0.7,1271*77",1777575721.920514,676885000,1.987
1777575721.923121,,,HDT,,,,,,,,,,93.3880,,,,,"$GPHDT,93.388,T*0C",1777575721.920514,676885000,2.607
1777575721.925457,68521.700000,tod,GST,,,,,,,0.0130,0.0090,0.0360,,,,,,"$GPGST,190201.70,0.219,0.013,0.009,356.132,0.013,0.009,0.036*54",1777575721.923825,676887500,1.632
1777575722.023540,68521.800000,tod,GGA,39.7375787400,-84.1764193983,240.6972,4,12,1.10,,,,,,,,,"$GPGGA,190201.80,3944.2547244,N,08410.5851639,W,4,12,1.1,240.6972,M,-33.3702,M,0.8,1271*7B",1777575722.023098,676987500,0.442
1777575722.024451,,,HDT,,,,,,,,,,93.5340,,,,,"$GPHDT,93.534,T*0D",1777575722.023324,676987500,1.127
1777575722.026637,68521.800000,tod,GST,,,,,,,0.0130,0.0090,0.0370,,,,,,"$GPGST,190201.80,0.219,0.013,0.009,358.676,0.013,0.009,0.037*53",1777575722.025566,676990000,1.070
1777575722.123550,68521.900000,tod,GGA,39.7375787533,-84.1764194183,240.6996,4,12,1.10,,,,,,,,,"$GPGGA,190201.90,3944.2547252,N,08410.5851651,W,4,12,1.1,240.6996,M,-33.3702,M,0.9,1271*78",1777575722.122819,677087500,0.731
1777575722.124191,,,HDT,,,,,,,,,,93.0950,,,,,"$GPHDT,93.095,T*03",1777575722.122819,677087500,1.372
1777575722.126435,68521.900000,tod,GST,,,,,,,0.0100,0.0080,0.0280,,,,,,"$GPGST,190201.90,0.219,0.010,0.008,348.950,0.010,0.008,0.028*56",1777575722.125353,677090000,1.082
1777575722.223900,68522.000000,tod,GGA,39.7375787700,-84.1764193917,240.6959,4,12,1.10,,,,,,,,,"$GPGGA,190202.00,3944.2547262,N,08410.5851635,W,4,12,1.1,240.6959,M,-33.3702,M,1.0,1271*78",1777575722.222332,677187500,1.568
1777575722.224566,,,HDT,,,,,,,,,,93.0110,,,,,"$GPHDT,93.011,T*0F",1777575722.222332,677187500,2.234
1777575722.226776,68522.000000,tod,GST,,,,,,,0.0110,0.0080,0.0290,,,,,,"$GPGST,190202.00,0.219,0.011,0.008,353.477,0.011,0.008,0.029*5F",1777575722.225221,677190000,1.555
1777575722.324440,68522.100000,tod,GGA,39.7375787683,-84.1764194033,240.6964,4,13,1.00,,,,,,,,,"$GPGGA,190202.10,3944.2547261,N,08410.5851642,W,4,13,1.0,240.6964,M,-33.3702,M,1.1,1271*75",1777575722.322013,677287500,2.427
1777575722.325710,,,HDT,,,,,,,,,,92.9850,,,,,"$GPHDT,92.985,T*0A",1777575722.324825,677290000,0.885
1777575722.328718,68522.100000,tod,GST,,,,,,,0.0110,0.0080,0.0280,,,,,,"$GPGST,190202.10,0.174,0.011,0.008,347.781,0.011,0.008,0.028*58",1777575722.327132,677292500,1.586
1777575722.345500,,,PARSE_ERR,,,,,,,,,,,,,,,$TD,1777575722.344450,677310000,1.050
1777575722.567554,68522.200000,tod,GGA,39.7375787200,-84.1764193867,240.7001,4,13,1.00,,,,,,,,,"$GPGGA,190202.20,3944.2547232,N,08410.5851632,W,4,13,1.0,240.7001,M,-33.3702,M,1.2,1271*7F",1777575722.566366,677532500,1.188
1777575722.568191,,,HDT,,,,,,,,,,91.8060,,,,,"$GPHDT,91.806,T*03",1777575722.566366,677532500,1.825
1777575722.570507,68522.200000,tod,GST,,,,,,,0.0110,0.0080,0.0280,,,,,,"$GPGST,190202.20,0.174,0.011,0.008,353.524,0.011,0.008,0.028*53",1777575722.568848,677535000,1.659
1777575722.573589,68522.300000,tod,GGA,39.7375786583,-84.1764193800,240.7249,4,13,1.00,,,,,,,,,"$GPGGA,190202.30,3944.2547195,N,08410.5851628,W,4,13,1.0,240.7249,M,-33.3702,M,1.3,1271*74",1777575722.571342,677537500,2.247
1777575722.574782,,,HDT,,,,,,,,,,90.1040,,,,,"$GPHDT,90.104,T*09",1777575722.573992,677540000,0.790
1777575722.576729,68522.300000,tod,GST,,,,,,,0.0110,0.0070,0.0270,,,,,,"$GPGST,190202.30,0.174,0.011,0.007,356.340,0.011,0.007,0.027*5C",1777575722.576336,677542500,0.393
