GPS TOW (s),GPS Week,Latitude (deg),Longitude (deg),Ellipsoid Height (m),ECEF X (m),ECEF Y (m),ECEF Z (m),Roll (deg),Pitch (deg),Heading (deg),East Velocity (m/s),North Velocity (m/s),Up Velocity (m/s)
177000.0, 2324, 35.66757141, 139.79107629, 39.526, -3961765.524, 3349009.266, 3698311.468, -1.416,  2.532, 312.186, -0.002, -0.002, -0.001
177000.2, 2324, 35.66757141, 139.79107629, 39.526, -3961765.524, 3349009.266, 3698311.468, -1.409,  2.529, 312.191, -0.001, -0.004, -0.002
177000.4, 2324, 35.66757141, 139.79107629, 39.526, -3961765.524, 3349009.266, 3698311.468, -1.408,  2.532, 312.193,  0.000, -0.003, -0.002
177000.6, 2324, 35.66757141, 139.79107629, 39.526, -3961765.524, 3349009.266, 3698311.468, -1.408,  2.533, 312.199, -0.001, -0.006, -0.001
177000.8, 2324, 35.66757141, 139.79107629, 39.526, -3961765.524, 3349009.266, 3698311.468, -1.405,  2.531, 312.205,  0.002, -0.001, -0.002
177001.0, 2324, 35.66757141, 139.79107629, 39.526, -3961765.524, 3349009.266, 3698311.468, -1.409,  2.532, 312.213,  0.001, -0.005, -0.002
177001.2, 2324, 35.66757141, 139.79107629, 39.526, -3961765.524, 3349009.266, 3698311.468, -1.407,  2.533, 312.216,  0.001, -0.002, -0.002
177001.4, 2324, 35.66757141, 139.79107629, 39.526, -3961765.524, 3349009.266, 3698311.468, -1.408,  2.534, 312.224,  0.000, -0.003, -0.001
177001.6, 2324, 35.66757141, 139.79107629, 39.526, -3961765.524, 3349009.266, 3698311.468, -1.409,  2.532, 312.228, -0.000, -0.002, -0.002
177001.8, 2324, 35.66757141, 139.79107629, 39.526, -3961765.524, 3349009.266, 3698311.468, -1.411,  2.532, 312.237,  0.001, -0.004, -0.000
177002.0, 2324, 35.66757141, 139.79107629, 39.526, -3961765.524, 3349009.266, 3698311.468, -1.405,  2.535, 312.246,  0.001, -0.005, -0.001
177002.2, 2324, 35.66757141, 139.79107629, 39.526, -3961765.524, 3349009.266, 3698311.468, -1.408,  2.535, 312.250, -0.001, -0.005, -0.001
177002.4, 2324, 35.66757141, 139.79107629, 39.526, -3961765.524, 3349009.266, 3698311.468, -1.406,  2.535, 312.258, -0.001, -0.005, -0.001
177002.6, 2324, 35.66757141, 139.79107629, 39.526, -3961765.524, 3349009.266, 3698311.468, -1.407,  2.534, 312.259, -0.001, -0.006, -0.001
177002.8, 2324, 35.66757141, 139.79107629, 39.526, -3961765.524, 3349009.266, 3698311.468, -1.407,  2.535, 312.264, -0.001, -0.002, -0.001
177003.0, 2324, 35.66757141, 139.79107629, 39.526, -3961765.524, 3349009.266, 3698311.468, -1.404,  2.534, 312.268,  0.000, -0.001, -0.001
177003.2, 2324, 35.66757141, 139.79107629, 39.526, -3961765.524, 3349009.266, 3698311.468, -1.405,  2.533, 312.273, -0.000,  0.001, -0.001
177003.4, 2324, 35.66757141, 139.79107629, 39.526, -3961765.524, 3349009.266, 3698311.468, -1.405,  2.532, 312.274,  0.000,  0.003, -0.001
177003.6, 2324, 35.66757141, 139.79107629, 39.526, -3961765.524, 3349009.266, 3698311.468, -1.404,  2.532, 312.278, -0.001,  0.004, -0.002
177003.8, 2324, 35.66757141, 139.79107629, 39.526, -3961765.524, 3349009.266, 3698311.468, -1.405,  2.532, 312.278, -0.000,  0.005, -0.001
177004.0, 2324, 35.66757141, 139.79107629, 39.526, -3961765.524, 3349009.266, 3698311.468, -1.407,  2.533, 312.280,  0.001,  0.003,  0.000
177004.2, 2324, 35.66757141, 139.79107629, 39.526, -3961765.524, 3349009.266, 3698311.468, -1.413,  2.533, 312.284,  0.002,  0.005,  0.001
177004.4, 2324, 35.66757141, 139.79107629, 39.526, -3961765.524, 3349009.266, 3698311.468, -1.411,  2.534, 312.289, -0.000,  0.006,  0.000
177004.6, 2324, 35.66757141, 139.79107629, 39.526, -3961765.524, 3349009.266, 3698311.468, -1.413,  2.535, 312.287,  0.000,  0.004,  0.000
177004.8, 2324, 35.66757141, 139.79107629, 39.526, -3961765.524, 3349009.266, 3698311.468, -1.409,  2.534, 312.294, -0.000,  0.006, -0.000
177005.0, 2324, 35.66757141, 139.79107629, 39.526, -3961765.524, 3349009.266, 3698311.468, -1.411,  2.534, 312.300,  0.001,  0.003,  0.000
177005.2, 2324, 35.66757141, 139.79107629, 39.526, -3961765.524, 3349009.266, 3698311.468, -1.412,  2.537, 312.303,  0.001,  0.002,  0.000
177005.4, 2324, 35.66757141, 139.79107629, 39.526, -3961765.524, 3349009.266, 3698311.468, -1.405,  2.532, 312.308,  0.002,  0.002, -0.000
177005.6, 2324, 35.66757141, 139.79107629, 39.526, -3961765.524, 3349009.266, 3698311.468, -1.404,  2.530, 312.313,  0.001,  0.004,  0.001
177005.8, 2324, 35.66757141, 139.79107629, 39.526, -3961765.524, 3349009.266, 3698311.468, -1.408,  2.531, 312.318,  0.001,  0.003,  0.003
177006.0, 2324, 35.66757141, 139.79107629, 39.526, -3961765.524, 3349009.266, 3698311.468, -1.406,  2.530, 312.319,  0.003,  0.003,  0.001
177006.2, 2324, 35.66757141, 139.79107629, 39.526, -3961765.524, 3349009.266, 3698311.468, -1.414,  2.533, 312.326,  0.001,  0.004,  0.000
177006.4, 2324, 35.66757141, 139.79107629, 39.526, -3961765.524, 3349009.266, 3698311.468, -1.418,  2.540, 312.328,  0.000, -0.003, -0.000
177006.6, 2324, 35.66757141, 139.79107629, 39.526, -3961765.524, 3349009.266, 3698311.468, -1.412,  2.526, 312.342, -0.005, -0.001, -0.001
177006.8, 2324, 35.66757141, 139.79107629, 39.526, -3961765.524, 3349009.266, 3698311.468, -1.432,  2.536, 312.344,  0.005,  0.004,  0.002
177007.0, 2324, 35.66757141, 139.79107629, 39.526, -3961765.524, 3349009.266, 3698311.468, -1.422,  2.529, 312.350, -0.004,  0.001, -0.002
177007.2, 2324, 35.66757141, 139.79107629, 39.526, -3961765.524, 3349009.266, 3698311.468, -1.417,  2.531, 312.356, -0.002, -0.000, -0.000
177007.4, 2324, 35.66757141, 139.79107629, 39.526, -3961765.524, 3349009.266, 3698311.468, -1.423,  2.533, 312.358,  0.002, -0.001,  0.001
177007.6, 2324, 35.66757141, 139.79107629, 39.526, -3961765.524, 3349009.266, 3698311.468, -1.426,  2.534, 312.360,  0.001,  0.002,  0.001
177007.8, 2324, 35.66757141, 139.79107629, 39.526, -3961765.524, 3349009.266, 3698311.468, -1.422,  2.535, 312.365,  0.000,  0.001,  0.000
177008.0, 2324, 35.66757141, 139.79107629, 39.526, -3961765.524, 3349009.266, 3698311.468, -1.423,  2.533, 312.373, -0.001,  0.003, -0.001
177008.2, 2324, 35.66757141, 139.79107629, 39.526, -3961765.524, 3349009.266, 3698311.468, -1.424,  2.531, 312.382,  0.000,  0.004, -0.001
177008.4, 2324, 35.66757141, 139.79107629, 39.526, -3961765.524, 3349009.266, 3698311.468, -1.425,  2.528, 312.381, -0.002,  0.003, -0.001
177008.6, 2324, 35.66757141, 139.79107629, 39.526, -3961765.524, 3349009.266, 3698311.468, -1.428,  2.526, 312.386, -0.002, -0.001, -0.001
177008.8, 2324, 35.66757141, 139.79107629, 39.526, -3961765.524, 3349009.266, 3698311.468, -1.427,  2.531, 312.390,  0.001,  0.001, -0.001
177009.0, 2324, 35.66757141, 139.79107629, 39.526, -3961765.524, 3349009.266, 3698311.468, -1.428,  2.531, 312.390, -0.000, -0.001, -0.001
177009.2, 2324, 35.66757141, 139.79107629, 39.526, -3961765.524, 3349009.266, 3698311.468, -1.427,  2.533, 312.391, -0.002, -0.002,  0.001
177009.4, 2324, 35.66757141, 139.79107629, 39.526, -3961765.524, 3349009.266, 3698311.468, -1.423,  2.531, 312.397, -0.001, -0.002, -0.000
177009.6, 2324, 35.66757141, 139.79107629, 39.526, -3961765.524, 3349009.266, 3698311.468, -1.424,  2.535, 312.399,  0.000,  0.001, -0.001
177009.8, 2324, 35.66757141, 139.79107629, 39.526, -3961765.524, 3349009.266, 3698311.468, -1.422,  2.527, 312.404, -0.001, -0.001,  0.000
177010.0, 2324, 35.66757141, 139.79107629, 39.526, -3961765.524, 3349009.266, 3698311.468, -1.419,  2.532, 312.412, -0.001, -0.002, -0.001
177010.2, 2324, 35.66757141, 139.79107629, 39.526, -3961765.524, 3349009.266, 3698311.468, -1.427,  2.529, 312.415, -0.001,  0.001, -0.001
177010.4, 2324, 35.66757141, 139.79107629, 39.526, -3961765.524, 3349009.266, 3698311.468, -1.424,  2.529, 312.424, -0.001, -0.003, -0.000
177010.6, 2324, 35.66757141, 139.79107629, 39.526, -3961765.524, 3349009.266, 3698311.468, -1.426,  2.524, 312.433, -0.001, -0.003, -0.001
177010.8, 2324, 35.66757141, 139.79107629, 39.526, -3961765.524, 3349009.266, 3698311.468, -1.426,  2.528, 312.434, -0.001, -0.001, -0.001
177011.0, 2324, 35.66757141, 139.79107629, 39.526, -3961765.524, 3349009.266, 3698311.468, -1.425,  2.524, 312.440,  0.000, -0.001, -0.002
177011.2, 2324, 35.66757141, 139.79107629, 39.526, -3961765.524, 3349009.266, 3698311.468, -1.424,  2.527, 312.443, -0.002,  0.000, -0.000
177011.4, 2324, 35.66757141, 139.79107629, 39.526, -3961765.524, 3349009.266, 3698311.468, -1.421,  2.527, 312.449,  0.000,  0.000, -0.000
177011.6, 2324, 35.66757141, 139.79107629, 39.526, -3961765.524, 3349009.266, 3698311.468, -1.420,  2.528, 312.455,  0.000,  0.003, -0.001
177011.8, 2324, 35.66757141, 139.79107629, 39.526, -3961765.524, 3349009.266, 3698311.468, -1.422,  2.526, 312.465, -0.000,  0.002, -0.001
177012.0, 2324, 35.66757141, 139.79107629, 39.526, -3961765.524, 3349009.266, 3698311.468, -1.424,  2.524, 312.466, -0.001,  0.000, -0.001
177012.2, 2324, 35.66757141, 139.79107629, 39.526, -3961765.524, 3349009.266, 3698311.468, -1.420,  2.526, 312.469, -0.001,  0.001, -0.000
177012.4, 2324, 35.66757141, 139.79107629, 39.526, -3961765.524, 3349009.266, 3698311.468, -1.418,  2.527, 312.477,  0.000, -0.001,  0.001
177012.6, 2324, 35.66757141, 139.79107629, 39.526, -3961765.524, 3349009.266, 3698311.468, -1.414,  2.525, 312.485, -0.002,  0.000,  0.001
177012.8, 2324, 35.66757141, 139.79107629, 39.526, -3961765.524, 3349009.266, 3698311.468, -1.410,  2.527, 312.487, -0.002, -0.001, -0.001
177013.0, 2324, 35.66757141, 139.79107629, 39.526, -3961765.524, 3349009.266, 3698311.468, -1.424,  2.522, 312.489,  0.000,  0.003,  0.000
177013.2, 2324, 35.66757141, 139.79107629, 39.526, -3961765.524, 3349009.266, 3698311.468, -1.418,  2.524, 312.494, -0.003,  0.002,  0.001
177013.4, 2324, 35.66757141, 139.79107629, 39.526, -3961765.524, 3349009.266, 3698311.468, -1.416,  2.523, 312.506, -0.002,  0.005,  0.002
177013.6, 2324, 35.66757141, 139.79107629, 39.526, -3961765.524, 3349009.266, 3698311.468, -1.416,  2.523, 312.517, -0.001,  0.004,  0.001
177013.8, 2324, 35.66757141, 139.79107629, 39.526, -3961765.524, 3349009.266, 3698311.468, -1.417,  2.527, 312.524,  0.000,  0.006, -0.000
177014.0, 2324, 35.66757141, 139.79107629, 39.526, -3961765.524, 3349009.266, 3698311.468, -1.417,  2.529, 312.532, -0.002,  0.007,  0.002
177014.2, 2324, 35.66757141, 139.79107629, 39.526, -3961765.524, 3349009.266, 3698311.468, -1.414,  2.529, 312.536, -0.002,  0.004,  0.003
177014.4, 2324, 35.66757141, 139.79107629, 39.526, -3961765.524, 3349009.266, 3698311.468, -1.421,  2.527, 312.538,  0.000, -0.002,  0.004
177014.6, 2324, 35.66757141, 139.79107629, 39.526, -3961765.524, 3349009.266, 3698311.468, -1.416,  2.524, 312.544, -0.006, -0.007,  0.004
177014.8, 2324, 35.66757141, 139.79107629, 39.526, -3961765.524, 3349009.266, 3698311.468, -1.419,  2.543, 312.545,  0.001, -0.010,  0.005
177015.0, 2324, 35.66757141, 139.79107629, 39.526, -3961765.524, 3349009.266, 3698311.468, -1.416,  2.535, 312.558, -0.011,  0.026,  0.004
177015.2, 2324, 35.66757141, 139.79107629, 39.526, -3961765.524, 3349009.266, 3698311.468, -1.412,  2.544, 312.563, -0.010,  0.002,  0.003
177015.4, 2324, 35.66757141, 139.79107629, 39.526, -3961765.524, 3349009.266, 3698311.468, -1.417,  2.530, 312.565,  0.003, -0.003, -0.001
177015.6, 2324, 35.66757141, 139.79107629, 39.526, -3961765.524, 3349009.266, 3698311.468, -1.420,  2.532, 312.567, -0.005,  0.004,  0.003
177015.8, 2324, 35.66757141, 139.79107629, 39.526, -3961765.524, 3349009.266, 3698311.468, -1.415,  2.539, 312.573, -0.002,  0.003,  0.002
177016.0, 2324, 35.66757141, 139.79107629, 39.526, -3961765.524, 3349009.266, 3698311.468, -1.416,  2.537, 312.577,  0.001, -0.002,  0.001
177016.2, 2324, 35.66757141, 139.79107629, 39.526, -3961765.524, 3349009.266, 3698311.468, -1.421,  2.537, 312.578, -0.001,  0.002,  0.002
177016.4, 2324, 35.66757141, 139.79107629, 39.526, -3961765.524, 3349009.266, 3698311.468, -1.422,  2.536, 312.587, -0.003,  0.001,  0.000
177016.6, 2324, 35.66757141, 139.79107629, 39.526, -3961765.524, 3349009.266, 3698311.468, -1.424,  2.534, 312.593, -0.000,  0.003,  0.000
177016.8, 2324, 35.66757141, 139.79107629, 39.526, -3961765.524, 3349009.266, 3698311.468, -1.424,  2.532, 312.595, -0.003,  0.002,  0.000
177017.0, 2324, 35.66757141, 139.79107629, 39.526, -3961765.524, 3349009.266, 3698311.468, -1.423,  2.538, 312.600, -0.002, -0.001,  0.001
177017.2, 2324, 35.66757141, 139.79107629, 39.526, -3961765.524, 3349009.266, 3698311.468, -1.427,  2.539, 312.601, -0.001,  0.001, -0.001
177017.4, 2324, 35.66757141, 139.79107629, 39.526, -3961765.524, 3349009.266, 3698311.468, -1.429,  2.517, 312.604, -0.001, -0.002,  0.003
177017.6, 2324, 35.66757141, 139.79107629, 39.526, -3961765.524, 3349009.266, 3698311.468, -1.426,  2.538, 312.612, -0.009,  0.009, -0.001
177017.8, 2324, 35.66757141, 139.79107629, 39.526, -3961765.524, 3349009.266, 3698311.468, -1.430,  2.547, 312.617, -0.001, -0.024, -0.001
177018.0, 2324, 35.66757141, 139.79107629, 39.526, -3961765.524, 3349009.266, 3698311.468, -1.424,  2.542, 312.632,  0.001,  0.009, -0.001
177018.2, 2324, 35.66757141, 139.79107629, 39.526, -3961765.524, 3349009.266, 3698311.468, -1.421,  2.544, 312.635, -0.008, -0.012,  0.001
177018.4, 2324, 35.66757141, 139.79107629, 39.526, -3961765.524, 3349009.266, 3698311.468, -1.419,  2.544, 312.636,  0.001,  0.011, -0.002
177018.6, 2324, 35.66757141, 139.79107629, 39.526, -3961765.524, 3349009.266, 3698311.468, -1.410,  2.541, 312.639, -0.003, -0.015, -0.000
177018.8, 2324, 35.66757141, 139.79107629, 39.526, -3961765.524, 3349009.266, 3698311.468, -1.421,  2.548, 312.642,  0.001,  0.001,  0.001
177019.0, 2324, 35.66757141, 139.79107629, 39.526, -3961765.524, 3349009.266, 3698311.468, -1.403,  2.539, 312.651,  0.000, -0.004, -0.002
177019.2, 2324, 35.66757141, 139.79107629, 39.526, -3961765.524, 3349009.266, 3698311.468, -1.418,  2.545, 312.656, -0.000, -0.009,  0.001
177019.4, 2324, 35.66757141, 139.79107629, 39.526, -3961765.524, 3349009.266, 3698311.468, -1.403,  2.539, 312.663,  0.004,  0.014, -0.004
177019.6, 2324, 35.66757141, 139.79107629, 39.526, -3961765.524, 3349009.266, 3698311.468, -1.411,  2.546, 312.666, -0.002, -0.019,  0.001
177019.8, 2324, 35.66757141, 139.79107629, 39.526, -3961765.524, 3349009.266, 3698311.468, -1.409,  2.538, 312.673,  0.006,  0.010, -0.002
177020.0, 2324, 35.66757141, 139.79107629, 39.526, -3961765.524, 3349009.266, 3698311.468, -1.391,  2.544, 312.685, -0.001, -0.016, -0.004
177020.2, 2324, 35.66757141, 139.79107629, 39.526, -3961765.524, 3349009.266, 3698311.468, -1.396,  2.545, 312.693,  0.006,  0.007, -0.004
177020.4, 2324, 35.66757140, 139.79107630, 39.524, -3961765.524, 3349009.265, 3698311.466, -1.389,  2.538, 312.697,  0.005, -0.005, -0.006
177020.6, 2324, 35.66757141, 139.79107631, 39.523, -3961765.524, 3349009.263, 3698311.466, -1.405,  2.543, 312.699,  0.003, -0.003, -0.005
177020.8, 2324, 35.66757146, 139.79107625, 39.521, -3961765.517, 3349009.264, 3698311.470, -1.409,  2.556, 312.697, -0.056,  0.067, -0.006
177021.0, 2324, 35.66757162, 139.79107605, 39.520, -3961765.496, 3349009.271, 3698311.484, -1.423,  2.562, 312.723, -0.111,  0.105, -0.004
177021.2, 2324, 35.66757187, 139.79107577, 39.520, -3961765.468, 3349009.280, 3698311.506, -1.448,  2.592, 312.765, -0.153,  0.134,  0.001
177021.4, 2324, 35.66757220, 139.79107539, 39.520, -3961765.429, 3349009.292, 3698311.536, -1.462,  2.627, 312.861, -0.195,  0.196,  0.000
177021.6, 2324, 35.66757263, 139.79107489, 39.520, -3961765.379, 3349009.309, 3698311.575, -1.465,  2.649, 313.025, -0.249,  0.270, -0.003
177021.8, 2324, 35.66757316, 139.79107427, 39.520, -3961765.316, 3349009.330, 3698311.622, -1.478,  2.667, 313.280, -0.298,  0.293, -0.002
177022.0, 2324, 35.66757378, 139.79107358, 39.520, -3961765.245, 3349009.352, 3698311.678, -1.461,  2.681, 313.625, -0.332,  0.347,  0.001
177022.2, 2324, 35.66757450, 139.79107280, 39.520, -3961765.164, 3349009.375, 3698311.743, -1.425,  2.706, 314.029, -0.372,  0.412, -0.003
177022.4, 2324, 35.66757528, 139.79107191, 39.521, -3961765.074, 3349009.405, 3698311.814, -1.418,  2.741, 314.481, -0.413,  0.435,  0.002
177022.6, 2324, 35.66757614, 139.79107095, 39.521, -3961764.976, 3349009.435, 3698311.892, -1.398,  2.805, 314.950, -0.449,  0.494, -0.007
177022.8, 2324, 35.66757716, 139.79106983, 39.520, -3961764.859, 3349009.470, 3698311.983, -1.368,  2.897, 315.479, -0.560,  0.628, -0.002
177023.0, 2324, 35.66757849, 139.79106845, 39.520, -3961764.713, 3349009.510, 3698312.103, -1.352,  2.973, 316.092, -0.698,  0.798, -0.006
177023.2, 2324, 35.66758014, 139.79106680, 39.520, -3961764.535, 3349009.555, 3698312.252, -1.293,  3.041, 316.757, -0.840,  0.957, -0.002
177023.4, 2324, 35.66758202, 139.79106481, 39.519, -3961764.325, 3349009.613, 3698312.421, -1.379,  3.167, 317.433, -0.954,  1.078, -0.007
177023.6, 2324, 35.66758413, 139.79106264, 39.520, -3961764.094, 3349009.676, 3698312.611, -1.324,  3.245, 318.095, -1.034,  1.218,  0.000
177023.8, 2324, 35.66758641, 139.79106026, 39.520, -3961763.843, 3349009.745, 3698312.817, -1.513,  3.288, 318.582, -1.086,  1.288,  0.007
177024.0, 2324, 35.66758888, 139.79105789, 39.518, -3961763.581, 3349009.805, 3698313.038, -1.524,  3.519, 318.972, -1.143,  1.374, -0.001
177024.2, 2324, 35.66759149, 139.79105537, 39.520, -3961763.306, 3349009.871, 3698313.275, -1.520,  3.527, 319.227, -1.209,  1.469,  0.013
177024.4, 2324, 35.66759422, 139.79105257, 39.523, -3961763.009, 3349009.952, 3698313.523, -1.618,  3.391, 319.391, -1.297,  1.593,  0.026
177024.6, 2324, 35.66759712, 139.79104964, 39.526, -3961762.696, 3349010.035, 3698313.786, -1.610,  3.328, 319.475, -1.351,  1.657,  0.014
177024.8, 2324, 35.66760020, 139.79104656, 39.528, -3961762.366, 3349010.121, 3698314.065, -1.493,  3.327, 319.531, -1.424,  1.752,  0.021
177025.0, 2324, 35.66760345, 139.79104337, 39.536, -3961762.023, 3349010.210, 3698314.362, -1.371,  3.163, 319.564, -1.499,  1.781,  0.005
177025.2, 2324, 35.66760679, 139.79104007, 39.540, -3961761.668, 3349010.300, 3698314.666, -1.428,  3.195, 319.578, -1.543,  1.879,  0.054
177025.4, 2324, 35.66761025, 139.79103661, 39.545, -3961761.298, 3349010.398, 3698314.980, -1.383,  3.185, 319.613, -1.602,  1.975,  0.000
177025.6, 2324, 35.66761385, 139.79103298, 39.540, -3961760.905, 3349010.496, 3698315.302, -1.465,  3.363, 319.649, -1.654,  2.069, -0.030
177025.8, 2324, 35.66761763, 139.79102921, 39.540, -3961760.498, 3349010.599, 3698315.643, -1.475,  3.379, 319.666, -1.742,  2.170,  0.023
177026.0, 2324, 35.66762163, 139.79102526, 39.544, -3961760.072, 3349010.707, 3698316.006, -1.461,  3.230, 319.650, -1.844,  2.239,  0.010
177026.2, 2324, 35.66762579, 139.79102112, 39.547, -3961759.626, 3349010.821, 3698316.382, -1.501,  3.180, 319.518, -1.923,  2.353,  0.035
177026.4, 2324, 35.66763014, 139.79101674, 39.553, -3961759.159, 3349010.945, 3698316.778, -1.475,  3.014, 319.252, -2.040,  2.452,  0.019
177026.6, 2324, 35.66763462, 139.79101215, 39.555, -3961758.670, 3349011.077, 3698317.183, -1.459,  2.817, 318.916, -2.100,  2.502,  0.009
177026.8, 2324, 35.66763914, 139.79100749, 39.554, -3961758.174, 3349011.209, 3698317.590, -1.377,  2.908, 318.594, -2.126,  2.511, -0.032
177027.0, 2324, 35.66764368, 139.79100277, 39.551, -3961757.672, 3349011.345, 3698317.997, -1.342,  2.916, 318.281, -2.159,  2.536,  0.022
177027.2, 2324, 35.66764822, 139.79099800, 39.553, -3961757.170, 3349011.486, 3698318.408, -1.251,  2.808, 317.927, -2.184,  2.501, -0.007
177027.4, 2324, 35.66765274, 139.79099323, 39.549, -3961756.665, 3349011.625, 3698318.813, -0.977,  2.840, 317.488, -2.150,  2.509,  0.001
177027.6, 2324, 35.66765719, 139.79098841, 39.552, -3961756.166, 3349011.774, 3698319.216, -0.852,  2.693, 317.035, -2.168,  2.464,  0.011
177027.8, 2324, 35.66766166, 139.79098364, 39.550, -3961755.665, 3349011.916, 3698319.617, -0.231,  2.325, 316.640, -2.158,  2.464, -0.032
177028.0, 2324, 35.66766594, 139.79097879, 39.547, -3961755.168, 3349012.071, 3698320.001, -0.537,  2.508, 316.281, -2.203,  2.290, -0.008
177028.2, 2324, 35.66767014, 139.79097400, 39.545, -3961754.679, 3349012.226, 3698320.379, -0.985,  2.951, 315.924, -2.146,  2.322, -0.000
177028.4, 2324, 35.66767437, 139.79096928, 39.542, -3961754.193, 3349012.374, 3698320.758, -0.830,  2.920, 315.654, -2.134,  2.305, -0.025
177028.6, 2324, 35.66767855, 139.79096462, 39.527, -3961753.704, 3349012.514, 3698321.126, -0.624,  3.238, 315.326, -2.117,  2.273, -0.077
177028.8, 2324, 35.66768266, 139.79095989, 39.528, -3961753.225, 3349012.670, 3698321.497, -0.685,  3.128, 315.084, -2.143,  2.233,  0.046
177029.0, 2324, 35.66768671, 139.79095513, 39.540, -3961752.755, 3349012.836, 3698321.870, -0.992,  2.729, 315.007, -2.132,  2.214,  0.045
177029.2, 2324, 35.66769070, 139.79095048, 39.540, -3961752.286, 3349012.991, 3698322.229, -0.899,  2.546, 314.970, -2.091,  2.216, -0.022
177029.4, 2324, 35.66769463, 139.79094584, 39.537, -3961751.818, 3349013.146, 3698322.582, -0.991,  2.497, 314.926, -2.087,  2.168,  0.003
177029.6, 2324, 35.66769856, 139.79094127, 39.536, -3961751.356, 3349013.297, 3698322.935, -0.863,  2.432, 314.910, -2.062,  2.151,  0.005
177029.8, 2324, 35.66770242, 139.79093672, 39.534, -3961750.899, 3349013.450, 3698323.282, -0.903,  2.489, 314.855, -2.050,  2.137, -0.009
177030.0, 2324, 35.66770624, 139.79093223, 39.529, -3961750.444, 3349013.598, 3698323.624, -0.895,  2.589, 314.832, -2.015,  2.099, -0.035
177030.2, 2324, 35.66770999, 139.79092773, 39.523, -3961749.992, 3349013.749, 3698323.958, -1.033,  2.864, 314.803, -2.035,  2.090, -0.003
177030.4, 2324, 35.66771381, 139.79092330, 39.519, -3961749.542, 3349013.894, 3698324.300, -0.681,  2.700, 314.819, -2.001,  2.076, -0.018
177030.6, 2324, 35.66771751, 139.79091885, 39.518, -3961749.099, 3349014.046, 3698324.633, -0.814,  2.836, 314.841, -1.995,  2.036,  0.010
177030.8, 2324, 35.66772119, 139.79091448, 39.517, -3961748.661, 3349014.194, 3698324.964, -0.823,  2.917, 314.914, -1.957,  2.054, -0.021
177031.0, 2324, 35.66772484, 139.79091016, 39.520, -3961748.230, 3349014.342, 3698325.295, -0.804,  2.903, 314.976, -1.933,  2.030,  0.048
177031.2, 2324, 35.66772846, 139.79090595, 39.518, -3961747.803, 3349014.481, 3698325.620, -0.583,  3.035, 315.010, -1.861,  1.999, -0.070
177031.4, 2324, 35.66773202, 139.79090180, 39.514, -3961747.383, 3349014.617, 3698325.939, -0.476,  2.985, 315.079, -1.875,  1.914,  0.013
177031.6, 2324, 35.66773533, 139.79089785, 39.519, -3961746.991, 3349014.755, 3698326.240, -0.706,  2.935, 315.114, -1.686,  1.763,  0.037
177031.8, 2324, 35.66773844, 139.79089430, 39.521, -3961746.631, 3349014.871, 3698326.521, -0.496,  2.903, 315.174, -1.531,  1.650, -0.015
177032.0, 2324, 35.66774129, 139.79089096, 39.522, -3961746.296, 3349014.984, 3698326.779, -0.620,  3.019, 315.258, -1.475,  1.521,  0.001
177032.2, 2324, 35.66774403, 139.79088781, 39.525, -3961745.978, 3349015.089, 3698327.028, -0.317,  3.033, 315.416, -1.369,  1.548,  0.018
177032.4, 2324, 35.66774667, 139.79088475, 39.523, -3961745.668, 3349015.189, 3698327.264, -0.223,  2.877, 315.586, -1.379,  1.430, -0.009
177032.6, 2324, 35.66774915, 139.79088175, 39.519, -3961745.367, 3349015.291, 3698327.486, -0.456,  3.090, 315.718, -1.296,  1.396,  0.012
177032.8, 2324, 35.66775155, 139.79087894, 39.524, -3961745.088, 3349015.388, 3698327.705, -0.539,  3.234, 315.829, -1.216,  1.297,  0.024
177033.0, 2324, 35.66775379, 139.79087635, 39.526, -3961744.827, 3349015.474, 3698327.908, -0.470,  3.334, 315.805, -1.098,  1.203,  0.010
177033.2, 2324, 35.66775578, 139.79087411, 39.527, -3961744.598, 3349015.546, 3698328.088, -0.479,  3.455, 315.806, -0.935,  1.034, -0.004
177033.4, 2324, 35.66775750, 139.79087219, 39.527, -3961744.401, 3349015.607, 3698328.243, -0.475,  3.416, 315.828, -0.781,  0.891,  0.012
177033.6, 2324, 35.66775901, 139.79087051, 39.531, -3961744.231, 3349015.663, 3698328.381, -0.515,  3.244, 315.855, -0.694,  0.803,  0.025
177033.8, 2324, 35.66776035, 139.79086907, 39.531, -3961744.080, 3349015.706, 3698328.502, -0.412,  3.225, 315.909, -0.620,  0.702, -0.004
177034.0, 2324, 35.66776158, 139.79086778, 39.529, -3961743.943, 3349015.743, 3698328.612, -0.302,  3.254, 315.940, -0.566,  0.649, -0.009
177034.2, 2324, 35.66776272, 139.79086657, 39.526, -3961743.814, 3349015.777, 3698328.713, -0.238,  3.223, 316.004, -0.535,  0.596, -0.004
177034.4, 2324, 35.66776374, 139.79086545, 39.525, -3961743.697, 3349015.812, 3698328.804, -0.307,  3.271, 316.041, -0.460,  0.530, -0.004
177034.6, 2324, 35.66776443, 139.79086478, 39.528, -3961743.626, 3349015.831, 3698328.868, -0.183,  3.771, 316.076, -0.147,  0.222,  0.018
177034.8, 2324, 35.66776469, 139.79086456, 39.529, -3961743.601, 3349015.836, 3698328.892, -0.207,  4.374, 316.080, -0.064,  0.105,  0.004
177035.0, 2324, 35.66776479, 139.79086456, 39.528, -3961743.595, 3349015.831, 3698328.901, -0.215,  4.253, 316.093,  0.061,  0.001, -0.006
177035.2, 2324, 35.66776470, 139.79086478, 39.527, -3961743.612, 3349015.819, 3698328.892, -0.188,  4.204, 316.089,  0.128, -0.080, -0.007
177035.4, 2324, 35.66776458, 139.79086504, 39.523, -3961743.631, 3349015.804, 3698328.879, -0.156,  4.124, 316.095,  0.093, -0.052, -0.024
177035.6, 2324, 35.66776459, 139.79086512, 39.521, -3961743.634, 3349015.797, 3698328.879, -0.166,  4.161, 316.096, -0.015,  0.061,  0.006
177035.8, 2324, 35.66776477, 139.79086499, 39.521, -3961743.617, 3349015.798, 3698328.895, -0.183,  4.340, 316.104, -0.109,  0.149,  0.002
177036.0, 2324, 35.66776516, 139.79086460, 39.523, -3961743.576, 3349015.810, 3698328.931, -0.222,  4.711, 316.129, -0.250,  0.289,  0.008
177036.2, 2324, 35.66776585, 139.79086384, 39.525, -3961743.499, 3349015.835, 3698328.994, -0.326,  5.130, 316.153, -0.445,  0.481,  0.014
177036.4, 2324, 35.66776693, 139.79086263, 39.529, -3961743.378, 3349015.876, 3698329.094, -0.345,  5.206, 316.204, -0.649,  0.724,  0.026
177036.6, 2324, 35.66776846, 139.79086089, 39.533, -3961743.203, 3349015.934, 3698329.234, -0.416,  4.347, 316.286, -0.949,  0.976,  0.014
177036.8, 2324, 35.66777038, 139.79085866, 39.534, -3961742.978, 3349016.009, 3698329.408, -0.459,  2.587, 316.344, -0.931,  1.040,  0.021
177037.0, 2324, 35.66777216, 139.79085667, 39.546, -3961742.781, 3349016.078, 3698329.575, -0.348,  3.523, 316.466, -0.927,  0.994,  0.085
177037.2, 2324, 35.66777400, 139.79085452, 39.552, -3961742.568, 3349016.153, 3698329.745, -0.555,  3.330, 316.530, -0.974,  1.051, -0.026
177037.4, 2324, 35.66777589, 139.79085237, 39.549, -3961742.348, 3349016.221, 3698329.913, -0.547,  3.363, 316.624, -0.979,  1.042,  0.001
177037.6, 2324, 35.66777779, 139.79085016, 39.547, -3961742.123, 3349016.294, 3698330.084, -0.761,  3.786, 316.641, -1.037,  1.091, -0.023
177037.8, 2324, 35.66777983, 139.79084785, 39.544, -3961741.886, 3349016.367, 3698330.266, -0.760,  3.809, 316.725, -1.039,  1.152, -0.024
177038.0, 2324, 35.66778191, 139.79084551, 39.542, -3961741.645, 3349016.440, 3698330.452, -0.808,  4.107, 316.808, -1.064,  1.143,  0.083
177038.2, 2324, 35.66778399, 139.79084320, 39.619, -3961741.455, 3349016.554, 3698330.684, -0.674,  2.141, 316.937, -1.044,  1.071,  0.371
177038.4, 2324, 35.66778581, 139.79084111, 39.615, -3961741.240, 3349016.620, 3698330.846, -0.929,  2.629, 316.944, -0.913,  0.976, -0.386
177038.6, 2324, 35.66778772, 139.79083910, 39.529, -3961740.975, 3349016.634, 3698330.968, -0.663,  5.023, 316.966, -0.939,  1.190, -0.096
177038.8, 2324, 35.66778992, 139.79083673, 39.576, -3961740.757, 3349016.731, 3698331.194, -0.480,  3.589, 317.129, -1.059,  1.169,  0.181
177039.0, 2324, 35.66779194, 139.79083447, 39.575, -3961740.524, 3349016.802, 3698331.375, -0.575,  4.138, 317.244, -0.987,  1.159, -0.086
177039.2, 2324, 35.66779406, 139.79083220, 39.577, -3961740.288, 3349016.872, 3698331.568, -0.534,  4.194, 317.372, -1.090,  1.150,  0.087
177039.4, 2324, 35.66779622, 139.79082983, 39.587, -3961740.049, 3349016.951, 3698331.768, -0.673,  4.316, 317.713, -1.088,  1.259,  0.005
177039.6, 2324, 35.66779865, 139.79082726, 39.590, -3961739.781, 3349017.028, 3698331.989, -0.709,  4.378, 318.429, -1.267,  1.448,  0.034
177039.8, 2324, 35.66780148, 139.79082433, 39.597, -3961739.474, 3349017.116, 3698332.248, -0.839,  4.208, 319.378, -1.381,  1.671,  0.054
177040.0, 2324, 35.66780471, 139.79082113, 39.611, -3961739.136, 3349017.210, 3698332.547, -0.839,  4.183, 320.491, -1.526,  1.905,  0.067
177040.2, 2324, 35.66780838, 139.79081767, 39.619, -3961738.757, 3349017.300, 3698332.883, -0.763,  4.274, 321.774, -1.601,  2.170,  0.050
177040.4, 2324, 35.66781252, 139.79081400, 39.637, -3961738.350, 3349017.391, 3698333.267, -0.538,  4.123, 323.245, -1.736,  2.404,  0.104
177040.6, 2324, 35.66781705, 139.79081012, 39.654, -3961737.909, 3349017.479, 3698333.685, -0.543,  3.875, 324.844, -1.776,  2.616,  0.034
177040.8, 2324, 35.66782187, 139.79080625, 39.656, -3961737.446, 3349017.546, 3698334.120, -0.587,  4.176, 326.624, -1.757,  2.734,  0.067
177041.0, 2324, 35.66782695, 139.79080250, 39.676, -3961736.989, 3349017.604, 3698334.590, -0.435,  4.027, 328.538, -1.647,  2.856,  0.082
177041.2, 2324, 35.66783215, 139.79079897, 39.688, -3961736.533, 3349017.637, 3698335.066, -0.377,  4.071, 330.619, -1.564,  2.916,  0.060
177041.4, 2324, 35.66783750, 139.79079565, 39.699, -3961736.081, 3349017.649, 3698335.554, -0.345,  3.998, 332.963, -1.427,  3.020,  0.042
177041.6, 2324, 35.66784306, 139.79079267, 39.711, -3961735.640, 3349017.629, 3698336.063,  0.019,  3.827, 335.574, -1.295,  3.132,  0.064
177041.8, 2324, 35.66784880, 139.79078993, 39.727, -3961735.206, 3349017.587, 3698336.589,  0.177,  3.492, 338.286, -1.182,  3.246,  0.064
177042.0, 2324, 35.66785474, 139.79078745, 39.737, -3961734.774, 3349017.516, 3698337.131,  0.119,  3.267, 341.043, -1.060,  3.359,  0.047
177042.2, 2324, 35.66786093, 139.79078533, 39.745, -3961734.349, 3349017.408, 3698337.693,  0.208,  3.255, 343.640, -0.923,  3.466,  0.037
177042.4, 2324, 35.66786733, 139.79078350, 39.747, -3961733.927, 3349017.268, 3698338.271,  0.400,  3.322, 345.879, -0.779,  3.608, -0.015
177042.6, 2324, 35.66787396, 139.79078174, 39.749, -3961733.498, 3349017.114, 3698338.870, -0.019,  3.140, 347.665, -0.756,  3.736,  0.020
177042.8, 2324, 35.66788080, 139.79078025, 39.749, -3961733.073, 3349016.931, 3698339.487,  0.037,  3.184, 349.021, -0.587,  3.877,  0.004
177043.0, 2324, 35.66788787, 139.79077889, 39.758, -3961732.650, 3349016.735, 3698340.129,  0.207,  2.896, 349.925, -0.662,  3.958,  0.050
177043.2, 2324, 35.66789510, 139.79077749, 39.757, -3961732.210, 3349016.529, 3698340.780,  0.012,  2.886, 350.425, -0.617,  4.047, -0.037
177043.4, 2324, 35.66790252, 139.79077608, 39.754, -3961731.759, 3349016.315, 3698341.447, -0.339,  2.776, 350.718, -0.621,  4.182,  0.015
177043.6, 2324, 35.66791011, 139.79077478, 39.754, -3961731.308, 3349016.088, 3698342.132, -0.203,  2.785, 350.941, -0.597,  4.253,  0.015
177043.8, 2324, 35.66791781, 139.79077349, 39.752, -3961730.851, 3349015.854, 3698342.824, -0.058,  2.866, 351.064, -0.583,  4.281, -0.016
177044.0, 2324, 35.66792561, 139.79077216, 39.746, -3961730.384, 3349015.618, 3698343.524, -0.071,  3.123, 351.210, -0.644,  4.373, -0.031
177044.2, 2324, 35.66793355, 139.79077082, 39.745, -3961729.913, 3349015.378, 3698344.239, -0.060,  3.058, 351.290, -0.584,  4.444, -0.007
177044.4, 2324, 35.66794161, 139.79076951, 39.748, -3961729.440, 3349015.134, 3698344.967,  0.227,  3.046, 351.218, -0.608,  4.529,  0.037
177044.6, 2324, 35.66794976, 139.79076811, 39.751, -3961728.957, 3349014.892, 3698345.704,  0.340,  2.955, 351.096, -0.627,  4.561, -0.024
177044.8, 2324, 35.66795798, 139.79076666, 39.750, -3961728.466, 3349014.648, 3698346.444,  0.267,  3.148, 350.955, -0.648,  4.610,  0.019
177045.0, 2324, 35.66796630, 139.79076517, 39.752, -3961727.969, 3349014.405, 3698347.195,  0.218,  3.319, 350.785, -0.673,  4.621,  0.005
177045.2, 2324, 35.66797470, 139.79076365, 39.755, -3961727.467, 3349014.160, 3698347.954,  0.293,  3.442, 350.643, -0.709,  4.696,  0.034
177045.4, 2324, 35.66798320, 139.79076208, 39.761, -3961726.959, 3349013.917, 3698348.724,  0.304,  3.479, 350.491, -0.714,  4.737,  0.025
177045.6, 2324, 35.66799180, 139.79076049, 39.769, -3961726.446, 3349013.672, 3698349.504,  0.491,  3.302, 350.376, -0.708,  4.793,  0.066
177045.8, 2324, 35.66800047, 139.79075884, 39.777, -3961725.926, 3349013.428, 3698350.290,  0.552,  3.168, 350.245, -0.777,  4.817,  0.021
177046.0, 2324, 35.66800923, 139.79075713, 39.783, -3961725.397, 3349013.184, 3698351.083,  0.505,  2.835, 350.094, -0.789,  4.891,  0.011
177046.2, 2324, 35.66801806, 139.79075540, 39.781, -3961724.858, 3349012.933, 3698351.878,  0.596,  2.698, 349.926, -0.824,  4.902, -0.023
177046.4, 2324, 35.66802700, 139.79075348, 39.781, -3961724.304, 3349012.693, 3698352.684,  0.051,  2.300, 349.738, -0.901,  4.945, -0.012
177046.6, 2324, 35.66803590, 139.79075160, 39.775, -3961723.751, 3349012.448, 3698353.482, -0.111,  2.725, 349.527, -0.837,  4.953, -0.021
177046.8, 2324, 35.66804486, 139.79074969, 39.764, -3961723.190, 3349012.200, 3698354.284, -0.262,  2.903, 349.363, -0.936,  4.968, -0.101
177047.0, 2324, 35.66805390, 139.79074769, 39.757, -3961722.622, 3349011.957, 3698355.095, -0.493,  2.506, 349.208, -0.892,  5.027,  0.045
177047.2, 2324, 35.66806289, 139.79074571, 39.764, -3961722.067, 3349011.722, 3698355.909, -0.364,  1.901, 349.075, -0.919,  4.967, -0.020
177047.4, 2324, 35.66807182, 139.79074365, 39.749, -3961721.496, 3349011.484, 3698356.705, -0.545,  1.622, 348.880, -0.889,  4.975, -0.107
177047.6, 2324, 35.66808073, 139.79074160, 39.730, -3961720.924, 3349011.243, 3698357.497, -0.564,  1.395, 348.736, -0.927,  4.911, -0.086
177047.8, 2324, 35.66808948, 139.79073949, 39.712, -3961720.357, 3349011.014, 3698358.275, -0.883,  1.248, 348.574, -0.884,  4.805, -0.141
177048.0, 2324, 35.66809796, 139.79073753, 39.683, -3961719.805, 3349010.781, 3698359.023, -0.767,  1.555, 348.536, -0.871,  4.635, -0.133
177048.2, 2324, 35.66810615, 139.79073562, 39.662, -3961719.276, 3349010.560, 3698359.749, -0.935,  1.723, 348.629, -0.847,  4.478, -0.112
177048.4, 2324, 35.66811404, 139.79073388, 39.643, -3961718.773, 3349010.340, 3698360.449, -0.751,  2.209, 348.830, -0.720,  4.343, -0.082
177048.6, 2324, 35.66812176, 139.79073220, 39.631, -3961718.286, 3349010.128, 3698361.138, -0.682,  2.468, 349.062, -0.774,  4.252, -0.056
177048.8, 2324, 35.66812953, 139.79073065, 39.616, -3961717.802, 3349009.903, 3698361.830, -0.088,  2.047, 349.295, -0.670,  4.357, -0.075
177049.0, 2324, 35.66813734, 139.79072910, 39.609, -3961717.321, 3349009.680, 3698362.529,  0.316,  1.192, 349.586, -0.744,  4.268, -0.001
177049.2, 2324, 35.66814494, 139.79072753, 39.610, -3961716.854, 3349009.472, 3698363.215,  0.393,  1.643, 349.837, -0.626,  4.193, -0.031
177049.4, 2324, 35.66815243, 139.79072604, 39.586, -3961716.382, 3349009.249, 3698363.876,  0.346,  2.507, 350.063, -0.653,  4.140, -0.247
177049.6, 2324, 35.66815996, 139.79072459, 39.546, -3961715.901, 3349009.014, 3698364.532,  0.377,  3.078, 350.297, -0.678,  4.256, -0.005
177049.8, 2324, 35.66816759, 139.79072316, 39.556, -3961715.446, 3349008.799, 3698365.225,  0.447,  2.478, 350.470, -0.542,  4.189,  0.030
177050.0, 2324, 35.66817512, 139.79072179, 39.570, -3961715.003, 3349008.587, 3698365.912,  0.587,  2.072, 350.748, -0.637,  4.157,  0.031
177050.2, 2324, 35.66818253, 139.79072042, 39.558, -3961714.549, 3349008.366, 3698366.573,  0.517,  2.328, 350.910, -0.610,  4.087, -0.110
177050.4, 2324, 35.66818993, 139.79071917, 39.544, -3961714.102, 3349008.136, 3698367.232,  0.835,  2.427, 351.100, -0.517,  4.085, -0.033
177050.6, 2324, 35.66819723, 139.79071787, 39.540, -3961713.663, 3349007.919, 3698367.888,  0.575,  2.772, 351.287, -0.653,  3.943, -0.001
177050.8, 2324, 35.66820436, 139.79071669, 39.543, -3961713.243, 3349007.704, 3698368.532,  0.738,  3.563, 351.434, -0.484,  4.022, -0.002
177051.0, 2324, 35.66821151, 139.79071558, 39.534, -3961712.820, 3349007.478, 3698369.171,  1.079,  3.584, 351.627, -0.553,  3.945, -0.069
177051.2, 2324, 35.66821854, 139.79071438, 39.536, -3961712.404, 3349007.268, 3698369.806,  0.912,  3.738, 351.807, -0.574,  3.907,  0.098
177051.4, 2324, 35.66822557, 139.79071321, 39.571, -3961712.009, 3349007.074, 3698370.460,  0.734,  2.780, 351.911, -0.451,  3.859,  0.085
177051.6, 2324, 35.66823240, 139.79071218, 39.568, -3961711.610, 3349006.858, 3698371.074,  0.881,  3.020, 352.102, -0.464,  3.768, -0.043
177051.8, 2324, 35.66823917, 139.79071111, 39.573, -3961711.216, 3349006.652, 3698371.687,  0.670,  2.878, 352.222, -0.466,  3.744,  0.058
177052.0, 2324, 35.66824587, 139.79071006, 39.574, -3961710.824, 3349006.445, 3698372.292,  0.471,  2.860, 352.350, -0.477,  3.692, -0.029
177052.2, 2324, 35.66825251, 139.79070901, 39.574, -3961710.435, 3349006.240, 3698372.890,  0.080,  2.767, 352.464, -0.445,  3.692,  0.027
177052.4, 2324, 35.66825910, 139.79070801, 39.577, -3961710.053, 3349006.036, 3698373.486, -0.212,  2.643, 352.575, -0.453,  3.642, -0.013
177052.6, 2324, 35.66826563, 139.79070700, 39.575, -3961709.670, 3349005.832, 3698374.074, -0.606,  2.513, 352.614, -0.457,  3.611, -0.003
177052.8, 2324, 35.66827208, 139.79070606, 39.574, -3961709.295, 3349005.627, 3698374.654, -0.701,  2.621, 352.483, -0.412,  3.572, -0.014
177053.0, 2324, 35.66827846, 139.79070509, 39.571, -3961708.922, 3349005.426, 3698375.228, -0.723,  2.702, 352.062, -0.444,  3.532, -0.017
177053.2, 2324, 35.66828478, 139.79070400, 39.568, -3961708.544, 3349005.236, 3698375.796, -0.736,  2.724, 351.353, -0.529,  3.487, -0.025
177053.4, 2324, 35.66829103, 139.79070272, 39.562, -3961708.157, 3349005.060, 3698376.356, -0.982,  2.864, 350.345, -0.585,  3.481, -0.018
177053.6, 2324, 35.66829736, 139.79070139, 39.565, -3961707.768, 3349004.889, 3698376.928, -0.653,  2.847, 349.022, -0.627,  3.543,  0.008
177053.8, 2324, 35.66830379, 139.79069983, 39.565, -3961707.359, 3349004.729, 3698377.508, -0.375,  2.771, 347.509, -0.747,  3.613, -0.011
177054.0, 2324, 35.66831036, 139.79069803, 39.561, -3961706.927, 3349004.577, 3698378.097,  0.047,  2.649, 346.070, -0.900,  3.682, -0.030
177054.2, 2324, 35.66831712, 139.79069591, 39.559, -3961706.468, 3349004.440, 3698378.706,  0.120,  2.437, 344.676, -1.022,  3.808, -0.008
177054.4, 2324, 35.66832408, 139.79069359, 39.556, -3961705.986, 3349004.308, 3698379.331,  0.445,  2.223, 343.588, -1.119,  3.891, -0.036
177054.6, 2324, 35.66833112, 139.79069107, 39.550, -3961705.487, 3349004.185, 3698379.962,  0.604,  2.114, 342.790, -1.143,  3.950, -0.042
177054.8, 2324, 35.66833821, 139.79068850, 39.536, -3961704.978, 3349004.059, 3698380.593,  1.046,  2.019, 342.328, -1.185,  3.913, -0.077
177055.0, 2324, 35.66834530, 139.79068583, 39.525, -3961704.465, 3349003.942, 3698381.226,  1.287,  1.918, 342.037, -1.237,  3.942, -0.047
177055.2, 2324, 35.66835241, 139.79068311, 39.516, -3961703.949, 3349003.828, 3698381.862,  1.394,  1.684, 342.010, -1.216,  3.963, -0.087
177055.4, 2324, 35.66835953, 139.79068047, 39.500, -3961703.433, 3349003.705, 3698382.494,  1.779,  1.672, 342.309, -1.180,  3.954, -0.076
177055.6, 2324, 35.66836665, 139.79067790, 39.485, -3961702.922, 3349003.578, 3698383.127,  2.064,  1.643, 342.908, -1.153,  3.969, -0.087
177055.8, 2324, 35.66837383, 139.79067541, 39.465, -3961702.409, 3349003.439, 3698383.763,  2.154,  1.446, 343.832, -1.093,  3.988, -0.118
177056.0, 2324, 35.66838108, 139.79067310, 39.446, -3961701.904, 3349003.286, 3698384.405,  2.226,  1.091, 345.079, -0.995,  4.057, -0.102
177056.2, 2324, 35.66838845, 139.79067108, 39.425, -3961701.409, 3349003.107, 3698385.057,  2.326,  0.747, 346.636, -0.897,  4.088, -0.109
177056.4, 2324, 35.66839589, 139.79066932, 39.394, -3961700.919, 3349002.902, 3698385.710,  2.397,  0.563, 348.546, -0.767,  4.114, -0.166
177056.6, 2324, 35.66840339, 139.79066787, 39.360, -3961700.443, 3349002.671, 3698386.366,  2.361,  0.626, 350.747, -0.602,  4.184, -0.187
177056.8, 2324, 35.66841099, 139.79066681, 39.322, -3961699.982, 3349002.407, 3698387.029,  2.421,  0.702, 353.138, -0.440,  4.206, -0.182
177057.0, 2324, 35.66841861, 139.79066611, 39.284, -3961699.541, 3349002.117, 3698387.693,  2.289,  1.203, 355.657, -0.223,  4.215, -0.188
177057.2, 2324, 35.66842620, 139.79066582, 39.253, -3961699.129, 3349001.804, 3698388.360,  2.244,  1.467, 358.320, -0.029,  4.187, -0.150
177057.4, 2324, 35.66843371, 139.79066597, 39.221, -3961698.747, 3349001.463, 3698389.018,  2.268,  1.766,  0.966,  0.147,  4.150, -0.133
177057.6, 2324, 35.66844112, 139.79066652, 39.201, -3961698.401, 3349001.105, 3698389.674,  2.256,  1.510,  3.530,  0.336,  4.059, -0.079
177057.8, 2324, 35.66844829, 139.79066746, 39.184, -3961698.091, 3349000.732, 3698390.310,  2.266,  1.514,  6.074,  0.471,  3.901, -0.085
177058.0, 2324, 35.66845520, 139.79066871, 39.167, -3961697.812, 3349000.348, 3698390.923,  2.130,  1.593,  8.521,  0.622,  3.753, -0.098
177058.2, 2324, 35.66846184, 139.79067022, 39.144, -3961697.558, 3348999.954, 3698391.509,  1.916,  1.780, 10.898,  0.784,  3.597, -0.125
177058.4, 2324, 35.66846817, 139.79067205, 39.125, -3961697.341, 3348999.553, 3698392.068,  1.929,  2.270, 13.158,  0.878,  3.465, -0.079
177058.6, 2324, 35.66847428, 139.79067403, 39.112, -3961697.146, 3348999.154, 3698392.611,  1.608,  2.343, 15.166,  0.939,  3.318, -0.048
177058.8, 2324, 35.66848012, 139.79067617, 39.099, -3961696.975, 3348998.755, 3698393.130,  1.384,  2.559, 16.805,  0.998,  3.157, -0.076
177059.0, 2324, 35.66848576, 139.79067841, 39.090, -3961696.822, 3348998.360, 3698393.633,  1.085,  2.409, 18.028,  1.047,  3.068,  0.006
177059.2, 2324, 35.66849119, 139.79068074, 39.088, -3961696.688, 3348997.971, 3698394.121,  1.020,  2.263, 18.995,  1.074,  2.977, -0.028
177059.4, 2324, 35.66849648, 139.79068306, 39.081, -3961696.558, 3348997.586, 3698394.594,  0.827,  2.357, 19.608,  1.042,  2.904, -0.002
177059.6, 2324, 35.66850163, 139.79068537, 39.079, -3961696.437, 3348997.210, 3698395.057,  0.637,  2.306, 19.915,  1.021,  2.805, -0.040
177059.8, 2324, 35.66850662, 139.79068758, 39.068, -3961696.313, 3348996.843, 3698395.501,  0.322,  2.594, 19.928,  0.994,  2.747, -0.042
177060.0, 2324, 35.66851149, 139.79068982, 39.062, -3961696.200, 3348996.482, 3698395.936,  0.456,  2.558, 19.695,  1.026,  2.673, -0.045
177060.2, 2324, 35.66851632, 139.79069187, 39.053, -3961696.075, 3348996.134, 3698396.366,  0.036,  2.359, 19.142,  0.838,  2.659, -0.026
177060.4, 2324, 35.66852095, 139.79069380, 39.051, -3961695.958, 3348995.806, 3698396.782, -0.037,  2.618, 18.228,  0.911,  2.494,  0.009
177060.6, 2324, 35.66852543, 139.79069563, 39.052, -3961695.844, 3348995.493, 3698397.187,  0.193,  2.766, 17.144,  0.719,  2.487, -0.010
177060.8, 2324, 35.66852985, 139.79069710, 39.048, -3961695.710, 3348995.204, 3698397.583, -0.429,  2.667, 15.811,  0.678,  2.409, -0.025
177061.0, 2324, 35.66853412, 139.79069854, 39.042, -3961695.579, 3348994.923, 3698397.964, -0.353,  2.716, 14.314,  0.602,  2.344, -0.040
177061.2, 2324, 35.66853833, 139.79069966, 39.029, -3961695.428, 3348994.663, 3698398.336, -0.660,  2.708, 12.760,  0.419,  2.321, -0.096
177061.4, 2324, 35.66854246, 139.79070050, 39.029, -3961695.273, 3348994.433, 3698398.709, -1.399,  2.450, 10.966,  0.349,  2.270,  0.047
177061.6, 2324, 35.66854648, 139.79070126, 39.035, -3961695.123, 3348994.215, 3698399.074, -1.639,  2.021,  9.042,  0.340,  2.216,  0.010
177061.8, 2324, 35.66855039, 139.79070185, 39.032, -3961694.962, 3348994.010, 3698399.425, -1.595,  1.515,  6.932,  0.205,  2.113, -0.041
177062.0, 2324, 35.66855409, 139.79070216, 39.024, -3961694.793, 3348993.830, 3698399.754, -1.822,  1.187,  4.628,  0.114,  2.003, -0.048
177062.2, 2324, 35.66855758, 139.79070243, 39.010, -3961694.627, 3348993.658, 3698400.060, -1.478,  1.035,  2.229,  0.121,  1.857, -0.070
177062.4, 2324, 35.66856082, 139.79070255, 39.003, -3961694.470, 3348993.510, 3698400.348, -0.879,  1.030, 359.805, -0.052,  1.723, -0.016
177062.6, 2324, 35.66856383, 139.79070237, 38.997, -3961694.307, 3348993.394, 3698400.616, -0.814,  0.885, 357.357, -0.065,  1.617, -0.044
177062.8, 2324, 35.66856666, 139.79070223, 38.983, -3961694.150, 3348993.278, 3698400.863,  0.010,  0.846, 355.109, -0.146,  1.507, -0.064
177063.0, 2324, 35.66856929, 139.79070173, 38.972, -3961693.984, 3348993.197, 3698401.094, -0.309,  1.394, 352.739, -0.244,  1.452, -0.067
177063.2, 2324, 35.66857195, 139.79070122, 38.957, -3961693.814, 3348993.113, 3698401.325, -0.128,  1.771, 350.409, -0.268,  1.481, -0.066
177063.4, 2324, 35.66857458, 139.79070052, 38.943, -3961693.634, 3348993.045, 3698401.554, -0.163,  2.131, 348.073, -0.348,  1.445, -0.079
177063.6, 2324, 35.66857720, 139.79069972, 38.923, -3961693.446, 3348992.980, 3698401.778, -0.059,  2.615, 345.732, -0.403,  1.449, -0.099
177063.8, 2324, 35.66857981, 139.79069879, 38.912, -3961693.255, 3348992.930, 3698402.007, -0.009,  2.840, 343.423, -0.434,  1.409, -0.018
177064.0, 2324, 35.66858230, 139.79069784, 38.901, -3961693.070, 3348992.886, 3698402.225,  0.298,  3.138, 341.412, -0.437,  1.344, -0.082
177064.2, 2324, 35.66858467, 139.79069683, 38.885, -3961692.884, 3348992.848, 3698402.429,  0.552,  3.551, 339.623, -0.484,  1.288, -0.056
177064.4, 2324, 35.66858694, 139.79069567, 38.889, -3961692.707, 3348992.835, 3698402.636,  0.341,  3.370, 338.128, -0.533,  1.229,  0.048
177064.6, 2324, 35.66858910, 139.79069454, 38.891, -3961692.535, 3348992.824, 3698402.832,  0.360,  3.303, 336.913, -0.509,  1.166, -0.021
177064.8, 2324, 35.66859114, 139.79069341, 38.891, -3961692.368, 3348992.817, 3698403.016,  0.300,  3.214, 335.909, -0.502,  1.109,  0.005
177065.0, 2324, 35.66859309, 139.79069230, 38.892, -3961692.208, 3348992.813, 3698403.192,  0.317,  3.137, 335.025, -0.496,  1.050,  0.011
177065.2, 2324, 35.66859491, 139.79069119, 38.896, -3961692.055, 3348992.816, 3698403.359,  0.190,  2.996, 334.194, -0.514,  0.987,  0.009
177065.4, 2324, 35.66859663, 139.79069009, 38.899, -3961691.908, 3348992.822, 3698403.516,  0.015,  2.821, 333.387, -0.500,  0.926,  0.013
177065.6, 2324, 35.66859823, 139.79068907, 38.900, -3961691.770, 3348992.826, 3698403.660, -0.021,  2.608, 332.640, -0.453,  0.858, -0.009
177065.8, 2324, 35.66859970, 139.79068810, 38.900, -3961691.640, 3348992.832, 3698403.793, -0.025,  2.408, 331.945, -0.425,  0.798,  0.003
177066.0, 2324, 35.66860106, 139.79068720, 38.902, -3961691.522, 3348992.838, 3698403.917,  0.044,  2.178, 331.312, -0.387,  0.740,  0.003
177066.2, 2324, 35.66860231, 139.79068635, 38.902, -3961691.410, 3348992.845, 3698404.029,  0.058,  2.018, 330.744, -0.378,  0.660, -0.002
177066.4, 2324, 35.66860345, 139.79068555, 38.901, -3961691.307, 3348992.852, 3698404.131,  0.049,  1.827, 330.214, -0.357,  0.620, -0.005
177066.6, 2324, 35.66860452, 139.79068476, 38.901, -3961691.208, 3348992.862, 3698404.228, -0.033,  1.607, 329.722, -0.352,  0.573,  0.005
177066.8, 2324, 35.66860552, 139.79068400, 38.900, -3961691.113, 3348992.872, 3698404.317, -0.130,  1.404, 329.240, -0.340,  0.552, -0.007
177067.0, 2324, 35.66860649, 139.79068326, 38.899, -3961691.021, 3348992.882, 3698404.404, -0.176,  1.238, 328.777, -0.319,  0.526, -0.006
177067.2, 2324, 35.66860741, 139.79068258, 38.898, -3961690.936, 3348992.890, 3698404.487, -0.085,  1.094, 328.350, -0.307,  0.498, -0.005
177067.4, 2324, 35.66860828, 139.79068193, 38.897, -3961690.854, 3348992.898, 3698404.564,  0.003,  0.953, 327.940, -0.297,  0.462, -0.008
177067.6, 2324, 35.66860907, 139.79068131, 38.896, -3961690.778, 3348992.908, 3698404.635,  0.024,  0.857, 327.541, -0.273,  0.418, -0.006
177067.8, 2324, 35.66860977, 139.79068074, 38.895, -3961690.710, 3348992.917, 3698404.698,  0.036,  0.794, 327.129, -0.247,  0.367, -0.007
177068.0, 2324, 35.66861041, 139.79068023, 38.893, -3961690.647, 3348992.925, 3698404.754,  0.047,  0.761, 326.750, -0.231,  0.339, -0.009
177068.2, 2324, 35.66861105, 139.79067970, 38.892, -3961690.584, 3348992.934, 3698404.811,  0.073,  0.727, 326.354, -0.263,  0.389, -0.011
177068.4, 2324, 35.66861180, 139.79067908, 38.891, -3961690.510, 3348992.945, 3698404.878,  0.087,  0.630, 325.917, -0.300,  0.424, -0.004
177068.6, 2324, 35.66861258, 139.79067841, 38.890, -3961690.431, 3348992.959, 3698404.948,  0.099,  0.556, 325.477, -0.303,  0.426, -0.006
177068.8, 2324, 35.66861336, 139.79067773, 38.889, -3961690.353, 3348992.972, 3698405.018,  0.093,  0.457, 325.072, -0.311,  0.439, -0.004
177069.0, 2324, 35.66861416, 139.79067704, 38.888, -3961690.272, 3348992.986, 3698405.089,  0.116,  0.363, 324.704, -0.312,  0.433, -0.003
177069.2, 2324, 35.66861492, 139.79067637, 38.887, -3961690.195, 3348993.000, 3698405.157,  0.092,  0.298, 324.394, -0.299,  0.411, -0.009
177069.4, 2324, 35.66861565, 139.79067573, 38.886, -3961690.121, 3348993.013, 3698405.222,  0.061,  0.247, 324.155, -0.279,  0.392, -0.007
177069.6, 2324, 35.66861633, 139.79067513, 38.885, -3961690.051, 3348993.026, 3698405.283,  0.015,  0.205, 323.989, -0.266,  0.370, -0.011
177069.8, 2324, 35.66861699, 139.79067456, 38.882, -3961689.984, 3348993.036, 3698405.341,  0.030,  0.202, 323.863, -0.256,  0.366, -0.013
177070.0, 2324, 35.66861763, 139.79067399, 38.880, -3961689.917, 3348993.048, 3698405.397,  0.008,  0.173, 323.785, -0.252,  0.350, -0.011
177070.2, 2324, 35.66861825, 139.79067340, 38.877, -3961689.850, 3348993.061, 3698405.452, -0.148,  0.106, 323.709, -0.283,  0.350, -0.019
177070.4, 2324, 35.66861891, 139.79067279, 38.873, -3961689.780, 3348993.074, 3698405.509, -0.260,  0.074, 323.593, -0.262,  0.373, -0.016
177070.6, 2324, 35.66861959, 139.79067224, 38.870, -3961689.712, 3348993.082, 3698405.568, -0.027,  0.076, 323.523, -0.234,  0.393, -0.015
177070.8, 2324, 35.66862025, 139.79067169, 38.867, -3961689.645, 3348993.091, 3698405.626,  0.162,  0.085, 323.483, -0.240,  0.346, -0.009
177071.0, 2324, 35.66862080, 139.79067120, 38.865, -3961689.588, 3348993.101, 3698405.674,  0.145,  0.169, 323.397, -0.209,  0.282, -0.010
177071.2, 2324, 35.66862126, 139.79067080, 38.863, -3961689.541, 3348993.108, 3698405.715,  0.153,  0.220, 323.340, -0.169,  0.233, -0.010
177071.4, 2324, 35.66862163, 139.79067047, 38.861, -3961689.502, 3348993.114, 3698405.747,  0.129,  0.258, 323.298, -0.132,  0.194, -0.008
177071.6, 2324, 35.66862194, 139.79067020, 38.860, -3961689.471, 3348993.120, 3698405.774,  0.115,  0.309, 323.257, -0.120,  0.163, -0.009
177071.8, 2324, 35.66862225, 139.79066993, 38.858, -3961689.438, 3348993.124, 3698405.801,  0.096,  0.384, 323.223, -0.149,  0.199, -0.013
177072.0, 2324, 35.66862268, 139.79066955, 38.856, -3961689.394, 3348993.131, 3698405.839,  0.094,  0.457, 323.171, -0.202,  0.270, -0.013
177072.2, 2324, 35.66862320, 139.79066909, 38.854, -3961689.340, 3348993.140, 3698405.884,  0.105,  0.498, 323.108, -0.210,  0.298, -0.011
177072.4, 2324, 35.66862371, 139.79066863, 38.852, -3961689.286, 3348993.150, 3698405.929,  0.098,  0.576, 323.045, -0.210,  0.289, -0.012
177072.6, 2324, 35.66862421, 139.79066817, 38.848, -3961689.232, 3348993.159, 3698405.972,  0.092,  0.673, 322.987, -0.211,  0.289, -0.019
177072.8, 2324, 35.66862472, 139.79066771, 38.844, -3961689.178, 3348993.167, 3698406.015,  0.088,  0.787, 322.929, -0.217,  0.286, -0.020
177073.0, 2324, 35.66862522, 139.79066725, 38.841, -3961689.124, 3348993.177, 3698406.059,  0.062,  0.882, 322.868, -0.216,  0.273, -0.019
177073.2, 2324, 35.66862570, 139.79066680, 38.837, -3961689.072, 3348993.186, 3698406.100,  0.005,  0.990, 322.804, -0.208,  0.275, -0.021
177073.4, 2324, 35.66862619, 139.79066635, 38.834, -3961689.019, 3348993.195, 3698406.142, -0.006,  1.099, 322.724, -0.209,  0.279, -0.020
177073.6, 2324, 35.66862676, 139.79066584, 38.829, -3961688.958, 3348993.203, 3698406.191,  0.027,  1.243, 322.632, -0.269,  0.368, -0.017
177073.8, 2324, 35.66862749, 139.79066518, 38.826, -3961688.882, 3348993.217, 3698406.255,  0.096,  1.356, 322.533, -0.339,  0.447, -0.014
177074.0, 2324, 35.66862834, 139.79066437, 38.823, -3961688.791, 3348993.236, 3698406.330,  0.103,  1.457, 322.357, -0.396,  0.526, -0.025
177074.2, 2324, 35.66862934, 139.79066342, 38.817, -3961688.682, 3348993.257, 3698406.416,  0.111,  1.590, 322.074, -0.468,  0.584, -0.022
177074.4, 2324, 35.66863045, 139.79066234, 38.813, -3961688.561, 3348993.283, 3698406.514,  0.118,  1.692, 321.642, -0.520,  0.639, -0.029
177074.6, 2324, 35.66863166, 139.79066113, 38.807, -3961688.427, 3348993.313, 3698406.619,  0.123,  1.825, 321.112, -0.585,  0.691, -0.032
177074.8, 2324, 35.66863298, 139.79065976, 38.799, -3961688.277, 3348993.348, 3698406.734,  0.087,  1.933, 320.472, -0.644,  0.784, -0.040
177075.0, 2324, 35.66863444, 139.79065824, 38.791, -3961688.111, 3348993.388, 3698406.861,  0.124,  2.043, 319.784, -0.721,  0.856, -0.044
177075.2, 2324, 35.66863605, 139.79065652, 38.781, -3961687.925, 3348993.435, 3698407.000,  0.122,  2.239, 319.018, -0.827,  0.934, -0.041
177075.4, 2324, 35.66863779, 139.79065455, 38.767, -3961687.715, 3348993.491, 3698407.149,  0.037,  2.453, 318.197, -0.939,  0.994, -0.149
177075.6, 2324, 35.66863967, 139.79065244, 38.759, -3961687.494, 3348993.554, 3698407.313,  0.115,  2.730, 317.256, -1.029,  1.074,  0.066
177075.8, 2324, 35.66864161, 139.79065013, 38.767, -3961687.268, 3348993.637, 3698407.493,  0.043,  2.587, 316.276, -1.061,  1.073, -0.025
177076.0, 2324, 35.66864357, 139.79064772, 38.764, -3961687.028, 3348993.720, 3698407.668,  0.005,  2.724, 315.239, -1.120,  1.111,  0.005
177076.2, 2324, 35.66864556, 139.79064519, 38.763, -3961686.781, 3348993.811, 3698407.847, -0.030,  2.801, 314.081, -1.173,  1.111, -0.004
177076.4, 2324, 35.66864756, 139.79064255, 38.762, -3961686.528, 3348993.910, 3698408.026,  0.014,  2.786, 312.770, -1.217,  1.113, -0.011
177076.6, 2324, 35.66864954, 139.79063979, 38.759, -3961686.267, 3348994.016, 3698408.203,  0.041,  2.773, 311.314, -1.268,  1.088, -0.033
177076.8, 2324, 35.66865146, 139.79063692, 38.752, -3961686.000, 3348994.131, 3698408.372,  0.004,  2.860, 309.691, -1.332,  1.051, -0.021
177077.0, 2324, 35.66865330, 139.79063395, 38.747, -3961685.732, 3348994.257, 3698408.535, -0.174,  2.822, 307.904, -1.339,  0.976, -0.017
177077.2, 2324, 35.66865492, 139.79063115, 38.748, -3961685.489, 3348994.383, 3698408.682, -0.382,  2.673, 306.185, -1.165,  0.913,  0.013
177077.4, 2324, 35.66865653, 139.79062874, 38.747, -3961685.268, 3348994.482, 3698408.826,  0.899,  1.835, 304.798, -1.084,  0.650,  0.000
177077.6, 2324, 35.66865735, 139.79062634, 38.747, -3961685.087, 3348994.614, 3698408.900, -1.231,  1.759, 303.184, -1.037,  0.443, -0.024
177077.8, 2324, 35.66865847, 139.79062431, 38.744, -3961684.911, 3348994.706, 3698408.999, -0.636,  1.937, 301.934, -0.846,  0.731,  0.019
177078.0, 2324, 35.66865951, 139.79062222, 38.747, -3961684.740, 3348994.809, 3698409.095, -0.425,  1.951, 300.556, -1.036,  0.460, -0.001
177078.2, 2324, 35.66866047, 139.79061998, 38.744, -3961684.559, 3348994.922, 3698409.180, -0.627,  1.922, 299.102, -1.003,  0.593, -0.009
177078.4, 2324, 35.66866149, 139.79061770, 38.744, -3961684.376, 3348995.037, 3698409.272, -0.349,  1.950, 297.666, -1.066,  0.524, -0.008
177078.6, 2324, 35.66866242, 139.79061531, 38.742, -3961684.189, 3348995.162, 3698409.354, -0.405,  2.003, 296.160, -1.101,  0.512, -0.009
177078.8, 2324, 35.66866333, 139.79061283, 38.739, -3961683.997, 3348995.294, 3698409.435, -0.425,  2.077, 294.606, -1.142,  0.502, -0.020
177079.0, 2324, 35.66866420, 139.79061023, 38.735, -3961683.800, 3348995.435, 3698409.511, -0.482,  2.118, 293.015, -1.202,  0.484, -0.020
177079.2, 2324, 35.66866504, 139.79060754, 38.732, -3961683.599, 3348995.585, 3698409.585, -0.604,  2.114, 291.390, -1.240,  0.443, -0.006
177079.4, 2324, 35.66866597, 139.79060487, 38.709, -3961683.383, 3348995.719, 3698409.655,  0.147,  2.804, 289.643, -1.170,  0.547, -0.201
177079.6, 2324, 35.66866670, 139.79060195, 38.707, -3961683.175, 3348995.889, 3698409.720, -0.162,  2.715, 287.947, -1.398,  0.343,  0.119
177079.8, 2324, 35.66866741, 139.79059884, 38.707, -3961682.958, 3348996.074, 3698409.784, -0.302,  2.697, 286.006, -1.437,  0.443, -0.071
177080.0, 2324, 35.66866801, 139.79059545, 38.680, -3961682.713, 3348996.269, 3698409.822, -0.741,  3.359, 283.853, -1.648,  0.175, -0.175
177080.2, 2324, 35.66866864, 139.79059158, 38.680, -3961682.456, 3348996.511, 3698409.879, -0.778,  3.192, 281.195, -1.883,  0.433,  0.094
177080.4, 2324, 35.66866930, 139.79058724, 38.687, -3961682.174, 3348996.787, 3698409.942, -0.108,  3.006, 278.374, -2.060,  0.236, -0.022
177080.6, 2324, 35.66866961, 139.79058245, 38.683, -3961681.876, 3348997.103, 3698409.968, -0.413,  2.842, 275.049, -2.273,  0.166,  0.004
177080.8, 2324, 35.66866978, 139.79057724, 38.683, -3961681.563, 3348997.456, 3698409.983, -0.201,  2.823, 271.275, -2.443, -0.002, -0.014
177081.0, 2324, 35.66866956, 139.79057166, 38.681, -3961681.247, 3348997.850, 3698409.962, -0.323,  2.775, 267.007, -2.622, -0.197, -0.009
177081.2, 2324, 35.66866902, 139.79056569, 38.677, -3961680.922, 3348998.283, 3698409.911, -0.181,  2.694, 262.476, -2.770, -0.450, -0.031
177081.4, 2324, 35.66866796, 139.79055941, 38.671, -3961680.604, 3348998.759, 3698409.812, -0.424,  2.736, 257.704, -2.927, -0.721, -0.048
177081.6, 2324, 35.66866644, 139.79055273, 38.661, -3961680.282, 3348999.279, 3698409.669, -0.407,  2.793, 253.140, -3.118, -0.991, -0.039
177081.8, 2324, 35.66866434, 139.79054568, 38.655, -3961679.970, 3348999.851, 3698409.477, -0.591,  2.668, 249.069, -3.275, -1.318, -0.032
177082.0, 2324, 35.66866171, 139.79053827, 38.650, -3961679.664, 3349000.471, 3698409.237, -0.736,  2.548, 245.661, -3.439, -1.594, -0.016
177082.2, 2324, 35.66865857, 139.79053053, 38.645, -3961679.363, 3349001.134, 3698408.951, -0.948,  2.445, 242.797, -3.593, -1.868, -0.025
177082.4, 2324, 35.66865496, 139.79052244, 38.635, -3961679.063, 3349001.839, 3698408.619, -1.051,  2.429, 240.422, -3.712, -2.152, -0.062
177082.6, 2324, 35.66865086, 139.79051403, 38.623, -3961678.766, 3349002.586, 3698408.243, -1.130,  2.414, 238.313, -3.863, -2.395, -0.047
177082.8, 2324, 35.66864628, 139.79050531, 38.612, -3961678.476, 3349003.374, 3698407.824, -1.198,  2.444, 236.378, -4.025, -2.671, -0.066
177083.0, 2324, 35.66864121, 139.79049629, 38.597, -3961678.190, 3349004.202, 3698407.358, -1.187,  2.565, 234.567, -4.130, -2.973, -0.075
177083.2, 2324, 35.66863561, 139.79048707, 38.585, -3961677.920, 3349005.067, 3698406.846, -1.334,  2.612, 232.892, -4.238, -3.214, -0.056
177083.4, 2324, 35.66862957, 139.79047762, 38.574, -3961677.660, 3349005.967, 3698406.295, -1.365,  2.662, 231.419, -4.329, -3.461, -0.041
177083.6, 2324, 35.66862313, 139.79046803, 38.565, -3961677.412, 3349006.894, 3698405.709, -1.439,  2.673, 230.184, -4.402, -3.654, -0.061
177083.8, 2324, 35.66861636, 139.79045831, 38.555, -3961677.172, 3349007.844, 3698405.093, -1.515,  2.759, 229.107, -4.430, -3.831, -0.031
177084.0, 2324, 35.66860927, 139.79044848, 38.547, -3961676.943, 3349008.815, 3698404.450, -1.597,  2.747, 228.254, -4.490, -3.998, -0.045
177084.2, 2324, 35.66860195, 139.79043855, 38.543, -3961676.721, 3349009.805, 3698403.787, -1.715,  2.685, 227.591, -4.513, -4.135, -0.003
177084.4, 2324, 35.66859443, 139.79042854, 38.537, -3961676.504, 3349010.809, 3698403.106, -1.797,  2.827, 227.088, -4.592, -4.216, -0.043
177084.6, 2324, 35.66858673, 139.79041839, 38.530, -3961676.287, 3349011.828, 3698402.408, -1.723,  2.928, 226.714, -4.631, -4.343, -0.035
177084.8, 2324, 35.66857879, 139.79040816, 38.530, -3961676.081, 3349012.867, 3698401.692, -2.031,  2.910, 226.361, -4.675, -4.462, -0.006
177085.0, 2324, 35.66857070, 139.79039775, 38.528, -3961675.871, 3349013.924, 3698400.962, -2.057,  2.939, 226.161, -4.782, -4.532, -0.020
177085.2, 2324, 35.66856240, 139.79038708, 38.525, -3961675.656, 3349015.007, 3698400.212, -1.938,  3.133, 226.143, -4.928, -4.715, -0.019
177085.4, 2324, 35.66855380, 139.79037603, 38.526, -3961675.435, 3349016.131, 3698399.437, -1.828,  3.293, 226.205, -5.100, -4.837,  0.017
177085.6, 2324, 35.66854494, 139.79036456, 38.530, -3961675.205, 3349017.296, 3698398.641, -1.561,  3.372, 226.259, -5.322, -5.012,  0.036
177085.8, 2324, 35.66853576, 139.79035272, 38.538, -3961674.972, 3349018.502, 3698397.818, -1.459,  3.468, 226.330, -5.451, -5.208,  0.042
