GPS TOW (s),GPS Week,Latitude (deg),Longitude (deg),Ellipsoid Height (m),ECEF X (m),ECEF Y (m),ECEF Z (m),Roll (deg),Pitch (deg),Heading (deg),East Velocity (m/s),North Velocity (m/s),Up Velocity (m/s)
187470.0, 2324, 35.66755248, 139.79109598, 39.557, -3961767.630, 3349008.712, 3698309.780, -1.451,  2.706, 312.747, -0.002, -0.002,  0.001
187470.2, 2324, 35.66755248, 139.79109598, 39.557, -3961767.630, 3349008.712, 3698309.780, -1.453,  2.704, 312.749, -0.002, -0.003, -0.000
187470.4, 2324, 35.66755248, 139.79109598, 39.557, -3961767.630, 3349008.712, 3698309.780, -1.453,  2.703, 312.754, -0.001, -0.005, -0.001
187470.6, 2324, 35.66755248, 139.79109598, 39.557, -3961767.630, 3349008.712, 3698309.780, -1.456,  2.702, 312.759, -0.001, -0.004, -0.000
187470.8, 2324, 35.66755248, 139.79109598, 39.557, -3961767.630, 3349008.712, 3698309.780, -1.453,  2.701, 312.766, -0.001, -0.003,  0.000
187471.0, 2324, 35.66755248, 139.79109598, 39.557, -3961767.630, 3349008.712, 3698309.780, -1.452,  2.702, 312.771, -0.002, -0.002,  0.001
187471.2, 2324, 35.66755248, 139.79109598, 39.557, -3961767.630, 3349008.712, 3698309.780, -1.453,  2.698, 312.775,  0.000, -0.004, -0.000
187471.4, 2324, 35.66755248, 139.79109598, 39.557, -3961767.630, 3349008.712, 3698309.780, -1.457,  2.697, 312.780, -0.000, -0.005,  0.000
187471.6, 2324, 35.66755248, 139.79109598, 39.557, -3961767.630, 3349008.712, 3698309.780, -1.458,  2.698, 312.782, -0.001, -0.001,  0.001
187471.8, 2324, 35.66755248, 139.79109598, 39.557, -3961767.630, 3349008.712, 3698309.780, -1.461,  2.698, 312.788, -0.001, -0.003, -0.001
187472.0, 2324, 35.66755248, 139.79109598, 39.557, -3961767.630, 3349008.712, 3698309.780, -1.455,  2.698, 312.798,  0.002, -0.002,  0.001
187472.2, 2324, 35.66755248, 139.79109598, 39.557, -3961767.630, 3349008.712, 3698309.780, -1.450,  2.696, 312.801, -0.002,  0.001,  0.003
187472.4, 2324, 35.66755248, 139.79109598, 39.557, -3961767.630, 3349008.712, 3698309.780, -1.452,  2.699, 312.806,  0.001,  0.000,  0.002
187472.6, 2324, 35.66755248, 139.79109598, 39.557, -3961767.630, 3349008.712, 3698309.780, -1.450,  2.698, 312.810,  0.001, -0.001,  0.001
187472.8, 2324, 35.66755248, 139.79109598, 39.557, -3961767.630, 3349008.712, 3698309.780, -1.455,  2.699, 312.810,  0.001,  0.001,  0.001
187473.0, 2324, 35.66755248, 139.79109598, 39.557, -3961767.630, 3349008.712, 3698309.780, -1.454,  2.696, 312.814,  0.002,  0.003,  0.002
187473.2, 2324, 35.66755248, 139.79109598, 39.557, -3961767.630, 3349008.712, 3698309.780, -1.458,  2.696, 312.819,  0.002,  0.002,  0.003
187473.4, 2324, 35.66755248, 139.79109598, 39.557, -3961767.630, 3349008.712, 3698309.780, -1.453,  2.699, 312.818,  0.002, -0.000,  0.003
187473.6, 2324, 35.66755248, 139.79109598, 39.557, -3961767.630, 3349008.712, 3698309.780, -1.455,  2.699, 312.821,  0.002,  0.002,  0.001
187473.8, 2324, 35.66755248, 139.79109598, 39.557, -3961767.630, 3349008.712, 3698309.780, -1.458,  2.700, 312.820,  0.003,  0.003,  0.002
187474.0, 2324, 35.66755248, 139.79109598, 39.557, -3961767.630, 3349008.712, 3698309.780, -1.458,  2.700, 312.830,  0.002,  0.002,  0.002
187474.2, 2324, 35.66755248, 139.79109598, 39.557, -3961767.630, 3349008.712, 3698309.780, -1.457,  2.700, 312.835,  0.004,  0.003,  0.002
187474.4, 2324, 35.66755248, 139.79109598, 39.557, -3961767.630, 3349008.712, 3698309.780, -1.459,  2.699, 312.841,  0.002,  0.004,  0.002
187474.6, 2324, 35.66755248, 139.79109598, 39.557, -3961767.630, 3349008.712, 3698309.780, -1.454,  2.701, 312.849,  0.003,  0.003,  0.003
187474.8, 2324, 35.66755248, 139.79109598, 39.557, -3961767.630, 3349008.712, 3698309.780, -1.457,  2.700, 312.855,  0.002,  0.002,  0.002
187475.0, 2324, 35.66755248, 139.79109598, 39.557, -3961767.630, 3349008.712, 3698309.780, -1.461,  2.702, 312.860,  0.001,  0.003,  0.003
187475.2, 2324, 35.66755248, 139.79109598, 39.557, -3961767.630, 3349008.712, 3698309.780, -1.460,  2.704, 312.861,  0.002,  0.003,  0.003
187475.4, 2324, 35.66755248, 139.79109598, 39.557, -3961767.630, 3349008.712, 3698309.780, -1.467,  2.700, 312.865,  0.005,  0.001,  0.001
187475.6, 2324, 35.66755248, 139.79109598, 39.557, -3961767.630, 3349008.712, 3698309.780, -1.465,  2.700, 312.875, -0.001, -0.002,  0.002
187475.8, 2324, 35.66755248, 139.79109598, 39.557, -3961767.630, 3349008.712, 3698309.780, -1.462,  2.704, 312.881, -0.004, -0.003,  0.003
187476.0, 2324, 35.66755248, 139.79109598, 39.557, -3961767.630, 3349008.712, 3698309.780, -1.465,  2.701, 312.888, -0.002, -0.003,  0.002
187476.2, 2324, 35.66755248, 139.79109598, 39.557, -3961767.630, 3349008.712, 3698309.780, -1.467,  2.698, 312.894, -0.003, -0.002,  0.001
187476.4, 2324, 35.66755248, 139.79109598, 39.557, -3961767.630, 3349008.712, 3698309.780, -1.465,  2.695, 312.904, -0.001, -0.001,  0.001
187476.6, 2324, 35.66755248, 139.79109598, 39.557, -3961767.630, 3349008.712, 3698309.780, -1.463,  2.696, 312.906, -0.003, -0.002,  0.000
187476.8, 2324, 35.66755248, 139.79109598, 39.557, -3961767.630, 3349008.712, 3698309.780, -1.465,  2.697, 312.912, -0.002, -0.003, -0.000
187477.0, 2324, 35.66755248, 139.79109598, 39.557, -3961767.630, 3349008.712, 3698309.780, -1.467,  2.697, 312.916, -0.004, -0.007, -0.001
187477.2, 2324, 35.66755248, 139.79109598, 39.557, -3961767.630, 3349008.712, 3698309.780, -1.470,  2.694, 312.917, -0.004, -0.006, -0.001
187477.4, 2324, 35.66755248, 139.79109598, 39.557, -3961767.630, 3349008.712, 3698309.780, -1.470,  2.693, 312.922, -0.009, -0.002, -0.001
187477.6, 2324, 35.66755248, 139.79109598, 39.557, -3961767.630, 3349008.712, 3698309.780, -1.479,  2.685, 312.929,  0.001, -0.008, -0.005
187477.8, 2324, 35.66755248, 139.79109598, 39.557, -3961767.630, 3349008.712, 3698309.780, -1.473,  2.694, 312.932, -0.004, -0.001, -0.001
187478.0, 2324, 35.66755248, 139.79109598, 39.557, -3961767.630, 3349008.712, 3698309.780, -1.481,  2.703, 312.942, -0.009, -0.013, -0.001
187478.2, 2324, 35.66755248, 139.79109598, 39.557, -3961767.630, 3349008.712, 3698309.780, -1.482,  2.697, 312.942, -0.003, -0.001, -0.001
187478.4, 2324, 35.66755248, 139.79109598, 39.557, -3961767.630, 3349008.712, 3698309.780, -1.467,  2.696, 312.946, -0.005, -0.002, -0.002
187478.6, 2324, 35.66755248, 139.79109598, 39.557, -3961767.630, 3349008.712, 3698309.780, -1.474,  2.701, 312.953, -0.015, -0.015, -0.001
187478.8, 2324, 35.66755248, 139.79109598, 39.557, -3961767.630, 3349008.712, 3698309.780, -1.466,  2.696, 312.960, -0.001,  0.005, -0.003
187479.0, 2324, 35.66755248, 139.79109598, 39.557, -3961767.630, 3349008.712, 3698309.780, -1.465,  2.699, 312.972, -0.016, -0.019, -0.001
187479.2, 2324, 35.66755248, 139.79109598, 39.557, -3961767.630, 3349008.712, 3698309.780, -1.465,  2.703, 312.974, -0.009, -0.003,  0.000
187479.4, 2324, 35.66755248, 139.79109598, 39.557, -3961767.630, 3349008.712, 3698309.780, -1.454,  2.702, 312.984, -0.011, -0.012, -0.002
187479.6, 2324, 35.66755248, 139.79109598, 39.557, -3961767.630, 3349008.712, 3698309.780, -1.465,  2.703, 312.983, -0.015, -0.013, -0.001
187479.8, 2324, 35.66755248, 139.79109598, 39.557, -3961767.630, 3349008.712, 3698309.780, -1.452,  2.701, 312.985, -0.004, -0.001, -0.002
187480.0, 2324, 35.66755248, 139.79109598, 39.557, -3961767.630, 3349008.712, 3698309.780, -1.454,  2.704, 313.001, -0.022, -0.024, -0.005
187480.2, 2324, 35.66755248, 139.79109598, 39.557, -3961767.630, 3349008.712, 3698309.780, -1.452,  2.702, 313.004, -0.007,  0.002, -0.005
187480.4, 2324, 35.66755248, 139.79109598, 39.557, -3961767.630, 3349008.712, 3698309.780, -1.450,  2.702, 313.011, -0.019, -0.024, -0.005
187480.6, 2324, 35.66755248, 139.79109598, 39.557, -3961767.630, 3349008.712, 3698309.780, -1.455,  2.701, 313.016, -0.008, -0.009, -0.005
187480.8, 2324, 35.66755248, 139.79109598, 39.557, -3961767.630, 3349008.712, 3698309.780, -1.444,  2.702, 313.025, -0.011, -0.007, -0.006
187481.0, 2324, 35.66755248, 139.79109598, 39.557, -3961767.630, 3349008.712, 3698309.780, -1.447,  2.709, 313.033, -0.020, -0.022, -0.001
187481.2, 2324, 35.66755248, 139.79109598, 39.557, -3961767.630, 3349008.712, 3698309.780, -1.438,  2.704, 313.036, -0.005, -0.003, -0.002
187481.4, 2324, 35.66755248, 139.79109598, 39.557, -3961767.630, 3349008.712, 3698309.780, -1.439,  2.705, 313.037, -0.020, -0.025, -0.002
187481.6, 2324, 35.66755247, 139.79109597, 39.557, -3961767.630, 3349008.713, 3698309.779, -1.440,  2.702, 313.039, -0.008, -0.002, -0.002
187481.8, 2324, 35.66755245, 139.79109595, 39.557, -3961767.630, 3349008.715, 3698309.777, -1.438,  2.707, 313.047, -0.016, -0.022, -0.002
187482.0, 2324, 35.66755243, 139.79109592, 39.557, -3961767.629, 3349008.718, 3698309.775, -1.433,  2.719, 313.052, -0.028,  0.004, -0.004
187482.2, 2324, 35.66755249, 139.79109578, 39.556, -3961767.617, 3349008.725, 3698309.780, -1.436,  2.722, 313.060, -0.093,  0.059, -0.004
187482.4, 2324, 35.66755264, 139.79109551, 39.556, -3961767.594, 3349008.737, 3698309.794, -1.459,  2.724, 313.073, -0.150,  0.112, -0.002
187482.6, 2324, 35.66755288, 139.79109513, 39.556, -3961767.560, 3349008.753, 3698309.815, -1.483,  2.738, 313.098, -0.195,  0.159, -0.000
187482.8, 2324, 35.66755321, 139.79109462, 39.555, -3961767.513, 3349008.774, 3698309.845, -1.517,  2.747, 313.146, -0.257,  0.202, -0.004
187483.0, 2324, 35.66755364, 139.79109400, 39.555, -3961767.456, 3349008.799, 3698309.883, -1.540,  2.751, 313.208, -0.306,  0.260, -0.007
187483.2, 2324, 35.66755416, 139.79109327, 39.553, -3961767.386, 3349008.827, 3698309.929, -1.572,  2.745, 313.313, -0.346,  0.314, -0.006
187483.4, 2324, 35.66755475, 139.79109244, 39.552, -3961767.308, 3349008.859, 3698309.982, -1.570,  2.749, 313.498, -0.393,  0.360, -0.006
187483.6, 2324, 35.66755544, 139.79109151, 39.550, -3961767.218, 3349008.894, 3698310.043, -1.553,  2.759, 313.815, -0.440,  0.407, -0.009
187483.8, 2324, 35.66755622, 139.79109048, 39.549, -3961767.119, 3349008.932, 3698310.112, -1.527,  2.767, 314.258, -0.483,  0.462, -0.009
187484.0, 2324, 35.66755711, 139.79108937, 39.547, -3961767.009, 3349008.970, 3698310.191, -1.490,  2.777, 314.824, -0.505,  0.504, -0.009
187484.2, 2324, 35.66755813, 139.79108822, 39.545, -3961766.890, 3349009.006, 3698310.282, -1.393,  2.794, 315.488, -0.541,  0.561, -0.004
187484.4, 2324, 35.66755917, 139.79108698, 39.543, -3961766.765, 3349009.047, 3698310.375, -1.371,  2.816, 316.155, -0.572,  0.602, -0.017
187484.6, 2324, 35.66756032, 139.79108568, 39.540, -3961766.630, 3349009.088, 3698310.477, -1.308,  2.889, 316.835, -0.606,  0.673, -0.014
187484.8, 2324, 35.66756162, 139.79108421, 39.536, -3961766.477, 3349009.133, 3698310.592, -1.305,  2.963, 317.493, -0.716,  0.776, -0.031
187485.0, 2324, 35.66756321, 139.79108253, 39.530, -3961766.297, 3349009.179, 3698310.731, -1.369,  3.026, 318.113, -0.810,  0.938, -0.011
187485.2, 2324, 35.66756518, 139.79108075, 39.525, -3961766.092, 3349009.218, 3698310.906, -1.230,  3.220, 318.651, -0.891,  1.129, -0.037
187485.4, 2324, 35.66756740, 139.79107863, 39.528, -3961765.861, 3349009.273, 3698311.108, -1.193,  3.162, 319.091, -1.087,  1.235,  0.043
187485.6, 2324, 35.66756987, 139.79107623, 39.530, -3961765.600, 3349009.337, 3698311.332, -1.327,  3.044, 319.345, -1.152,  1.392, -0.037
187485.8, 2324, 35.66757262, 139.79107362, 39.527, -3961765.309, 3349009.401, 3698311.578, -1.220,  3.140, 319.493, -1.310,  1.545, -0.002
187486.0, 2324, 35.66757567, 139.79107075, 39.531, -3961764.993, 3349009.474, 3698311.855, -1.234,  3.092, 319.529, -1.354,  1.676, -0.002
187486.2, 2324, 35.66757881, 139.79106769, 39.529, -3961764.658, 3349009.554, 3698312.137, -1.192,  3.205, 319.588, -1.461,  1.765,  0.001
187486.4, 2324, 35.66758204, 139.79106441, 39.527, -3961764.305, 3349009.644, 3698312.427, -1.227,  3.291, 319.600, -1.494,  1.813, -0.033
187486.6, 2324, 35.66758538, 139.79106100, 39.527, -3961763.941, 3349009.741, 3698312.728, -1.295,  3.400, 319.606, -1.599,  1.904,  0.003
187486.8, 2324, 35.66758891, 139.79105737, 39.522, -3961763.551, 3349009.842, 3698313.043, -1.510,  3.737, 319.588, -1.674,  2.043, -0.023
187487.0, 2324, 35.66759278, 139.79105355, 39.524, -3961763.138, 3349009.945, 3698313.393, -1.547,  3.735, 319.613, -1.835,  2.199,  0.026
187487.2, 2324, 35.66759709, 139.79104965, 39.530, -3961762.701, 3349010.038, 3698313.785, -1.634,  3.455, 319.603, -1.929,  2.373,  0.010
187487.4, 2324, 35.66760167, 139.79104550, 39.536, -3961762.236, 3349010.137, 3698314.202, -1.426,  3.464, 319.639, -2.035,  2.548,  0.057
187487.6, 2324, 35.66760651, 139.79104105, 39.544, -3961761.742, 3349010.247, 3698314.643, -1.388,  3.407, 319.681, -2.185,  2.675,  0.042
187487.8, 2324, 35.66761161, 139.79103633, 39.553, -3961761.219, 3349010.365, 3698315.108, -1.390,  3.314, 319.753, -2.300,  2.815,  0.009
187488.0, 2324, 35.66761694, 139.79103138, 39.547, -3961760.663, 3349010.481, 3698315.585, -1.541,  3.607, 319.946, -2.393,  2.964, -0.012
187488.2, 2324, 35.66762243, 139.79102604, 39.554, -3961760.084, 3349010.625, 3698316.083, -1.445,  3.326, 320.167, -2.459,  3.092,  0.037
187488.4, 2324, 35.66762803, 139.79102057, 39.562, -3961759.492, 3349010.773, 3698316.593, -1.422,  3.143, 320.392, -2.472,  3.136,  0.049
187488.6, 2324, 35.66763368, 139.79101509, 39.570, -3961758.898, 3349010.920, 3698317.107, -1.422,  2.928, 320.602, -2.474,  3.135,  0.009
187488.8, 2324, 35.66763935, 139.79100970, 39.570, -3961758.303, 3349011.056, 3698317.618, -1.200,  2.939, 320.760, -2.413,  3.143, -0.011
187489.0, 2324, 35.66764497, 139.79100433, 39.568, -3961757.710, 3349011.192, 3698318.123, -1.138,  3.032, 320.693, -2.439,  3.140,  0.016
187489.2, 2324, 35.66765061, 139.79099896, 39.571, -3961757.119, 3349011.329, 3698318.634, -0.871,  2.887, 320.506, -2.433,  3.116, -0.002
187489.4, 2324, 35.66765622, 139.79099358, 39.570, -3961756.527, 3349011.466, 3698319.139, -0.558,  2.868, 320.214, -2.453,  3.129,  0.006
187489.6, 2324, 35.66766182, 139.79098814, 39.573, -3961755.934, 3349011.610, 3698319.645, -0.307,  2.755, 319.841, -2.483,  3.125, -0.003
187489.8, 2324, 35.66766741, 139.79098260, 39.570, -3961755.332, 3349011.758, 3698320.147, -0.118,  2.676, 319.379, -2.541,  3.067,  0.008
187490.0, 2324, 35.66767287, 139.79097700, 39.570, -3961754.735, 3349011.917, 3698320.639, -0.400,  3.128, 318.855, -2.537,  3.030, -0.001
187490.2, 2324, 35.66767840, 139.79097135, 39.570, -3961754.132, 3349012.077, 3698321.138, -0.121,  3.126, 318.301, -2.584,  3.083, -0.015
187490.4, 2324, 35.66768387, 139.79096563, 39.560, -3961753.521, 3349012.239, 3698321.625,  0.031,  3.316, 317.694, -2.622,  2.997, -0.016
187490.6, 2324, 35.66768926, 139.79095975, 39.574, -3961752.920, 3349012.428, 3698322.119, -0.183,  2.910, 317.066, -2.672,  2.992,  0.107
187490.8, 2324, 35.66769460, 139.79095388, 39.579, -3961752.316, 3349012.613, 3698322.603, -0.065,  2.563, 316.477, -2.622,  2.994, -0.024
187491.0, 2324, 35.66769982, 139.79094801, 39.574, -3961751.712, 3349012.798, 3698323.071, -0.179,  2.620, 316.009, -2.662,  2.843, -0.003
187491.2, 2324, 35.66770497, 139.79094210, 39.574, -3961751.112, 3349012.992, 3698323.535, -0.332,  2.593, 315.661, -2.654,  2.848, -0.017
187491.4, 2324, 35.66771006, 139.79093626, 39.567, -3961750.515, 3349013.180, 3698323.990, -0.345,  2.769, 315.430, -2.638,  2.785, -0.042
187491.6, 2324, 35.66771504, 139.79093056, 39.562, -3961749.932, 3349013.363, 3698324.436, -0.140,  2.826, 315.318, -2.568,  2.768,  0.025
187491.8, 2324, 35.66771982, 139.79092503, 39.562, -3961749.373, 3349013.546, 3698324.867, -0.215,  2.735, 315.275, -2.451,  2.561, -0.032
187492.0, 2324, 35.66772437, 139.79091976, 39.561, -3961748.839, 3349013.720, 3698325.276, -0.275,  2.874, 315.271, -2.324,  2.462,  0.023
187492.2, 2324, 35.66772873, 139.79091472, 39.563, -3961748.331, 3349013.887, 3698325.671, -0.161,  2.873, 315.263, -2.214,  2.365,  0.034
187492.4, 2324, 35.66773290, 139.79090997, 39.558, -3961747.844, 3349014.039, 3698326.044,  0.253,  3.092, 315.266, -2.074,  2.270, -0.042
187492.6, 2324, 35.66773682, 139.79090535, 39.557, -3961747.380, 3349014.194, 3698326.396,  0.022,  3.038, 315.271, -2.016,  2.109, -0.012
187492.8, 2324, 35.66774056, 139.79090109, 39.558, -3961746.946, 3349014.333, 3698326.734,  0.304,  3.085, 315.294, -1.844,  2.054,  0.033
187493.0, 2324, 35.66774402, 139.79089707, 39.562, -3961746.543, 3349014.468, 3698327.048,  0.152,  3.069, 315.325, -1.759,  1.806,  0.021
187493.2, 2324, 35.66774717, 139.79089339, 39.564, -3961746.173, 3349014.592, 3698327.333,  0.193,  3.100, 315.324, -1.532,  1.739,  0.014
187493.4, 2324, 35.66775012, 139.79089005, 39.563, -3961745.832, 3349014.700, 3698327.599,  0.462,  3.057, 315.413, -1.469,  1.554,  0.011
187493.6, 2324, 35.66775271, 139.79088689, 39.563, -3961745.519, 3349014.810, 3698327.832,  0.044,  3.104, 315.418, -1.300,  1.407,  0.010
187493.8, 2324, 35.66775513, 139.79088417, 39.565, -3961745.242, 3349014.898, 3698328.051,  0.283,  3.299, 315.509, -1.149,  1.272, -0.004
187494.0, 2324, 35.66775728, 139.79088174, 39.567, -3961744.995, 3349014.977, 3698328.246,  0.373,  3.493, 315.555, -1.002,  1.150,  0.021
187494.2, 2324, 35.66775915, 139.79087958, 39.569, -3961744.777, 3349015.049, 3698328.416,  0.522,  3.527, 315.639, -0.893,  1.007,  0.003
187494.4, 2324, 35.66776080, 139.79087765, 39.568, -3961744.583, 3349015.113, 3698328.564,  0.522,  3.489, 315.711, -0.784,  0.888,  0.014
187494.6, 2324, 35.66776224, 139.79087594, 39.569, -3961744.412, 3349015.172, 3698328.695,  0.496,  3.372, 315.763, -0.691,  0.779, -0.001
187494.8, 2324, 35.66776351, 139.79087443, 39.570, -3961744.262, 3349015.224, 3698328.810,  0.427,  3.340, 315.816, -0.610,  0.686,  0.004
187495.0, 2324, 35.66776467, 139.79087307, 39.570, -3961744.125, 3349015.270, 3698328.914,  0.384,  3.297, 315.857, -0.581,  0.655, -0.003
187495.2, 2324, 35.66776578, 139.79087176, 39.567, -3961743.992, 3349015.312, 3698329.013,  0.417,  3.320, 315.904, -0.555,  0.638, -0.011
187495.4, 2324, 35.66776687, 139.79087045, 39.564, -3961743.859, 3349015.356, 3698329.109,  0.436,  3.336, 315.930, -0.547,  0.635, -0.023
187495.6, 2324, 35.66776787, 139.79086927, 39.563, -3961743.740, 3349015.395, 3698329.199,  0.529,  3.571, 316.007, -0.385,  0.465,  0.029
187495.8, 2324, 35.66776840, 139.79086862, 39.567, -3961743.679, 3349015.420, 3698329.249,  0.509,  4.623, 316.040, -0.200,  0.244,  0.011
187496.0, 2324, 35.66776878, 139.79086813, 39.567, -3961743.631, 3349015.438, 3698329.283,  0.457,  4.786, 316.049, -0.176,  0.215, -0.014
187496.2, 2324, 35.66776908, 139.79086777, 39.566, -3961743.595, 3349015.450, 3698329.310,  0.443,  4.826, 316.065, -0.123,  0.157,  0.007
187496.4, 2324, 35.66776931, 139.79086749, 39.566, -3961743.567, 3349015.460, 3698329.330,  0.416,  4.976, 316.083, -0.106,  0.148, -0.002
187496.6, 2324, 35.66776955, 139.79086719, 39.566, -3961743.538, 3349015.470, 3698329.352,  0.354,  4.992, 316.087, -0.128,  0.151, -0.001
187496.8, 2324, 35.66776984, 139.79086683, 39.565, -3961743.502, 3349015.482, 3698329.377,  0.313,  4.969, 316.096, -0.165,  0.207, -0.004
187497.0, 2324, 35.66777024, 139.79086633, 39.565, -3961743.453, 3349015.500, 3698329.414,  0.292,  4.900, 316.102, -0.255,  0.294,  0.001
187497.2, 2324, 35.66777088, 139.79086561, 39.565, -3961743.379, 3349015.523, 3698329.471,  0.298,  4.602, 316.122, -0.403,  0.441, -0.003
187497.4, 2324, 35.66777186, 139.79086447, 39.564, -3961743.263, 3349015.561, 3698329.559,  0.259,  3.850, 316.156, -0.634,  0.675, -0.009
187497.6, 2324, 35.66777314, 139.79086297, 39.565, -3961743.113, 3349015.612, 3698329.675,  0.256,  2.918, 316.186, -0.627,  0.679,  0.025
187497.8, 2324, 35.66777432, 139.79086163, 39.573, -3961742.981, 3349015.659, 3698329.786,  0.355,  3.529, 316.238, -0.629,  0.678,  0.030
187498.0, 2324, 35.66777556, 139.79086015, 39.576, -3961742.835, 3349015.711, 3698329.899,  0.299,  3.291, 316.274, -0.685,  0.715, -0.002
187498.2, 2324, 35.66777685, 139.79085869, 39.575, -3961742.686, 3349015.758, 3698330.015,  0.335,  3.357, 316.297, -0.646,  0.716, -0.005
187498.4, 2324, 35.66777817, 139.79085719, 39.575, -3961742.533, 3349015.806, 3698330.134,  0.376,  3.537, 316.325, -0.715,  0.743, -0.011
187498.6, 2324, 35.66777952, 139.79085560, 39.571, -3961742.371, 3349015.858, 3698330.254,  0.240,  3.665, 316.333, -0.711,  0.775, -0.016
187498.8, 2324, 35.66778095, 139.79085399, 39.571, -3961742.206, 3349015.909, 3698330.382,  0.319,  3.716, 316.373, -0.769,  0.787, -0.007
187499.0, 2324, 35.66778237, 139.79085229, 39.567, -3961742.034, 3349015.966, 3698330.508,  0.104,  3.918, 316.356, -0.781,  0.816, -0.013
187499.2, 2324, 35.66778387, 139.79085056, 39.566, -3961741.858, 3349016.022, 3698330.643,  0.075,  4.051, 316.382, -0.786,  0.827, -0.012
187499.4, 2324, 35.66778537, 139.79084884, 39.580, -3961741.692, 3349016.086, 3698330.786,  0.079,  3.951, 316.358, -0.726,  0.819,  0.285
187499.6, 2324, 35.66778674, 139.79084724, 39.642, -3961741.569, 3349016.172, 3698330.946,  0.060,  2.361, 316.422, -0.675,  0.665,  0.155
187499.8, 2324, 35.66778789, 139.79084582, 39.638, -3961741.427, 3349016.220, 3698331.047, -0.272,  2.698, 316.419, -0.633,  0.657, -0.122
187500.0, 2324, 35.66778918, 139.79084436, 39.603, -3961741.256, 3349016.248, 3698331.143, -0.199,  3.605, 316.443, -0.707,  0.750, -0.278
187500.2, 2324, 35.66779063, 139.79084272, 39.561, -3961741.063, 3349016.279, 3698331.249, -0.155,  4.890, 316.435, -0.806,  0.885,  0.116
187500.4, 2324, 35.66779224, 139.79084087, 39.594, -3961740.895, 3349016.357, 3698331.413, -0.161,  4.005, 316.456, -0.823,  0.849,  0.049
187500.6, 2324, 35.66779378, 139.79083910, 39.589, -3961740.713, 3349016.413, 3698331.549, -0.222,  4.343, 316.486, -0.789,  0.882, -0.009
187500.8, 2324, 35.66779538, 139.79083732, 39.598, -3961740.535, 3349016.474, 3698331.699, -0.100,  4.248, 316.515, -0.819,  0.867,  0.040
187501.0, 2324, 35.66779694, 139.79083553, 39.603, -3961740.357, 3349016.535, 3698331.842, -0.149,  4.348, 316.534, -0.798,  0.878,  0.030
187501.2, 2324, 35.66779854, 139.79083378, 39.609, -3961740.179, 3349016.592, 3698331.990, -0.066,  4.377, 316.604, -0.810,  0.867,  0.019
187501.4, 2324, 35.66780012, 139.79083199, 39.616, -3961740.001, 3349016.654, 3698332.137, -0.221,  4.409, 316.716, -0.814,  0.891,  0.014
187501.6, 2324, 35.66780180, 139.79083013, 39.623, -3961739.813, 3349016.716, 3698332.292, -0.287,  4.237, 316.984, -0.893,  0.974,  0.030
187501.8, 2324, 35.66780360, 139.79082814, 39.631, -3961739.613, 3349016.782, 3698332.459, -0.449,  4.291, 317.329, -0.932,  1.036,  0.035
187502.0, 2324, 35.66780559, 139.79082600, 39.640, -3961739.395, 3349016.852, 3698332.644, -0.489,  4.275, 317.881, -1.013,  1.175,  0.031
187502.2, 2324, 35.66780778, 139.79082369, 39.648, -3961739.157, 3349016.924, 3698332.846, -0.524,  4.186, 318.612, -1.060,  1.266,  0.043
187502.4, 2324, 35.66781008, 139.79082133, 39.655, -3961738.910, 3349016.995, 3698333.057, -0.571,  4.114, 319.640, -1.053,  1.304,  0.030
187502.6, 2324, 35.66781246, 139.79081907, 39.661, -3961738.664, 3349017.055, 3698333.275, -0.460,  4.102, 320.948, -1.002,  1.332,  0.043
187502.8, 2324, 35.66781489, 139.79081689, 39.672, -3961738.423, 3349017.110, 3698333.501, -0.373,  3.981, 322.513, -0.979,  1.347,  0.056
187503.0, 2324, 35.66781736, 139.79081478, 39.679, -3961738.182, 3349017.157, 3698333.727, -0.394,  3.960, 324.337, -0.914,  1.415,  0.011
187503.2, 2324, 35.66781999, 139.79081273, 39.683, -3961737.935, 3349017.191, 3698333.967, -0.371,  3.996, 326.426, -0.943,  1.493,  0.005
187503.4, 2324, 35.66782288, 139.79081070, 39.686, -3961737.675, 3349017.212, 3698334.229, -0.149,  4.116, 328.645, -0.926,  1.667,  0.035
187503.6, 2324, 35.66782603, 139.79080864, 39.695, -3961737.405, 3349017.227, 3698334.518, -0.126,  4.124, 331.031, -0.925,  1.821,  0.028
187503.8, 2324, 35.66782945, 139.79080665, 39.700, -3961737.123, 3349017.225, 3698334.829,  0.046,  4.166, 333.622, -0.870,  1.982,  0.036
187504.0, 2324, 35.66783313, 139.79080479, 39.707, -3961736.836, 3349017.203, 3698335.165,  0.301,  4.100, 336.323, -0.815,  2.108,  0.035
187504.2, 2324, 35.66783705, 139.79080307, 39.713, -3961736.546, 3349017.162, 3698335.522,  0.620,  3.997, 339.131, -0.736,  2.228,  0.041
187504.4, 2324, 35.66784115, 139.79080152, 39.719, -3961736.256, 3349017.101, 3698335.895,  0.798,  3.896, 342.013, -0.679,  2.311,  0.024
187504.6, 2324, 35.66784543, 139.79080015, 39.725, -3961735.969, 3349017.020, 3698336.284,  0.853,  3.852, 344.849, -0.564,  2.437,  0.047
187504.8, 2324, 35.66784989, 139.79079898, 39.733, -3961735.685, 3349016.919, 3698336.691,  0.927,  3.719, 347.400, -0.507,  2.509,  0.037
187505.0, 2324, 35.66785453, 139.79079791, 39.740, -3961735.397, 3349016.803, 3698337.113,  0.541,  3.510, 349.501, -0.456,  2.624,  0.036
187505.2, 2324, 35.66785931, 139.79079714, 39.743, -3961735.118, 3349016.658, 3698337.546,  0.931,  3.484, 351.204, -0.323,  2.681,  0.007
187505.4, 2324, 35.66786420, 139.79079637, 39.747, -3961734.834, 3349016.509, 3698337.989,  0.770,  3.576, 352.309, -0.359,  2.743,  0.029
187505.6, 2324, 35.66786925, 139.79079571, 39.749, -3961734.547, 3349016.345, 3698338.446,  0.984,  3.516, 352.917, -0.292,  2.846,  0.006
187505.8, 2324, 35.66787441, 139.79079493, 39.755, -3961734.250, 3349016.186, 3698338.914,  0.588,  3.364, 353.034, -0.365,  2.877,  0.005
187506.0, 2324, 35.66787964, 139.79079411, 39.756, -3961733.945, 3349016.025, 3698339.386,  0.174,  3.528, 352.926, -0.369,  2.935,  0.030
187506.2, 2324, 35.66788502, 139.79079330, 39.760, -3961733.634, 3349015.858, 3698339.873, -0.153,  3.589, 352.697, -0.346,  3.040,  0.028
187506.4, 2324, 35.66789057, 139.79079249, 39.767, -3961733.317, 3349015.686, 3698340.378, -0.161,  3.286, 352.440, -0.354,  3.105, -0.009
187506.6, 2324, 35.66789621, 139.79079161, 39.765, -3961732.985, 3349015.511, 3698340.885, -0.343,  3.282, 352.202, -0.446,  3.166,  0.016
187506.8, 2324, 35.66790194, 139.79079073, 39.772, -3961732.655, 3349015.336, 3698341.406, -0.257,  2.975, 351.938, -0.385,  3.167,  0.025
187507.0, 2324, 35.66790761, 139.79078980, 39.777, -3961732.324, 3349015.166, 3698341.920, -0.294,  2.738, 351.698, -0.434,  3.138, -0.003
187507.2, 2324, 35.66791325, 139.79078883, 39.773, -3961731.986, 3349014.995, 3698342.426, -0.378,  2.823, 351.468, -0.416,  3.140,  0.008
187507.4, 2324, 35.66791891, 139.79078789, 39.773, -3961731.651, 3349014.824, 3698342.936, -0.187,  2.765, 351.222, -0.428,  3.118, -0.025
187507.6, 2324, 35.66792455, 139.79078692, 39.768, -3961731.313, 3349014.653, 3698343.441, -0.072,  2.750, 350.941, -0.466,  3.124, -0.004
187507.8, 2324, 35.66793014, 139.79078591, 39.766, -3961730.976, 3349014.488, 3698343.944, -0.025,  2.882, 350.673, -0.497,  3.060, -0.012
187508.0, 2324, 35.66793569, 139.79078488, 39.764, -3961730.641, 3349014.326, 3698344.443,  0.095,  2.897, 350.352, -0.469,  3.088, -0.020
187508.2, 2324, 35.66794120, 139.79078377, 39.761, -3961730.302, 3349014.171, 3698344.938,  0.103,  2.957, 350.065, -0.485,  3.044,  0.007
187508.4, 2324, 35.66794668, 139.79078268, 39.759, -3961729.966, 3349014.017, 3698345.431,  0.413,  2.887, 349.791, -0.537,  2.992, -0.074
187508.6, 2324, 35.66795210, 139.79078147, 39.758, -3961729.627, 3349013.874, 3698345.919,  0.213,  3.024, 349.452, -0.558,  3.009,  0.055
187508.8, 2324, 35.66795748, 139.79078028, 39.761, -3961729.293, 3349013.733, 3698346.406,  0.226,  3.087, 349.139, -0.486,  2.972, -0.032
187509.0, 2324, 35.66796278, 139.79077906, 39.761, -3961728.960, 3349013.596, 3698346.883,  0.186,  3.267, 348.846, -0.583,  2.936,  0.021
187509.2, 2324, 35.66796803, 139.79077785, 39.758, -3961728.628, 3349013.459, 3698347.355,  0.251,  3.470, 348.522, -0.540,  2.901, -0.021
187509.4, 2324, 35.66797327, 139.79077662, 39.759, -3961728.298, 3349013.325, 3698347.828,  0.302,  3.547, 348.224, -0.568,  2.902,  0.017
187509.6, 2324, 35.66797850, 139.79077535, 39.762, -3961727.967, 3349013.196, 3698348.301,  0.349,  3.539, 347.974, -0.572,  2.898,  0.035
187509.8, 2324, 35.66798370, 139.79077405, 39.769, -3961727.639, 3349013.073, 3698348.774,  0.325,  3.427, 347.729, -0.600,  2.867,  0.030
187510.0, 2324, 35.66798887, 139.79077272, 39.774, -3961727.309, 3349012.951, 3698349.243,  0.286,  3.331, 347.498, -0.599,  2.856,  0.026
187510.2, 2324, 35.66799403, 139.79077141, 39.780, -3961726.981, 3349012.830, 3698349.711,  0.370,  3.146, 347.284, -0.597,  2.852,  0.025
187510.4, 2324, 35.66799913, 139.79077007, 39.784, -3961726.653, 3349012.711, 3698350.173,  0.407,  3.118, 347.090, -0.614,  2.816,  0.015
187510.6, 2324, 35.66800420, 139.79076875, 39.787, -3961726.327, 3349012.592, 3698350.632,  0.558,  3.042, 346.894, -0.588,  2.792,  0.017
187510.8, 2324, 35.66800920, 139.79076738, 39.789, -3961726.001, 3349012.479, 3698351.084,  0.537,  3.070, 346.750, -0.616,  2.777,  0.009
187511.0, 2324, 35.66801422, 139.79076601, 39.788, -3961725.673, 3349012.364, 3698351.536,  0.496,  3.034, 346.757, -0.636,  2.799, -0.010
187511.2, 2324, 35.66801936, 139.79076454, 39.787, -3961725.332, 3349012.250, 3698351.999,  0.301,  2.953, 346.729, -0.681,  2.895,  0.013
187511.4, 2324, 35.66802469, 139.79076301, 39.788, -3961724.980, 3349012.134, 3698352.480,  0.065,  2.835, 346.683, -0.683,  3.014,  0.007
187511.6, 2324, 35.66803020, 139.79076149, 39.792, -3961724.621, 3349012.011, 3698352.979,  0.142,  2.762, 346.658, -0.693,  3.083,  0.032
187511.8, 2324, 35.66803580, 139.79075994, 39.792, -3961724.254, 3349011.884, 3698353.483,  0.231,  2.945, 346.641, -0.745,  3.147, -0.009
187512.0, 2324, 35.66804154, 139.79075828, 39.786, -3961723.870, 3349011.756, 3698353.997,  0.059,  2.975, 346.627, -0.761,  3.252, -0.034
187512.2, 2324, 35.66804745, 139.79075658, 39.780, -3961723.475, 3349011.624, 3698354.527, -0.116,  2.848, 346.610, -0.774,  3.302, -0.017
187512.4, 2324, 35.66805345, 139.79075487, 39.781, -3961723.079, 3349011.492, 3698355.068, -0.217,  2.641, 346.614, -0.766,  3.363,  0.036
187512.6, 2324, 35.66805952, 139.79075317, 39.787, -3961722.683, 3349011.359, 3698355.619, -0.186,  2.286, 346.590, -0.781,  3.344, -0.001
187512.8, 2324, 35.66806566, 139.79075147, 39.782, -3961722.278, 3349011.218, 3698356.169, -0.030,  2.052, 346.568, -0.762,  3.438, -0.073
187513.0, 2324, 35.66807192, 139.79074970, 39.767, -3961721.855, 3349011.071, 3698356.725,  0.001,  2.025, 346.586, -0.837,  3.537, -0.044
187513.2, 2324, 35.66807832, 139.79074781, 39.761, -3961721.425, 3349010.931, 3698357.298, -0.355,  1.793, 346.520, -0.834,  3.582, -0.026
187513.4, 2324, 35.66808480, 139.79074596, 39.750, -3961720.990, 3349010.782, 3698357.876, -0.387,  1.544, 346.511, -0.852,  3.602, -0.080
187513.6, 2324, 35.66809131, 139.79074415, 39.731, -3961720.551, 3349010.626, 3698358.451, -0.229,  1.620, 346.463, -0.809,  3.606, -0.090
187513.8, 2324, 35.66809774, 139.79074229, 39.717, -3961720.116, 3349010.478, 3698359.023, -0.381,  1.663, 346.452, -0.863,  3.548, -0.058
187514.0, 2324, 35.66810412, 139.79074045, 39.698, -3961719.681, 3349010.329, 3698359.587, -0.513,  1.915, 346.403, -0.825,  3.529, -0.096
187514.2, 2324, 35.66811048, 139.79073863, 39.682, -3961719.251, 3349010.181, 3698360.151, -0.518,  2.127, 346.363, -0.800,  3.513, -0.063
187514.4, 2324, 35.66811680, 139.79073687, 39.669, -3961718.827, 3349010.032, 3698360.713, -0.290,  2.377, 346.377, -0.789,  3.518, -0.049
187514.6, 2324, 35.66812308, 139.79073505, 39.659, -3961718.404, 3349009.890, 3698361.273, -0.465,  2.439, 346.531, -0.795,  3.474, -0.065
187514.8, 2324, 35.66812942, 139.79073339, 39.645, -3961717.986, 3349009.733, 3698361.837, -0.041,  2.121, 347.017, -0.726,  3.575, -0.057
187515.0, 2324, 35.66813582, 139.79073178, 39.639, -3961717.571, 3349009.574, 3698362.410,  0.221,  1.363, 347.676, -0.754,  3.479, -0.010
187515.2, 2324, 35.66814206, 139.79073024, 39.640, -3961717.174, 3349009.420, 3698362.973,  0.293,  1.714, 348.317, -0.664,  3.473, -0.012
187515.4, 2324, 35.66814828, 139.79072885, 39.629, -3961716.778, 3349009.251, 3698363.527,  0.544,  1.993, 349.031, -0.653,  3.393, -0.082
187515.6, 2324, 35.66815441, 139.79072747, 39.596, -3961716.374, 3349009.073, 3698364.061,  0.377,  2.996, 349.656, -0.568,  3.433, -0.210
187515.8, 2324, 35.66816070, 139.79072622, 39.577, -3961715.979, 3349008.887, 3698364.616,  0.521,  2.903, 350.263, -0.572,  3.551,  0.032
187516.0, 2324, 35.66816700, 139.79072502, 39.582, -3961715.600, 3349008.709, 3698365.187,  0.576,  2.627, 350.716, -0.471,  3.499, -0.027
187516.2, 2324, 35.66817325, 139.79072392, 39.591, -3961715.233, 3349008.529, 3698365.756,  0.807,  2.270, 351.008, -0.603,  3.449,  0.089
187516.4, 2324, 35.66817938, 139.79072277, 39.586, -3961714.860, 3349008.350, 3698366.306,  0.671,  2.351, 351.149, -0.479,  3.370, -0.092
187516.6, 2324, 35.66818547, 139.79072170, 39.574, -3961714.489, 3349008.163, 3698366.847,  0.717,  2.539, 351.356, -0.502,  3.394, -0.041
187516.8, 2324, 35.66819154, 139.79072066, 39.567, -3961714.124, 3349007.978, 3698367.391,  0.901,  2.575, 351.468, -0.418,  3.368, -0.027
187517.0, 2324, 35.66819748, 139.79071959, 39.564, -3961713.766, 3349007.802, 3698367.924,  0.647,  3.042, 351.527, -0.521,  3.208, -0.004
187517.2, 2324, 35.66820329, 139.79071864, 39.564, -3961713.423, 3349007.625, 3698368.448,  0.905,  3.663, 351.569, -0.406,  3.252,  0.007
187517.4, 2324, 35.66820911, 139.79071768, 39.556, -3961713.075, 3349007.444, 3698368.968,  1.076,  3.565, 351.665, -0.484,  3.150, -0.079
187517.6, 2324, 35.66821482, 139.79071673, 39.553, -3961712.735, 3349007.270, 3698369.481,  1.132,  3.847, 351.676, -0.399,  3.164,  0.038
187517.8, 2324, 35.66822049, 139.79071574, 39.567, -3961712.406, 3349007.109, 3698370.000,  0.971,  3.571, 351.783, -0.462,  3.125,  0.154
187518.0, 2324, 35.66822606, 139.79071479, 39.589, -3961712.089, 3349006.953, 3698370.515,  0.843,  2.925, 351.814, -0.394,  3.009, -0.005
187518.2, 2324, 35.66823147, 139.79071393, 39.585, -3961711.769, 3349006.785, 3698371.000,  0.923,  3.163, 351.860, -0.417,  2.994,  0.014
187518.4, 2324, 35.66823682, 139.79071303, 39.592, -3961711.456, 3349006.627, 3698371.487,  0.793,  2.993, 351.872, -0.395,  2.949,  0.016
187518.6, 2324, 35.66824210, 139.79071216, 39.592, -3961711.144, 3349006.467, 3698371.963,  0.737,  2.960, 351.929, -0.396,  2.905, -0.007
187518.8, 2324, 35.66824731, 139.79071127, 39.591, -3961710.834, 3349006.310, 3698372.432,  0.465,  2.973, 351.957, -0.416,  2.880,  0.004
187519.0, 2324, 35.66825253, 139.79071037, 39.591, -3961710.524, 3349006.154, 3698372.902,  0.159,  2.961, 351.974, -0.406,  2.926,  0.007
187519.2, 2324, 35.66825790, 139.79070947, 39.593, -3961710.207, 3349005.993, 3698373.387, -0.079,  2.847, 351.985, -0.431,  2.988, -0.005
187519.4, 2324, 35.66826340, 139.79070852, 39.591, -3961709.879, 3349005.828, 3698373.882, -0.442,  2.812, 351.973, -0.442,  3.100, -0.005
187519.6, 2324, 35.66826906, 139.79070757, 39.591, -3961709.543, 3349005.658, 3698374.392, -0.701,  2.792, 351.940, -0.420,  3.153,  0.002
187519.8, 2324, 35.66827485, 139.79070663, 39.589, -3961709.201, 3349005.480, 3698374.913, -0.736,  2.865, 351.888, -0.455,  3.262, -0.020
187520.0, 2324, 35.66828079, 139.79070562, 39.586, -3961708.847, 3349005.300, 3698375.447, -0.794,  2.931, 351.754, -0.452,  3.357, -0.025
187520.2, 2324, 35.66828688, 139.79070454, 39.582, -3961708.480, 3349005.118, 3698375.993, -0.932,  2.947, 351.484, -0.533,  3.413, -0.033
187520.4, 2324, 35.66829311, 139.79070339, 39.580, -3961708.104, 3349004.936, 3698376.554, -0.961,  3.029, 351.024, -0.490,  3.515,  0.033
187520.6, 2324, 35.66829948, 139.79070222, 39.583, -3961707.723, 3349004.753, 3698377.130, -0.598,  2.925, 350.336, -0.586,  3.553, -0.012
187520.8, 2324, 35.66830596, 139.79070088, 39.580, -3961707.322, 3349004.573, 3698377.712, -0.219,  2.827, 349.217, -0.624,  3.654, -0.021
187521.0, 2324, 35.66831255, 139.79069930, 39.576, -3961706.902, 3349004.405, 3698378.304,  0.070,  2.625, 347.859, -0.793,  3.668, -0.018
187521.2, 2324, 35.66831921, 139.79069744, 39.575, -3961706.464, 3349004.255, 3698378.903,  0.209,  2.353, 346.402, -0.870,  3.735, -0.012
187521.4, 2324, 35.66832592, 139.79069538, 39.569, -3961706.008, 3349004.114, 3698379.505,  0.472,  2.211, 345.106, -0.992,  3.713, -0.033
187521.6, 2324, 35.66833266, 139.79069314, 39.559, -3961705.538, 3349003.982, 3698380.106,  0.669,  2.166, 344.092, -1.020,  3.763, -0.056
187521.8, 2324, 35.66833945, 139.79069078, 39.546, -3961705.056, 3349003.855, 3698380.711,  1.016,  2.082, 343.430, -1.101,  3.764, -0.052
187522.0, 2324, 35.66834625, 139.79068831, 39.534, -3961704.569, 3349003.735, 3698381.317,  1.234,  2.004, 342.966, -1.123,  3.752, -0.039
187522.2, 2324, 35.66835308, 139.79068577, 39.525, -3961704.077, 3349003.621, 3698381.927,  1.424,  1.703, 342.669, -1.152,  3.783, -0.094
187522.4, 2324, 35.66835990, 139.79068326, 39.507, -3961703.582, 3349003.500, 3698382.531,  1.853,  1.714, 342.591, -1.136,  3.801, -0.069
187522.6, 2324, 35.66836670, 139.79068073, 39.491, -3961703.088, 3349003.383, 3698383.135,  2.063,  1.743, 342.737, -1.147,  3.784, -0.088
187522.8, 2324, 35.66837355, 139.79067822, 39.472, -3961702.591, 3349003.260, 3698383.741,  2.253,  1.537, 343.100, -1.131,  3.804, -0.108
187523.0, 2324, 35.66838045, 139.79067576, 39.452, -3961702.094, 3349003.132, 3698384.352,  2.299,  1.330, 343.735, -1.102,  3.838, -0.093
187523.2, 2324, 35.66838742, 139.79067342, 39.433, -3961701.601, 3349002.993, 3698384.969,  2.355,  1.024, 344.787, -1.025,  3.891, -0.102
187523.4, 2324, 35.66839444, 139.79067131, 39.408, -3961701.116, 3349002.832, 3698385.587,  2.487,  0.750, 346.352, -0.905,  3.895, -0.154
187523.6, 2324, 35.66840144, 139.79066946, 39.379, -3961700.644, 3349002.652, 3698386.201,  2.369,  0.771, 348.447, -0.766,  3.878, -0.151
187523.8, 2324, 35.66840843, 139.79066803, 39.346, -3961700.194, 3349002.442, 3698386.812,  2.400,  0.786, 351.019, -0.555,  3.868, -0.157
187524.0, 2324, 35.66841535, 139.79066702, 39.313, -3961699.773, 3349002.206, 3698387.417,  2.258,  1.091, 353.911, -0.347,  3.808, -0.182
187524.2, 2324, 35.66842221, 139.79066651, 39.282, -3961699.385, 3349001.938, 3698388.017,  2.211,  1.431, 356.951, -0.158,  3.828, -0.126
187524.4, 2324, 35.66842908, 139.79066646, 39.255, -3961699.026, 3349001.640, 3698388.620,  2.194,  1.735,  0.017,  0.071,  3.823, -0.160
187524.6, 2324, 35.66843600, 139.79066685, 39.229, -3961698.691, 3349001.311, 3698389.229,  2.156,  1.821,  3.115,  0.259,  3.859, -0.096
187524.8, 2324, 35.66844296, 139.79066772, 39.213, -3961698.388, 3349000.952, 3698389.847,  2.167,  1.596,  6.204,  0.488,  3.857, -0.091
187525.0, 2324, 35.66844986, 139.79066902, 39.196, -3961698.112, 3349000.565, 3698390.459,  2.010,  1.630,  9.342,  0.652,  3.803, -0.077
187525.2, 2324, 35.66845671, 139.79067073, 39.177, -3961697.862, 3349000.150, 3698391.065,  1.845,  1.673, 12.432,  0.858,  3.793, -0.110
187525.4, 2324, 35.66846343, 139.79067290, 39.152, -3961697.641, 3348999.706, 3698391.657,  1.823,  1.978, 15.429,  1.087,  3.677, -0.126
187525.6, 2324, 35.66847002, 139.79067543, 39.130, -3961697.450, 3348999.245, 3698392.238,  1.633,  2.451, 18.213,  1.218,  3.649, -0.079
187525.8, 2324, 35.66847649, 139.79067830, 39.118, -3961697.290, 3348998.770, 3698392.814,  1.487,  2.517, 20.657,  1.381,  3.532, -0.089
187526.0, 2324, 35.66848279, 139.79068143, 39.101, -3961697.152, 3348998.281, 3698393.372,  1.226,  2.753, 22.816,  1.529,  3.483, -0.032
187526.2, 2324, 35.66848895, 139.79068484, 39.098, -3961697.045, 3348997.787, 3698393.925,  1.330,  2.491, 24.542,  1.551,  3.359, -0.023
187526.4, 2324, 35.66849493, 139.79068834, 39.092, -3961696.950, 3348997.292, 3698394.461,  1.249,  2.488, 25.742,  1.603,  3.263,  0.011
187526.6, 2324, 35.66850073, 139.79069183, 39.089, -3961696.866, 3348996.807, 3698394.982,  1.079,  2.480, 26.505,  1.550,  3.143, -0.051
187526.8, 2324, 35.66850626, 139.79069532, 39.080, -3961696.791, 3348996.330, 3698395.475,  1.263,  2.665, 26.785,  1.613,  3.019, -0.038
187527.0, 2324, 35.66851163, 139.79069873, 39.070, -3961696.719, 3348995.864, 3698395.953,  1.741,  2.436, 26.562,  1.410,  2.940, -0.053
187527.2, 2324, 35.66851683, 139.79070159, 39.065, -3961696.626, 3348995.447, 3698396.419,  0.781,  2.968, 25.793,  1.343,  2.767,  0.009
187527.4, 2324, 35.66852177, 139.79070444, 39.066, -3961696.549, 3348995.044, 3698396.865,  0.947,  3.078, 24.685,  1.217,  2.693, -0.006
187527.6, 2324, 35.66852654, 139.79070688, 39.063, -3961696.454, 3348994.674, 3698397.293,  0.605,  3.174, 22.982,  1.051,  2.561, -0.007
187527.8, 2324, 35.66853108, 139.79070901, 39.053, -3961696.348, 3348994.332, 3698397.697,  0.484,  3.371, 20.684,  0.830,  2.477, -0.063
187528.0, 2324, 35.66853551, 139.79071063, 39.056, -3961696.226, 3348994.037, 3698398.098, -0.242,  3.093, 17.900,  0.626,  2.407,  0.068
187528.2, 2324, 35.66853965, 139.79071204, 39.059, -3961696.105, 3348993.768, 3698398.473, -0.242,  3.213, 14.832,  0.609,  2.218,  0.028
187528.4, 2324, 35.66854361, 139.79071301, 39.063, -3961695.969, 3348993.538, 3698398.832, -0.562,  3.032, 11.576,  0.306,  2.160, -0.002
187528.6, 2324, 35.66854746, 139.79071357, 39.061, -3961695.810, 3348993.337, 3698399.178, -1.129,  2.614,  7.960,  0.203,  2.114, -0.008
187528.8, 2324, 35.66855120, 139.79071388, 39.056, -3961695.640, 3348993.157, 3698399.512, -1.339,  2.393,  4.074,  0.032,  2.044, -0.032
187529.0, 2324, 35.66855490, 139.79071385, 39.050, -3961695.452, 3348993.001, 3698399.842, -1.516,  1.874, 359.983, -0.062,  2.051, -0.043
187529.2, 2324, 35.66855862, 139.79071353, 39.047, -3961695.248, 3348992.866, 3698400.176, -1.379,  1.271, 355.955, -0.243,  2.048, -0.003
187529.4, 2324, 35.66856228, 139.79071281, 39.040, -3961695.021, 3348992.759, 3698400.501, -1.529,  0.529, 351.989, -0.335,  1.949, -0.057
187529.6, 2324, 35.66856566, 139.79071210, 39.034, -3961694.808, 3348992.664, 3698400.803, -0.509,  0.512, 348.201, -0.383,  1.775, -0.011
187529.8, 2324, 35.66856875, 139.79071115, 39.025, -3961694.595, 3348992.596, 3698401.076,  0.236,  0.256, 344.847, -0.476,  1.591, -0.082
187530.0, 2324, 35.66857136, 139.79070993, 39.010, -3961694.385, 3348992.564, 3698401.302, -0.194,  0.784, 341.892, -0.550,  1.328, -0.081
187530.2, 2324, 35.66857377, 139.79070877, 38.995, -3961694.189, 3348992.535, 3698401.511, -0.130,  1.430, 339.338, -0.528,  1.352, -0.067
187530.4, 2324, 35.66857614, 139.79070747, 38.980, -3961693.986, 3348992.518, 3698401.716, -0.190,  1.765, 337.023, -0.629,  1.271, -0.085
187530.6, 2324, 35.66857849, 139.79070613, 38.962, -3961693.781, 3348992.503, 3698401.917,  0.009,  2.241, 334.850, -0.622,  1.316, -0.078
187530.8, 2324, 35.66858082, 139.79070468, 38.944, -3961693.570, 3348992.497, 3698402.117,  0.146,  2.738, 332.869, -0.762,  1.251, -0.071
187531.0, 2324, 35.66858308, 139.79070304, 38.929, -3961693.353, 3348992.508, 3698402.312, -0.131,  3.143, 331.095, -0.724,  1.266, -0.109
187531.2, 2324, 35.66858542, 139.79070148, 38.911, -3961693.135, 3348992.509, 3698402.512,  0.421,  3.584, 329.519, -0.721,  1.302, -0.064
187531.4, 2324, 35.66858772, 139.79069972, 38.907, -3961692.916, 3348992.532, 3698402.717,  0.440,  3.686, 328.194, -0.866,  1.244,  0.032
187531.6, 2324, 35.66858996, 139.79069787, 38.912, -3961692.700, 3348992.569, 3698402.922,  0.285,  3.526, 326.951, -0.817,  1.243,  0.006
187531.8, 2324, 35.66859217, 139.79069602, 38.915, -3961692.485, 3348992.606, 3698403.123,  0.319,  3.369, 325.739, -0.853,  1.198,  0.013
187532.0, 2324, 35.66859430, 139.79069412, 38.917, -3961692.270, 3348992.650, 3698403.316,  0.243,  3.273, 324.561, -0.859,  1.163,  0.006
187532.2, 2324, 35.66859634, 139.79069223, 38.919, -3961692.060, 3348992.696, 3698403.501,  0.142,  3.081, 323.478, -0.842,  1.102,  0.013
187532.4, 2324, 35.66859830, 139.79069038, 38.920, -3961691.855, 3348992.743, 3698403.678,  0.203,  2.791, 322.631, -0.836,  1.057,  0.004
187532.6, 2324, 35.66860019, 139.79068854, 38.921, -3961691.655, 3348992.792, 3698403.849,  0.149,  2.503, 321.943, -0.818,  1.038, -0.003
187532.8, 2324, 35.66860204, 139.79068673, 38.921, -3961691.458, 3348992.840, 3698404.016,  0.193,  2.206, 321.439, -0.827,  1.013,  0.007
187533.0, 2324, 35.66860384, 139.79068491, 38.922, -3961691.263, 3348992.891, 3698404.179,  0.091,  1.844, 321.041, -0.825,  0.989,  0.001
187533.2, 2324, 35.66860562, 139.79068312, 38.921, -3961691.070, 3348992.940, 3698404.339,  0.103,  1.392, 320.737, -0.807,  0.956, -0.002
187533.4, 2324, 35.66860728, 139.79068143, 38.920, -3961690.888, 3348992.987, 3698404.488,  0.119,  1.079, 320.503, -0.730,  0.870, -0.006
187533.6, 2324, 35.66860877, 139.79067991, 38.918, -3961690.725, 3348993.029, 3698404.621,  0.121,  0.893, 320.360, -0.649,  0.771, -0.015
187533.8, 2324, 35.66861007, 139.79067858, 38.916, -3961690.582, 3348993.065, 3698404.737,  0.155,  0.754, 320.292, -0.561,  0.667, -0.012
187534.0, 2324, 35.66861118, 139.79067743, 38.914, -3961690.458, 3348993.097, 3698404.836,  0.101,  0.644, 320.242, -0.482,  0.564, -0.009
187534.2, 2324, 35.66861212, 139.79067647, 38.913, -3961690.355, 3348993.124, 3698404.920,  0.038,  0.528, 320.213, -0.390,  0.463, -0.008
187534.4, 2324, 35.66861288, 139.79067570, 38.911, -3961690.271, 3348993.144, 3698404.987,  0.063,  0.445, 320.212, -0.305,  0.367, -0.006
187534.6, 2324, 35.66861345, 139.79067512, 38.910, -3961690.209, 3348993.160, 3698405.038,  0.054,  0.393, 320.192, -0.228,  0.272, -0.007
187534.8, 2324, 35.66861386, 139.79067471, 38.909, -3961690.164, 3348993.171, 3698405.074,  0.087,  0.350, 320.189, -0.148,  0.188, -0.005
187535.0, 2324, 35.66861415, 139.79067443, 38.907, -3961690.132, 3348993.177, 3698405.099,  0.099,  0.370, 320.190, -0.122,  0.161, -0.012
187535.2, 2324, 35.66861452, 139.79067406, 38.906, -3961690.091, 3348993.187, 3698405.132,  0.102,  0.389, 320.193, -0.210,  0.255, -0.005
187535.4, 2324, 35.66861508, 139.79067350, 38.903, -3961690.029, 3348993.200, 3698405.181,  0.134,  0.359, 320.178, -0.296,  0.353, -0.017
187535.6, 2324, 35.66861581, 139.79067275, 38.899, -3961689.947, 3348993.220, 3698405.244,  0.174,  0.346, 320.170, -0.379,  0.439, -0.018
187535.8, 2324, 35.66861666, 139.79067184, 38.895, -3961689.849, 3348993.245, 3698405.319,  0.089,  0.296, 320.151, -0.445,  0.504, -0.025
187536.0, 2324, 35.66861761, 139.79067080, 38.889, -3961689.738, 3348993.274, 3698405.401, -0.117,  0.130, 320.137, -0.468,  0.548, -0.029
187536.2, 2324, 35.66861856, 139.79066990, 38.884, -3961689.635, 3348993.294, 3698405.484,  0.096,  0.024, 320.142, -0.366,  0.450, -0.008
187536.4, 2324, 35.66861922, 139.79066926, 38.881, -3961689.563, 3348993.309, 3698405.541,  0.172,  0.208, 320.087, -0.272,  0.296, -0.023
187536.6, 2324, 35.66861974, 139.79066876, 38.876, -3961689.505, 3348993.319, 3698405.585,  0.232,  0.310, 320.081, -0.251,  0.282, -0.022
187536.8, 2324, 35.66862030, 139.79066818, 38.873, -3961689.442, 3348993.335, 3698405.634,  0.195,  0.394, 320.072, -0.291,  0.348, -0.021
187537.0, 2324, 35.66862096, 139.79066752, 38.868, -3961689.367, 3348993.350, 3698405.691,  0.188,  0.491, 320.065, -0.330,  0.391, -0.026
187537.2, 2324, 35.66862165, 139.79066679, 38.863, -3961689.287, 3348993.369, 3698405.750,  0.181,  0.581, 320.056, -0.317,  0.376, -0.023
187537.4, 2324, 35.66862227, 139.79066614, 38.857, -3961689.215, 3348993.385, 3698405.802,  0.182,  0.704, 320.042, -0.271,  0.314, -0.031
187537.6, 2324, 35.66862280, 139.79066558, 38.851, -3961689.152, 3348993.398, 3698405.846,  0.183,  0.847, 320.033, -0.237,  0.276, -0.025
187537.8, 2324, 35.66862324, 139.79066511, 38.847, -3961689.101, 3348993.410, 3698405.884,  0.163,  0.931, 320.028, -0.191,  0.217, -0.016
187538.0, 2324, 35.66862354, 139.79066479, 38.845, -3961689.066, 3348993.419, 3698405.910,  0.143,  0.971, 320.031, -0.094,  0.113, -0.008
187538.2, 2324, 35.66862363, 139.79066470, 38.844, -3961689.056, 3348993.421, 3698405.917,  0.133,  0.989, 320.034, -0.012,  0.017, -0.001
187538.4, 2324, 35.66862363, 139.79066470, 38.844, -3961689.056, 3348993.421, 3698405.917,  0.126,  1.048, 320.039,  0.000,  0.002, -0.004
187538.6, 2324, 35.66862363, 139.79066470, 38.844, -3961689.056, 3348993.421, 3698405.917,  0.127,  1.010, 320.043,  0.009, -0.009, -0.004
187538.8, 2324, 35.66862363, 139.79066470, 38.844, -3961689.056, 3348993.421, 3698405.917,  0.130,  1.015, 320.045, -0.013,  0.005,  0.003
187539.0, 2324, 35.66862363, 139.79066470, 38.844, -3961689.056, 3348993.421, 3698405.917,  0.130,  1.027, 320.047,  0.001,  0.003,  0.000
187539.2, 2324, 35.66862363, 139.79066470, 38.844, -3961689.056, 3348993.421, 3698405.917,  0.134,  1.014, 320.046,  0.002, -0.000, -0.001
187539.4, 2324, 35.66862363, 139.79066470, 38.844, -3961689.056, 3348993.421, 3698405.917,  0.127,  1.018, 320.052, -0.004, -0.001,  0.005
187539.6, 2324, 35.66862363, 139.79066470, 38.844, -3961689.056, 3348993.421, 3698405.917,  0.136,  1.020, 320.055,  0.001,  0.008, -0.000
187539.8, 2324, 35.66862363, 139.79066470, 38.844, -3961689.056, 3348993.421, 3698405.917,  0.129,  1.018, 320.054, -0.005, -0.007,  0.002
187540.0, 2324, 35.66862363, 139.79066470, 38.844, -3961689.056, 3348993.421, 3698405.917,  0.136,  1.015, 320.061,  0.004,  0.011,  0.002
187540.2, 2324, 35.66862363, 139.79066470, 38.844, -3961689.056, 3348993.421, 3698405.917,  0.128,  1.021, 320.068, -0.008, -0.008,  0.004
187540.4, 2324, 35.66862363, 139.79066470, 38.844, -3961689.056, 3348993.421, 3698405.917,  0.135,  1.018, 320.074,  0.006,  0.011,  0.002
187540.6, 2324, 35.66862363, 139.79066470, 38.844, -3961689.056, 3348993.421, 3698405.917,  0.129,  1.019, 320.075, -0.006, -0.009,  0.004
187540.8, 2324, 35.66862363, 139.79066470, 38.844, -3961689.056, 3348993.421, 3698405.917,  0.132,  1.023, 320.077,  0.006,  0.007,  0.004
187541.0, 2324, 35.66862363, 139.79066470, 38.844, -3961689.056, 3348993.421, 3698405.917,  0.133,  1.020, 320.082, -0.006, -0.006, -0.002
187541.2, 2324, 35.66862363, 139.79066470, 38.844, -3961689.056, 3348993.421, 3698405.917,  0.129,  1.026, 320.090,  0.007,  0.006, -0.000
187541.4, 2324, 35.66862363, 139.79066470, 38.844, -3961689.056, 3348993.421, 3698405.917,  0.134,  1.023, 320.094, -0.006, -0.006, -0.001
187541.6, 2324, 35.66862363, 139.79066470, 38.844, -3961689.056, 3348993.421, 3698405.917,  0.132,  1.024, 320.096,  0.006,  0.006, -0.000
187541.8, 2324, 35.66862363, 139.79066470, 38.844, -3961689.056, 3348993.421, 3698405.917,  0.137,  1.021, 320.104, -0.006, -0.007, -0.002
187542.0, 2324, 35.66862363, 139.79066470, 38.844, -3961689.056, 3348993.421, 3698405.917,  0.136,  1.024, 320.105,  0.006,  0.006,  0.002
187542.2, 2324, 35.66862363, 139.79066470, 38.844, -3961689.056, 3348993.421, 3698405.917,  0.141,  1.017, 320.115, -0.006, -0.005,  0.000
187542.4, 2324, 35.66862363, 139.79066470, 38.844, -3961689.056, 3348993.421, 3698405.917,  0.136,  1.021, 320.118,  0.005,  0.004,  0.001
187542.6, 2324, 35.66862363, 139.79066470, 38.844, -3961689.056, 3348993.421, 3698405.917,  0.141,  1.019, 320.118, -0.005, -0.006,  0.001
187542.8, 2324, 35.66862363, 139.79066470, 38.844, -3961689.056, 3348993.421, 3698405.917,  0.132,  1.024, 320.122,  0.006,  0.005,  0.002
187543.0, 2324, 35.66862363, 139.79066470, 38.844, -3961689.056, 3348993.421, 3698405.917,  0.138,  1.019, 320.128, -0.003, -0.005, -0.002
187543.2, 2324, 35.66862363, 139.79066470, 38.844, -3961689.056, 3348993.421, 3698405.917,  0.135,  1.022, 320.128,  0.006,  0.005, -0.000
187543.4, 2324, 35.66862363, 139.79066470, 38.844, -3961689.056, 3348993.421, 3698405.917,  0.133,  1.022, 320.135, -0.005, -0.007, -0.001
187543.6, 2324, 35.66862363, 139.79066470, 38.844, -3961689.056, 3348993.421, 3698405.917,  0.128,  1.023, 320.138,  0.004,  0.006, -0.000
187543.8, 2324, 35.66862363, 139.79066470, 38.844, -3961689.056, 3348993.421, 3698405.917,  0.130,  1.017, 320.139, -0.004, -0.006, -0.002
187544.0, 2324, 35.66862363, 139.79066470, 38.844, -3961689.056, 3348993.421, 3698405.917,  0.125,  1.016, 320.139,  0.005,  0.005,  0.002
187544.2, 2324, 35.66862363, 139.79066470, 38.844, -3961689.056, 3348993.421, 3698405.917,  0.130,  1.013, 320.143, -0.003, -0.002, -0.000
187544.4, 2324, 35.66862363, 139.79066470, 38.844, -3961689.056, 3348993.421, 3698405.917,  0.126,  1.017, 320.148,  0.005,  0.006,  0.001
187544.6, 2324, 35.66862363, 139.79066470, 38.844, -3961689.056, 3348993.421, 3698405.917,  0.130,  1.015, 320.150, -0.005, -0.004, -0.000
187544.8, 2324, 35.66862363, 139.79066470, 38.844, -3961689.056, 3348993.421, 3698405.917,  0.124,  1.019, 320.152,  0.003,  0.004,  0.002
187545.0, 2324, 35.66862363, 139.79066470, 38.844, -3961689.056, 3348993.421, 3698405.917,  0.131,  1.016, 320.148, -0.003, -0.003, -0.002
187545.2, 2324, 35.66862363, 139.79066470, 38.844, -3961689.056, 3348993.421, 3698405.917,  0.122,  1.019, 320.148,  0.001,  0.001,  0.001
187545.4, 2324, 35.66862363, 139.79066470, 38.844, -3961689.056, 3348993.421, 3698405.917,  0.134,  1.015, 320.156, -0.004, -0.000, -0.002
187545.6, 2324, 35.66862363, 139.79066470, 38.844, -3961689.056, 3348993.421, 3698405.917,  0.123,  1.021, 320.159,  0.003,  0.001,  0.001
187545.8, 2324, 35.66862363, 139.79066470, 38.844, -3961689.056, 3348993.421, 3698405.917,  0.137,  1.019, 320.162, -0.004, -0.001, -0.001
187546.0, 2324, 35.66862363, 139.79066470, 38.844, -3961689.056, 3348993.421, 3698405.917,  0.126,  1.026, 320.163,  0.002,  0.004,  0.002
187546.2, 2324, 35.66862363, 139.79066470, 38.844, -3961689.056, 3348993.421, 3698405.917,  0.135,  1.025, 320.163, -0.004, -0.001,  0.000
187546.4, 2324, 35.66862363, 139.79066470, 38.844, -3961689.056, 3348993.421, 3698405.917,  0.129,  1.026, 320.167,  0.003,  0.000,  0.003
187546.6, 2324, 35.66862363, 139.79066470, 38.844, -3961689.056, 3348993.421, 3698405.917,  0.136,  1.021, 320.174, -0.004, -0.003, -0.000
187546.8, 2324, 35.66862363, 139.79066470, 38.844, -3961689.056, 3348993.421, 3698405.917,  0.127,  1.026, 320.178,  0.001,  0.001,  0.002
187547.0, 2324, 35.66862363, 139.79066470, 38.844, -3961689.056, 3348993.421, 3698405.917,  0.138,  1.021, 320.183, -0.003, -0.004, -0.001
187547.2, 2324, 35.66862363, 139.79066470, 38.844, -3961689.056, 3348993.421, 3698405.917,  0.128,  1.024, 320.187,  0.003, -0.001,  0.001
187547.4, 2324, 35.66862363, 139.79066470, 38.844, -3961689.056, 3348993.421, 3698405.917,  0.140,  1.018, 320.188, -0.003, -0.001, -0.002
187547.6, 2324, 35.66862363, 139.79066470, 38.844, -3961689.056, 3348993.421, 3698405.917,  0.133,  1.023, 320.190,  0.002,  0.000,  0.001
187547.8, 2324, 35.66862363, 139.79066470, 38.844, -3961689.056, 3348993.421, 3698405.917,  0.140,  1.020, 320.194, -0.002, -0.002, -0.002
187548.0, 2324, 35.66862363, 139.79066470, 38.844, -3961689.056, 3348993.421, 3698405.917,  0.131,  1.022, 320.196,  0.003, -0.000,  0.001
187548.2, 2324, 35.66862363, 139.79066470, 38.844, -3961689.056, 3348993.421, 3698405.917,  0.140,  1.016, 320.199, -0.003, -0.002, -0.001
187548.4, 2324, 35.66862363, 139.79066470, 38.844, -3961689.056, 3348993.421, 3698405.917,  0.132,  1.024, 320.202,  0.002,  0.001,  0.001
187548.6, 2324, 35.66862363, 139.79066470, 38.844, -3961689.056, 3348993.421, 3698405.917,  0.141,  1.016, 320.205, -0.002, -0.002, -0.002
187548.8, 2324, 35.66862363, 139.79066470, 38.844, -3961689.056, 3348993.421, 3698405.917,  0.132,  1.019, 320.206,  0.003, -0.001,  0.002
187549.0, 2324, 35.66862363, 139.79066470, 38.844, -3961689.056, 3348993.421, 3698405.917,  0.145,  1.016, 320.214, -0.002, -0.000, -0.003
187549.2, 2324, 35.66862363, 139.79066470, 38.844, -3961689.056, 3348993.421, 3698405.917,  0.134,  1.020, 320.218,  0.002, -0.001,  0.000
187549.4, 2324, 35.66862363, 139.79066470, 38.844, -3961689.056, 3348993.421, 3698405.917,  0.146,  1.015, 320.217, -0.000, -0.000, -0.002
187549.6, 2324, 35.66862363, 139.79066470, 38.844, -3961689.056, 3348993.421, 3698405.917,  0.135,  1.018, 320.216, -0.000, -0.002,  0.001
187549.8, 2324, 35.66862363, 139.79066470, 38.844, -3961689.056, 3348993.421, 3698405.917,  0.146,  1.011, 320.219,  0.002,  0.004, -0.002
187550.0, 2324, 35.66862363, 139.79066470, 38.844, -3961689.056, 3348993.421, 3698405.917,  0.137,  1.019, 320.218, -0.000, -0.004, -0.001
187550.2, 2324, 35.66862363, 139.79066470, 38.844, -3961689.056, 3348993.421, 3698405.917,  0.148,  1.011, 320.219, -0.001,  0.001, -0.004
187550.4, 2324, 35.66862363, 139.79066470, 38.844, -3961689.056, 3348993.421, 3698405.917,  0.137,  1.018, 320.220,  0.003,  0.002, -0.002
187550.6, 2324, 35.66862363, 139.79066470, 38.844, -3961689.056, 3348993.421, 3698405.917,  0.149,  1.014, 320.225, -0.002, -0.003, -0.004
187550.8, 2324, 35.66862363, 139.79066470, 38.844, -3961689.056, 3348993.421, 3698405.917,  0.144,  1.016, 320.227,  0.005,  0.005, -0.002
187551.0, 2324, 35.66862363, 139.79066470, 38.844, -3961689.056, 3348993.421, 3698405.917,  0.150,  1.015, 320.231, -0.002, -0.003, -0.003
187551.2, 2324, 35.66862363, 139.79066470, 38.844, -3961689.056, 3348993.421, 3698405.917,  0.143,  1.018, 320.234,  0.006,  0.004, -0.000
187551.4, 2324, 35.66862363, 139.79066471, 38.844, -3961689.056, 3348993.420, 3698405.917,  0.153,  1.012, 320.241, -0.001, -0.004, -0.002
187551.6, 2324, 35.66862363, 139.79066471, 38.843, -3961689.056, 3348993.420, 3698405.917,  0.142,  1.017, 320.240,  0.005,  0.005, -0.002
187551.8, 2324, 35.66862372, 139.79066462, 38.841, -3961689.045, 3348993.421, 3698405.924,  0.136,  1.076, 320.235, -0.090,  0.109, -0.007
187552.0, 2324, 35.66862400, 139.79066434, 38.838, -3961689.013, 3348993.427, 3698405.947,  0.114,  1.142, 320.230, -0.170,  0.206, -0.016
187552.2, 2324, 35.66862446, 139.79066387, 38.834, -3961688.960, 3348993.438, 3698405.986,  0.114,  1.240, 320.214, -0.250,  0.304, -0.029
187552.4, 2324, 35.66862509, 139.79066324, 38.830, -3961688.889, 3348993.453, 3698406.041,  0.129,  1.342, 320.200, -0.323,  0.399, -0.018
187552.6, 2324, 35.66862589, 139.79066243, 38.825, -3961688.800, 3348993.473, 3698406.110,  0.151,  1.470, 320.184, -0.420,  0.504, -0.033
187552.8, 2324, 35.66862693, 139.79066134, 38.818, -3961688.680, 3348993.502, 3698406.200,  0.092,  1.642, 320.152, -0.561,  0.658, -0.032
187553.0, 2324, 35.66862829, 139.79065994, 38.811, -3961688.527, 3348993.538, 3698406.318,  0.080,  1.798, 320.118, -0.693,  0.818, -0.033
187553.2, 2324, 35.66862987, 139.79065829, 38.803, -3961688.347, 3348993.582, 3698406.456,  0.006,  1.918, 320.075, -0.781,  0.907, -0.048
187553.4, 2324, 35.66863157, 139.79065651, 38.794, -3961688.154, 3348993.629, 3698406.604, -0.063,  1.989, 320.014, -0.824,  0.982, -0.050
187553.6, 2324, 35.66863338, 139.79065464, 38.784, -3961687.949, 3348993.678, 3698406.761, -0.074,  2.153, 319.969, -0.875,  1.017, -0.053
187553.8, 2324, 35.66863528, 139.79065266, 38.772, -3961687.732, 3348993.729, 3698406.925, -0.121,  2.304, 319.938, -0.913,  1.093, -0.106
187554.0, 2324, 35.66863727, 139.79065063, 38.756, -3961687.505, 3348993.778, 3698407.095, -0.045,  2.797, 319.867, -0.918,  1.132,  0.042
187554.2, 2324, 35.66863927, 139.79064855, 38.765, -3961687.290, 3348993.843, 3698407.281, -0.047,  2.572, 319.830, -0.917,  1.072, -0.006
187554.4, 2324, 35.66864117, 139.79064656, 38.762, -3961687.078, 3348993.900, 3698407.450, -0.098,  2.755, 319.792, -0.896,  1.048,  0.007
187554.6, 2324, 35.66864303, 139.79064461, 38.762, -3961686.872, 3348993.957, 3698407.618, -0.175,  2.802, 319.735, -0.870,  1.007, -0.007
187554.8, 2324, 35.66864484, 139.79064272, 38.762, -3961686.672, 3348994.012, 3698407.781, -0.220,  2.876, 319.686, -0.852,  0.988, -0.003
187555.0, 2324, 35.66864660, 139.79064086, 38.761, -3961686.476, 3348994.066, 3698407.939, -0.248,  2.898, 319.650, -0.837,  0.966, -0.013
187555.2, 2324, 35.66864833, 139.79063902, 38.760, -3961686.282, 3348994.121, 3698408.095, -0.284,  2.902, 319.618, -0.824,  0.956, -0.018
187555.4, 2324, 35.66865003, 139.79063721, 38.755, -3961686.089, 3348994.172, 3698408.245, -0.285,  3.012, 319.576, -0.819,  0.942, -0.028
187555.6, 2324, 35.66865167, 139.79063543, 38.753, -3961685.903, 3348994.226, 3698408.392, -0.370,  3.000, 319.539, -0.770,  0.880, -0.008
187555.8, 2324, 35.66865316, 139.79063382, 38.751, -3961685.734, 3348994.274, 3698408.525, -0.418,  3.069, 319.496, -0.690,  0.803, -0.008
