time,source,lat,lon,alt,ve,vn,vu,yaw,pitch,roll,drift_m,imu_dt,gps_age
1776967085.667221,gps,39.7375907967,-84.1765278200,242.6228,0.0000,0.0000,0.0000,50.90,-5.01,-2.35,0.0000,0.000000,0.002
1776967085.670658,dr,39.7375907967,-84.1765278200,242.6228,-0.0001,0.0002,0.0000,51.04,-4.99,-2.37,0.0000,0.002500,0.005
1776967085.673163,dr,39.7375907967,-84.1765278200,242.6228,-0.0003,0.0003,0.0001,51.04,-4.98,-2.38,0.0000,0.002500,0.007
1776967085.675449,dr,39.7375907967,-84.1765278200,242.6228,-0.0004,0.0004,0.0001,51.04,-4.97,-2.40,0.0000,0.002500,0.010
1776967085.678318,dr,39.7375907967,-84.1765278200,242.6228,-0.0006,0.0006,0.0002,51.04,-4.96,-2.41,0.0000,0.002500,0.014
1776967085.681925,dr,39.7375907967,-84.1765278201,242.6228,-0.0007,0.0007,0.0002,51.03,-4.96,-2.42,0.0000,0.002500,0.016
1776967085.683100,dr,39.7375907967,-84.1765278201,242.6228,-0.0008,0.0007,0.0002,51.03,-4.95,-2.43,0.0000,0.002500,0.017
1776967085.685898,dr,39.7375907967,-84.1765278201,242.6228,-0.0009,0.0008,0.0003,51.03,-4.94,-2.44,0.0000,0.002500,0.020
1776967085.687505,dr,39.7375907968,-84.1765278201,242.6228,-0.0011,0.0009,0.0003,51.03,-4.93,-2.45,0.0000,0.002500,0.021
1776967085.689636,dr,39.7375907968,-84.1765278202,242.6228,-0.0012,0.0009,0.0003,51.02,-4.93,-2.46,0.0000,0.002500,0.024
1776967085.692115,dr,39.7375907968,-84.1765278202,242.6228,-0.0013,0.0009,0.0004,51.02,-4.93,-2.47,0.0000,0.002500,0.026
1776967085.694579,dr,39.7375907968,-84.1765278202,242.6228,-0.0014,0.0009,0.0004,51.02,-4.92,-2.48,0.0000,0.002500,0.028
1776967085.697148,dr,39.7375907968,-84.1765278203,242.6228,-0.0015,0.0009,0.0005,51.02,-4.92,-2.48,0.0000,0.002500,0.031
1776967085.699636,dr,39.7375907969,-84.1765278203,242.6228,-0.0016,0.0008,0.0005,51.01,-4.92,-2.49,0.0000,0.002500,0.034
1776967085.702174,dr,39.7375907969,-84.1765278204,242.6228,-0.0017,0.0008,0.0005,51.01,-4.92,-2.50,0.0000,0.002500,0.036
1776967085.704632,dr,39.7375907969,-84.1765278204,242.6228,-0.0017,0.0007,0.0005,51.01,-4.92,-2.50,0.0000,0.002500,0.039
1776967085.707126,dr,39.7375907969,-84.1765278205,242.6228,-0.0018,0.0005,0.0005,51.01,-4.92,-2.51,0.0000,0.002500,0.041
1776967085.709616,dr,39.7375907969,-84.1765278205,242.6228,-0.0018,0.0004,0.0005,51.01,-4.93,-2.52,0.0001,0.002500,0.044
1776967085.712194,dr,39.7375907969,-84.1765278206,242.6228,-0.0019,0.0003,0.0005,51.01,-4.93,-2.52,0.0001,0.002500,0.046
1776967085.714561,dr,39.7375907969,-84.1765278206,242.6228,-0.0019,0.0001,0.0005,51.01,-4.94,-2.52,0.0001,0.002500,0.048
1776967085.717097,dr,39.7375907969,-84.1765278207,242.6228,-0.0019,-0.0001,0.0005,51.01,-4.94,-2.53,0.0001,0.002500,0.051
1776967085.719525,dr,39.7375907969,-84.1765278207,242.6228,-0.0019,-0.0003,0.0005,51.01,-4.95,-2.53,0.0001,0.002500,0.053
1776967085.721968,dr,39.7375907969,-84.1765278208,242.6228,-0.0019,-0.0005,0.0005,51.01,-4.96,-2.53,0.0001,0.002500,0.056
1776967085.724405,dr,39.7375907969,-84.1765278209,242.6228,-0.0020,-0.0006,0.0005,51.01,-4.96,-2.53,0.0001,0.002500,0.058
1776967085.726904,dr,39.7375907969,-84.1765278209,242.6228,-0.0020,-0.0008,0.0005,51.01,-4.97,-2.53,0.0001,0.002500,0.061
1776967085.729440,dr,39.7375907969,-84.1765278210,242.6228,-0.0020,-0.0010,0.0005,51.01,-4.98,-2.53,0.0001,0.002500,0.063
1776967085.731952,dr,39.7375907968,-84.1765278210,242.6228,-0.0019,-0.0012,0.0005,51.01,-4.99,-2.53,0.0001,0.002500,0.066
1776967085.734487,dr,39.7375907968,-84.1765278211,242.6228,-0.0019,-0.0014,0.0005,51.02,-5.00,-2.53,0.0001,0.002500,0.068
1776967085.736979,dr,39.7375907968,-84.1765278211,242.6228,-0.0019,-0.0015,0.0004,51.02,-5.01,-2.52,0.0001,0.002500,0.071
1776967085.739456,dr,39.7375907967,-84.1765278212,242.6228,-0.0019,-0.0017,0.0004,51.02,-5.02,-2.52,0.0001,0.002500,0.073
1776967085.741925,dr,39.7375907967,-84.1765278213,242.6228,-0.0018,-0.0018,0.0004,51.02,-5.03,-2.51,0.0001,0.002500,0.076
1776967085.744550,dr,39.7375907967,-84.1765278213,242.6228,-0.0017,-0.0020,0.0004,51.02,-5.04,-2.51,0.0001,0.002500,0.079
1776967085.747062,dr,39.7375907966,-84.1765278214,242.6228,-0.0017,-0.0021,0.0003,51.02,-5.04,-2.50,0.0001,0.002500,0.081
1776967085.749539,dr,39.7375907966,-84.1765278214,242.6228,-0.0017,-0.0022,0.0003,51.02,-5.05,-2.49,0.0001,0.002500,0.083
1776967085.752049,dr,39.7375907965,-84.1765278215,242.6228,-0.0016,-0.0023,0.0003,51.02,-5.05,-2.49,0.0001,0.002500,0.086
1776967085.754426,dr,39.7375907965,-84.1765278215,242.6228,-0.0016,-0.0023,0.0003,51.03,-5.06,-2.48,0.0001,0.002500,0.088
1776967085.757014,dr,39.7375907964,-84.1765278215,242.6228,-0.0015,-0.0024,0.0002,51.03,-5.06,-2.48,0.0001,0.002500,0.091
1776967085.759426,dr,39.7375907964,-84.1765278216,242.6228,-0.0015,-0.0024,0.0002,51.03,-5.07,-2.47,0.0001,0.002500,0.093
1776967085.761897,dr,39.7375907963,-84.1765278216,242.6228,-0.0015,-0.0024,0.0002,51.03,-5.07,-2.47,0.0001,0.002500,0.096
1776967085.764357,dr,39.7375907963,-84.1765278217,242.6228,-0.0015,-0.0024,0.0001,51.04,-5.07,-2.46,0.0002,0.002500,0.098
1776967085.766935,dr,39.7375907962,-84.1765278217,242.6228,-0.0015,-0.0024,0.0001,51.04,-5.07,-2.46,0.0002,0.002500,0.101
1776967085.769378,dr,39.7375907961,-84.1765278218,242.6228,-0.0015,-0.0024,0.0000,51.04,-5.07,-2.45,0.0002,0.002500,0.104
1776967085.772076,gps,39.7375908050,-84.1765277633,242.6077,0.0463,0.0088,-0.1440,50.90,-5.08,-2.44,0.0000,0.002500,0.001
1776967085.772228,dr,39.7375908052,-84.1765277620,242.6073,0.0463,0.0088,-0.1441,51.04,-5.07,-2.45,0.0001,0.002500,0.003
1776967085.775992,dr,39.7375908054,-84.1765277606,242.6070,0.0463,0.0088,-0.1441,51.05,-5.07,-2.45,0.0002,0.002500,0.005
1776967085.778601,dr,39.7375908056,-84.1765277593,242.6066,0.0462,0.0088,-0.1441,109.99,-5.06,-2.43,0.0004,0.002500,0.008
1776967085.780133,dr,39.7375908058,-84.1765277579,242.6063,0.0462,0.0088,-0.1442,51.05,-5.08,-2.44,0.0005,0.002500,0.009
1776967085.781912,dr,39.7375908060,-84.1765277566,242.6059,0.0462,0.0088,-0.1442,51.05,-5.08,-2.44,0.0006,0.002500,0.011
1776967085.784382,dr,39.7375908062,-84.1765277552,242.6055,0.0462,0.0087,-0.1443,51.06,-5.08,-2.44,0.0007,0.002500,0.013
1776967085.786866,dr,39.7375908064,-84.1765277539,242.6052,0.0462,0.0087,-0.1443,51.06,-5.09,-2.44,0.0008,0.002500,0.015
1776967085.789371,dr,39.7375908066,-84.1765277525,242.6048,0.0461,0.0086,-0.1444,51.06,-5.10,-2.44,0.0009,0.002500,0.018
1776967085.791871,dr,39.7375908068,-84.1765277512,242.6045,0.0461,0.0085,-0.1444,51.07,-5.10,-2.44,0.0011,0.002500,0.021
1776967085.794321,dr,39.7375908070,-84.1765277498,242.6041,0.0461,0.0085,-0.1445,51.07,-5.11,-2.44,0.0012,0.002500,0.024
1776967085.796874,dr,39.7375908072,-84.1765277485,242.6037,0.0460,0.0084,-0.1446,51.07,-5.11,-2.44,0.0013,0.002500,0.026
1776967085.799305,dr,39.7375908073,-84.1765277472,242.6034,0.0460,0.0083,-0.1446,51.08,-5.12,-2.45,0.0014,0.002500,0.028
1776967085.801755,dr,39.7375908075,-84.1765277458,242.6030,0.0460,0.0082,-0.1446,51.08,-5.12,-2.45,0.0015,0.002500,0.031
1776967085.804223,dr,39.7375908077,-84.1765277445,242.6026,0.0459,0.0081,-0.1447,51.08,-5.12,-2.45,0.0016,0.002500,0.033
1776967085.806724,dr,39.7375908079,-84.1765277431,242.6023,0.0459,0.0080,-0.1447,51.08,-5.13,-2.45,0.0018,0.002500,0.036
1776967085.809172,dr,39.7375908081,-84.1765277418,242.6019,0.0459,0.0079,-0.1448,51.09,-5.13,-2.46,0.0019,0.002500,0.038
1776967085.811783,dr,39.7375908082,-84.1765277404,242.6016,0.0459,0.0077,-0.1448,51.09,-5.14,-2.46,0.0020,0.002500,0.041
1776967085.814152,dr,39.7375908084,-84.1765277391,242.6012,0.0459,0.0076,-0.1448,51.09,-5.15,-2.46,0.0021,0.002500,0.043
1776967085.816679,dr,39.7375908086,-84.1765277378,242.6008,0.0459,0.0074,-0.1448,51.09,-5.16,-2.46,0.0022,0.002500,0.045
1776967085.819125,dr,39.7375908088,-84.1765277364,242.6005,0.0459,0.0072,-0.1449,51.10,-5.17,-2.46,0.0023,0.002500,0.048
1776967085.821700,dr,39.7375908089,-84.1765277351,242.6001,0.0460,0.0070,-0.1449,51.10,-5.18,-2.46,0.0025,0.002500,0.051
1776967085.824202,dr,39.7375908091,-84.1765277337,242.5998,0.0460,0.0067,-0.1449,51.10,-5.20,-2.46,0.0026,0.002500,0.053
1776967085.826633,dr,39.7375908092,-84.1765277324,242.5994,0.0461,0.0065,-0.1449,51.10,-5.22,-2.46,0.0027,0.002500,0.056
1776967085.829188,dr,39.7375908094,-84.1765277311,242.5990,0.0462,0.0062,-0.1450,51.11,-5.23,-2.45,0.0028,0.002500,0.058
1776967085.831609,dr,39.7375908095,-84.1765277297,242.5987,0.0463,0.0060,-0.1450,51.11,-5.25,-2.45,0.0029,0.002500,0.061
1776967085.834074,dr,39.7375908096,-84.1765277283,242.5983,0.0464,0.0057,-0.1450,51.11,-5.27,-2.44,0.0030,0.002500,0.063
1776967085.836723,dr,39.7375908098,-84.1765277270,242.5979,0.0465,0.0054,-0.1450,51.11,-5.29,-2.43,0.0032,0.002500,0.066
1776967085.839174,dr,39.7375908099,-84.1765277256,242.5976,0.0467,0.0051,-0.1450,51.11,-5.31,-2.42,0.0033,0.002500,0.068
1776967085.841548,dr,39.7375908100,-84.1765277243,242.5972,0.0468,0.0048,-0.1450,51.11,-5.33,-2.42,0.0034,0.002500,0.071
1776967085.844180,dr,39.7375908101,-84.1765277229,242.5969,0.0469,0.0045,-0.1450,51.11,-5.35,-2.41,0.0035,0.002500,0.073
1776967085.846631,dr,39.7375908102,-84.1765277215,242.5965,0.0471,0.0041,-0.1450,51.11,-5.37,-2.39,0.0036,0.002500,0.075
1776967085.849043,dr,39.7375908103,-84.1765277201,242.5961,0.0473,0.0038,-0.1450,51.11,-5.39,-2.38,0.0037,0.002500,0.078
1776967085.851641,dr,39.7375908104,-84.1765277188,242.5958,0.0474,0.0036,-0.1450,51.12,-5.41,-2.37,0.0039,0.002500,0.080
1776967085.854168,dr,39.7375908104,-84.1765277174,242.5954,0.0476,0.0033,-0.1450,51.12,-5.43,-2.36,0.0040,0.002500,0.083
1776967085.856590,dr,39.7375908105,-84.1765277160,242.5950,0.0477,0.0030,-0.1450,51.12,-5.45,-2.35,0.0041,0.002500,0.086
1776967085.859178,dr,39.7375908106,-84.1765277146,242.5947,0.0478,0.0028,-0.1450,51.12,-5.47,-2.34,0.0042,0.002500,0.088
1776967085.861641,dr,39.7375908106,-84.1765277132,242.5943,0.0479,0.0025,-0.1450,51.12,-5.48,-2.33,0.0043,0.002500,0.091
1776967085.864071,dr,39.7375908107,-84.1765277118,242.5940,0.0480,0.0023,-0.1451,51.12,-5.50,-2.32,0.0045,0.002500,0.093
1776967085.866577,dr,39.7375908107,-84.1765277104,242.5936,0.0481,0.0021,-0.1451,51.12,-5.51,-2.31,0.0046,0.002500,0.095
1776967085.869185,dr,39.7375908108,-84.1765277090,242.5932,0.0482,0.0020,-0.1451,51.12,-5.53,-2.31,0.0047,0.002500,0.098
1776967085.871522,dr,39.7375908108,-84.1765277076,242.5929,0.0482,0.0018,-0.1451,51.12,-5.54,-2.30,0.0048,0.002500,0.101
1776967085.873768,gps,39.7375908100,-84.1765276967,242.5965,0.0561,0.0055,-0.1101,50.98,-5.55,-2.28,0.0000,0.002500,0.001
1776967085.875885,dr,39.7375908101,-84.1765276950,242.5962,0.0562,0.0054,-0.1102,51.12,-5.55,-2.29,0.0001,0.002500,0.003
1776967085.877748,dr,39.7375908102,-84.1765276934,242.5959,0.0562,0.0053,-0.1102,51.13,-5.55,-2.28,0.0003,0.002500,0.005
1776967085.879280,dr,39.7375908104,-84.1765276917,242.5957,0.0562,0.0052,-0.1102,51.13,-5.56,-2.28,0.0004,0.002500,0.007
1776967085.881952,dr,39.7375908105,-84.1765276901,242.5954,0.0562,0.0052,-0.1102,109.91,-5.55,-2.26,0.0006,0.002500,0.009
1776967085.884134,dr,39.7375908106,-84.1765276885,242.5951,0.0562,0.0051,-0.1102,51.13,-5.57,-2.27,0.0007,0.002500,0.011
1776967085.886714,dr,39.7375908107,-84.1765276868,242.5948,0.0563,0.0051,-0.1102,51.13,-5.57,-2.26,0.0008,0.002500,0.014
1776967085.889030,dr,39.7375908108,-84.1765276852,242.5946,0.0563,0.0051,-0.1103,51.13,-5.57,-2.26,0.0010,0.002500,0.017
1776967085.891442,dr,39.7375908109,-84.1765276835,242.5943,0.0563,0.0052,-0.1103,51.13,-5.57,-2.25,0.0011,0.002500,0.019
1776967085.894122,dr,39.7375908111,-84.1765276819,242.5940,0.0562,0.0052,-0.1103,51.13,-5.57,-2.25,0.0013,0.002500,0.022
1776967085.896495,dr,39.7375908112,-84.1765276802,242.5937,0.0562,0.0052,-0.1103,51.13,-5.57,-2.25,0.0014,0.002500,0.024
1776967085.898872,dr,39.7375908113,-84.1765276786,242.5935,0.0562,0.0053,-0.1103,51.13,-5.57,-2.25,0.0016,0.002500,0.026
1776967085.901345,dr,39.7375908114,-84.1765276770,242.5932,0.0561,0.0054,-0.1103,51.14,-5.56,-2.25,0.0017,0.002500,0.028
1776967085.903999,dr,39.7375908115,-84.1765276753,242.5929,0.0561,0.0054,-0.1103,51.14,-5.56,-2.25,0.0018,0.002500,0.031
1776967085.906465,dr,39.7375908117,-84.1765276737,242.5926,0.0560,0.0055,-0.1103,51.14,-5.55,-2.25,0.0020,0.002500,0.034
1776967085.908865,dr,39.7375908118,-84.1765276721,242.5924,0.0560,0.0056,-0.1104,51.14,-5.55,-2.25,0.0021,0.002500,0.036
1776967085.911455,dr,39.7375908119,-84.1765276704,242.5921,0.0560,0.0057,-0.1104,51.14,-5.54,-2.26,0.0023,0.002500,0.039
1776967085.913824,dr,39.7375908120,-84.1765276688,242.5918,0.0559,0.0057,-0.1104,51.14,-5.54,-2.26,0.0024,0.002500,0.041
1776967085.916374,dr,39.7375908122,-84.1765276672,242.5915,0.0558,0.0058,-0.1104,51.14,-5.53,-2.26,0.0025,0.002500,0.043
1776967085.918864,dr,39.7375908123,-84.1765276655,242.5913,0.0558,0.0059,-0.1104,51.14,-5.53,-2.27,0.0027,0.002500,0.046
1776967085.921319,dr,39.7375908124,-84.1765276639,242.5910,0.0557,0.0059,-0.1104,51.14,-5.53,-2.27,0.0028,0.002500,0.049
1776967085.923951,dr,39.7375908126,-84.1765276623,242.5907,0.0556,0.0060,-0.1105,51.14,-5.52,-2.28,0.0030,0.002500,0.051
1776967085.926360,dr,39.7375908127,-84.1765276606,242.5904,0.0556,0.0060,-0.1105,51.14,-5.51,-2.29,0.0031,0.002500,0.054
1776967085.928849,dr,39.7375908128,-84.1765276590,242.5902,0.0555,0.0060,-0.1105,51.14,-5.51,-2.29,0.0032,0.002500,0.056
1776967085.931372,dr,39.7375908130,-84.1765276574,242.5899,0.0555,0.0061,-0.1105,51.14,-5.51,-2.30,0.0034,0.002500,0.059
1776967085.933806,dr,39.7375908131,-84.1765276558,242.5896,0.0554,0.0061,-0.1105,51.15,-5.51,-2.31,0.0035,0.002500,0.061
1776967085.936403,dr,39.7375908132,-84.1765276542,242.5893,0.0553,0.0061,-0.1106,51.15,-5.51,-2.31,0.0037,0.002500,0.064
1776967085.938758,dr,39.7375908134,-84.1765276525,242.5891,0.0553,0.0061,-0.1106,51.15,-5.51,-2.32,0.0038,0.002500,0.066
1776967085.941386,dr,39.7375908135,-84.1765276509,242.5888,0.0552,0.0061,-0.1106,51.15,-5.51,-2.32,0.0039,0.002500,0.069
1776967085.943785,dr,39.7375908137,-84.1765276493,242.5885,0.0552,0.0061,-0.1106,51.15,-5.52,-2.33,0.0041,0.002500,0.071
1776967085.946412,dr,39.7375908138,-84.1765276477,242.5882,0.0552,0.0061,-0.1107,51.15,-5.52,-2.33,0.0042,0.002500,0.074
1776967085.948770,dr,39.7375908139,-84.1765276461,242.5879,0.0551,0.0061,-0.1107,51.16,-5.52,-2.33,0.0044,0.002500,0.076
1776967085.951203,dr,39.7375908141,-84.1765276445,242.5877,0.0551,0.0061,-0.1108,51.16,-5.52,-2.33,0.0045,0.002500,0.078
1776967085.953740,dr,39.7375908142,-84.1765276429,242.5874,0.0551,0.0061,-0.1108,51.16,-5.53,-2.33,0.0046,0.002500,0.081
1776967085.956340,dr,39.7375908143,-84.1765276413,242.5871,0.0551,0.0062,-0.1108,51.16,-5.52,-2.33,0.0048,0.002500,0.084
1776967085.958768,dr,39.7375908145,-84.1765276397,242.5868,0.0551,0.0062,-0.1109,51.16,-5.52,-2.32,0.0049,0.002500,0.086
1776967085.961185,dr,39.7375908146,-84.1765276381,242.5866,0.0551,0.0062,-0.1109,51.17,-5.52,-2.32,0.0050,0.002500,0.088
1776967085.963801,dr,39.7375908148,-84.1765276364,242.5863,0.0551,0.0063,-0.1109,51.17,-5.52,-2.32,0.0052,0.002500,0.091
1776967085.966288,dr,39.7375908149,-84.1765276348,242.5860,0.0551,0.0063,-0.1110,51.17,-5.51,-2.32,0.0053,0.002500,0.093
1776967085.969061,dr,39.7375908150,-84.1765276332,242.5857,0.0551,0.0064,-0.1110,51.17,-5.51,-2.32,0.0055,0.002500,0.097
1776967085.971258,dr,39.7375908152,-84.1765276316,242.5855,0.0551,0.0065,-0.1111,51.17,-5.50,-2.32,0.0056,0.002500,0.098
1776967085.973745,dr,39.7375908153,-84.1765276300,242.5852,0.0551,0.0066,-0.1111,51.18,-5.49,-2.32,0.0057,0.002500,0.101
1776967085.976097,gps,39.7375908333,-84.1765276183,242.5861,0.0655,0.0253,-0.1016,51.04,-5.49,-2.30,0.0000,0.002500,0.001
1776967085.977684,dr,39.7375908339,-84.1765276164,242.5858,0.0655,0.0255,-0.1017,51.18,-5.48,-2.31,0.0002,0.002500,0.003
1776967085.979469,dr,39.7375908345,-84.1765276145,242.5856,0.0655,0.0256,-0.1018,51.18,-5.47,-2.31,0.0004,0.002500,0.005
1776967085.981395,dr,39.7375908351,-84.1765276126,242.5853,0.0655,0.0258,-0.1018,51.19,-5.46,-2.31,0.0005,0.002500,0.006
1776967085.983732,dr,39.7375908356,-84.1765276107,242.5851,0.0656,0.0259,-0.1018,110.07,-5.44,-2.30,0.0007,0.002500,0.009
1776967085.986284,dr,39.7375908362,-84.1765276088,242.5848,0.0656,0.0261,-0.1019,51.19,-5.44,-2.31,0.0009,0.002500,0.011
1776967085.988636,dr,39.7375908368,-84.1765276068,242.5846,0.0656,0.0263,-0.1020,51.19,-5.42,-2.31,0.0011,0.002500,0.014
1776967085.991120,dr,39.7375908374,-84.1765276049,242.5843,0.0655,0.0265,-0.1020,51.19,-5.41,-2.31,0.0012,0.002500,0.016
1776967085.993618,dr,39.7375908380,-84.1765276030,242.5841,0.0655,0.0267,-0.1021,51.20,-5.39,-2.31,0.0014,0.002500,0.019
1776967085.996160,dr,39.7375908386,-84.1765276011,242.5838,0.0654,0.0269,-0.1021,51.20,-5.37,-2.31,0.0016,0.002500,0.021
1776967085.998604,dr,39.7375908392,-84.1765275992,242.5836,0.0654,0.0271,-0.1022,51.20,-5.36,-2.32,0.0018,0.002500,0.024
1776967086.001193,dr,39.7375908398,-84.1765275973,242.5833,0.0653,0.0274,-0.1023,51.21,-5.34,-2.32,0.0019,0.002500,0.026
1776967086.003647,dr,39.7375908404,-84.1765275954,242.5830,0.0652,0.0276,-0.1023,51.21,-5.33,-2.32,0.0021,0.002500,0.029
1776967086.006107,dr,39.7375908411,-84.1765275935,242.5828,0.0652,0.0278,-0.1024,51.21,-5.32,-2.32,0.0023,0.002500,0.032
1776967086.008688,dr,39.7375908417,-84.1765275916,242.5825,0.0651,0.0280,-0.1025,51.22,-5.30,-2.32,0.0025,0.002500,0.034
1776967086.011203,dr,39.7375908423,-84.1765275897,242.5823,0.0651,0.0282,-0.1025,51.22,-5.28,-2.32,0.0026,0.002500,0.036
1776967086.013613,dr,39.7375908430,-84.1765275878,242.5820,0.0650,0.0284,-0.1026,51.22,-5.27,-2.33,0.0028,0.002500,0.039
1776967086.016154,dr,39.7375908436,-84.1765275859,242.5818,0.0649,0.0286,-0.1027,51.23,-5.25,-2.33,0.0030,0.002500,0.041
1776967086.018534,dr,39.7375908443,-84.1765275840,242.5815,0.0649,0.0288,-0.1027,51.23,-5.24,-2.34,0.0032,0.002500,0.044
1776967086.020989,dr,39.7375908449,-84.1765275821,242.5812,0.0648,0.0290,-0.1028,51.23,-5.22,-2.34,0.0034,0.002500,0.046
1776967086.023608,dr,39.7375908456,-84.1765275802,242.5810,0.0647,0.0292,-0.1029,51.24,-5.21,-2.34,0.0035,0.002500,0.049
1776967086.026002,dr,39.7375908462,-84.1765275783,242.5807,0.0647,0.0294,-0.1029,51.24,-5.19,-2.35,0.0037,0.002500,0.051
1776967086.028448,dr,39.7375908469,-84.1765275764,242.5805,0.0646,0.0296,-0.1030,51.24,-5.18,-2.35,0.0039,0.002500,0.053
1776967086.031014,dr,39.7375908476,-84.1765275745,242.5802,0.0646,0.0297,-0.1031,51.25,-5.17,-2.36,0.0041,0.002500,0.056
1776967086.033590,dr,39.7375908482,-84.1765275727,242.5800,0.0645,0.0299,-0.1031,51.25,-5.15,-2.36,0.0042,0.002500,0.059
1776967086.036048,dr,39.7375908489,-84.1765275708,242.5797,0.0645,0.0301,-0.1032,51.25,-5.14,-2.37,0.0044,0.002500,0.061
1776967086.038548,dr,39.7375908496,-84.1765275689,242.5794,0.0644,0.0303,-0.1032,51.25,-5.13,-2.38,0.0046,0.002500,0.064
1776967086.041073,dr,39.7375908503,-84.1765275670,242.5792,0.0643,0.0305,-0.1033,51.26,-5.11,-2.38,0.0048,0.002500,0.066
1776967086.043466,dr,39.7375908509,-84.1765275651,242.5789,0.0642,0.0307,-0.1034,51.26,-5.10,-2.39,0.0050,0.002500,0.069
1776967086.046096,dr,39.7375908516,-84.1765275633,242.5787,0.0642,0.0308,-0.1034,51.26,-5.08,-2.40,0.0051,0.002500,0.071
1776967086.048532,dr,39.7375908523,-84.1765275614,242.5784,0.0642,0.0310,-0.1035,51.26,-5.07,-2.40,0.0053,0.002500,0.074
1776967086.051095,dr,39.7375908530,-84.1765275595,242.5782,0.0641,0.0312,-0.1035,51.27,-5.06,-2.41,0.0055,0.002500,0.076
1776967086.053460,dr,39.7375908537,-84.1765275576,242.5779,0.0640,0.0313,-0.1035,51.27,-5.05,-2.41,0.0057,0.002500,0.078
1776967086.056039,dr,39.7375908544,-84.1765275558,242.5776,0.0640,0.0315,-0.1036,51.27,-5.04,-2.42,0.0058,0.002500,0.081
1776967086.058519,dr,39.7375908552,-84.1765275539,242.5774,0.0639,0.0317,-0.1036,51.27,-5.03,-2.43,0.0060,0.002500,0.083
1776967086.060918,dr,39.7375908559,-84.1765275520,242.5771,0.0639,0.0318,-0.1037,51.28,-5.02,-2.44,0.0062,0.002500,0.086
1776967086.063499,dr,39.7375908566,-84.1765275502,242.5769,0.0638,0.0320,-0.1037,51.28,-5.01,-2.44,0.0064,0.002500,0.088
1776967086.065858,dr,39.7375908573,-84.1765275483,242.5766,0.0638,0.0322,-0.1038,51.28,-5.00,-2.45,0.0066,0.002500,0.091
1776967086.068599,dr,39.7375908580,-84.1765275464,242.5763,0.0637,0.0324,-0.1038,51.28,-4.99,-2.46,0.0067,0.002500,0.094
1776967086.071065,dr,39.7375908588,-84.1765275446,242.5761,0.0637,0.0325,-0.1039,51.29,-4.97,-2.46,0.0069,0.002500,0.096
1776967086.073672,gps,39.7375908600,-84.1765275733,242.5699,0.0395,0.0304,-0.1660,51.14,-4.97,-2.46,0.0000,0.002500,0.001
1776967086.075064,dr,39.7375908607,-84.1765275722,242.5695,0.0394,0.0305,-0.1661,51.29,-4.96,-2.47,0.0001,0.002500,0.003
1776967086.077515,dr,39.7375908614,-84.1765275710,242.5691,0.0394,0.0307,-0.1661,51.29,-4.96,-2.48,0.0002,0.002500,0.005
1776967086.079428,dr,39.7375908621,-84.1765275699,242.5687,0.0394,0.0309,-0.1661,51.29,-4.95,-2.48,0.0004,0.002500,0.007
1776967086.081113,dr,39.7375908628,-84.1765275687,242.5682,0.0394,0.0311,-0.1662,51.29,-4.94,-2.49,0.0005,0.002500,0.009
1776967086.083417,dr,39.7375908635,-84.1765275676,242.5678,0.0394,0.0312,-0.1663,51.30,-4.93,-2.49,0.0006,0.002500,0.011
1776967086.085942,dr,39.7375908642,-84.1765275664,242.5674,0.0393,0.0313,-0.1663,51.30,-4.92,-2.50,0.0008,0.002500,0.013
1776967086.088342,dr,39.7375908649,-84.1765275653,242.5670,0.0393,0.0315,-0.1664,51.30,-4.91,-2.50,0.0009,0.002500,0.015
1776967086.090964,dr,39.7375908656,-84.1765275641,242.5666,0.0393,0.0316,-0.1664,51.31,-4.91,-2.51,0.0010,0.002500,0.019
1776967086.093361,dr,39.7375908663,-84.1765275630,242.5662,0.0393,0.0317,-0.1665,51.31,-4.90,-2.51,0.0011,0.002500,0.021
1776967086.095924,dr,39.7375908670,-84.1765275618,242.5657,0.0393,0.0318,-0.1665,51.31,-4.89,-2.51,0.0013,0.002500,0.023
1776967086.098388,dr,39.7375908677,-84.1765275607,242.5653,0.0393,0.0319,-0.1666,51.31,-4.89,-2.52,0.0014,0.002500,0.026
1776967086.100851,dr,39.7375908684,-84.1765275595,242.5649,0.0393,0.0320,-0.1666,51.32,-4.88,-2.52,0.0015,0.002500,0.028
1776967086.103364,dr,39.7375908692,-84.1765275584,242.5645,0.0393,0.0321,-0.1667,51.32,-4.88,-2.52,0.0016,0.002500,0.031
1776967086.105803,dr,39.7375908699,-84.1765275572,242.5641,0.0393,0.0322,-0.1667,51.32,-4.87,-2.52,0.0018,0.002500,0.033
1776967086.108259,dr,39.7375908706,-84.1765275561,242.5637,0.0393,0.0322,-0.1668,51.32,-4.86,-2.53,0.0019,0.002500,0.036
1776967086.110812,dr,39.7375908713,-84.1765275549,242.5632,0.0393,0.0323,-0.1668,51.33,-4.86,-2.53,0.0020,0.002500,0.038
1776967086.113278,dr,39.7375908721,-84.1765275538,242.5628,0.0393,0.0323,-0.1669,51.33,-4.86,-2.53,0.0021,0.002500,0.041
1776967086.115774,dr,39.7375908728,-84.1765275526,242.5624,0.0394,0.0323,-0.1669,51.34,-4.86,-2.54,0.0023,0.002500,0.043
1776967086.118303,dr,39.7375908735,-84.1765275515,242.5620,0.0394,0.0323,-0.1670,51.34,-4.86,-2.54,0.0024,0.002500,0.046
1776967086.120676,dr,39.7375908742,-84.1765275503,242.5616,0.0394,0.0323,-0.1670,51.34,-4.86,-2.54,0.0025,0.002500,0.048
1776967086.123214,dr,39.7375908750,-84.1765275492,242.5612,0.0395,0.0323,-0.1671,51.34,-4.86,-2.54,0.0027,0.002500,0.051
1776967086.125802,dr,39.7375908757,-84.1765275480,242.5607,0.0395,0.0323,-0.1672,51.35,-4.86,-2.54,0.0028,0.002500,0.053
1776967086.128129,dr,39.7375908764,-84.1765275469,242.5603,0.0395,0.0323,-0.1672,51.35,-4.86,-2.55,0.0029,0.002500,0.056
1776967086.130628,dr,39.7375908772,-84.1765275457,242.5599,0.0396,0.0323,-0.1673,51.36,-4.86,-2.55,0.0030,0.002500,0.058
1776967086.133215,dr,39.7375908779,-84.1765275446,242.5595,0.0396,0.0322,-0.1673,51.36,-4.86,-2.55,0.0032,0.002500,0.061
1776967086.135669,dr,39.7375908786,-84.1765275434,242.5591,0.0396,0.0323,-0.1674,51.36,-4.86,-2.55,0.0033,0.002500,0.063
1776967086.138186,dr,39.7375908793,-84.1765275423,242.5586,0.0397,0.0323,-0.1674,51.36,-4.86,-2.55,0.0034,0.002500,0.066
1776967086.140633,dr,39.7375908801,-84.1765275411,242.5582,0.0397,0.0323,-0.1675,51.37,-4.86,-2.55,0.0035,0.002500,0.068
1776967086.143112,dr,39.7375908808,-84.1765275399,242.5578,0.0398,0.0323,-0.1676,51.37,-4.86,-2.56,0.0037,0.002500,0.071
1776967086.145738,dr,39.7375908815,-84.1765275388,242.5574,0.0398,0.0324,-0.1676,51.38,-4.86,-2.56,0.0038,0.002500,0.073
1776967086.148204,dr,39.7375908822,-84.1765275376,242.5570,0.0399,0.0324,-0.1677,51.38,-4.85,-2.56,0.0039,0.002500,0.076
1776967086.150607,dr,39.7375908830,-84.1765275364,242.5566,0.0399,0.0325,-0.1678,51.38,-4.85,-2.55,0.0041,0.002500,0.078
1776967086.153199,dr,39.7375908837,-84.1765275353,242.5561,0.0400,0.0325,-0.1678,51.38,-4.84,-2.55,0.0042,0.002500,0.081
1776967086.155576,dr,39.7375908844,-84.1765275341,242.5557,0.0400,0.0326,-0.1679,51.39,-4.83,-2.55,0.0043,0.002500,0.083
1776967086.158081,dr,39.7375908852,-84.1765275329,242.5553,0.0401,0.0327,-0.1679,51.39,-4.82,-2.54,0.0044,0.002500,0.086
1776967086.160686,dr,39.7375908859,-84.1765275318,242.5549,0.0401,0.0327,-0.1679,51.39,-4.82,-2.54,0.0046,0.002500,0.088
1776967086.163156,dr,39.7375908866,-84.1765275306,242.5545,0.0402,0.0328,-0.1680,51.39,-4.81,-2.55,0.0047,0.002500,0.091
1776967086.165566,dr,39.7375908874,-84.1765275294,242.5540,0.0403,0.0328,-0.1680,51.40,-4.81,-2.55,0.0048,0.002500,0.093
1776967086.168217,dr,39.7375908881,-84.1765275282,242.5536,0.0403,0.0329,-0.1681,51.40,-4.81,-2.55,0.0050,0.002500,0.096
1776967086.170691,dr,39.7375908889,-84.1765275271,242.5532,0.0404,0.0329,-0.1681,51.40,-4.81,-2.55,0.0051,0.002500,0.098
1776967086.172586,gps,39.7375908950,-84.1765275233,242.5574,0.0433,0.0393,-0.1264,51.26,-4.81,-2.53,0.0000,0.002500,0.001
1776967086.173969,dr,39.7375908959,-84.1765275221,242.5571,0.0434,0.0393,-0.1264,51.40,-4.81,-2.55,0.0001,0.002500,0.003
1776967086.176818,dr,39.7375908968,-84.1765275208,242.5568,0.0434,0.0393,-0.1265,51.41,-4.80,-2.54,0.0003,0.002500,0.005
1776967086.179166,dr,39.7375908977,-84.1765275195,242.5565,0.0435,0.0393,-0.1265,51.41,-4.80,-2.54,0.0004,0.002500,0.008
1776967086.181403,dr,39.7375908985,-84.1765275183,242.5561,0.0435,0.0392,-0.1266,110.26,-4.79,-2.53,0.0006,0.002500,0.010
1776967086.183098,dr,39.7375908994,-84.1765275170,242.5558,0.0436,0.0392,-0.1266,51.41,-4.80,-2.55,0.0007,0.002500,0.012
1776967086.185551,dr,39.7375909003,-84.1765275157,242.5555,0.0436,0.0391,-0.1266,51.42,-4.81,-2.54,0.0009,0.002500,0.015
1776967086.188337,dr,39.7375909012,-84.1765275144,242.5552,0.0437,0.0390,-0.1267,51.42,-4.81,-2.54,0.0010,0.002500,0.017
1776967086.190481,dr,39.7375909021,-84.1765275132,242.5549,0.0438,0.0389,-0.1267,51.42,-4.82,-2.54,0.0012,0.002500,0.019
1776967086.193097,dr,39.7375909029,-84.1765275119,242.5546,0.0439,0.0388,-0.1268,51.42,-4.82,-2.54,0.0013,0.002500,0.022
1776967086.195616,dr,39.7375909038,-84.1765275106,242.5542,0.0439,0.0387,-0.1268,51.43,-4.83,-2.54,0.0015,0.002500,0.024
1776967086.198014,dr,39.7375909047,-84.1765275093,242.5539,0.0440,0.0386,-0.1268,51.43,-4.84,-2.54,0.0016,0.002500,0.027
1776967086.200546,dr,39.7375909055,-84.1765275080,242.5536,0.0441,0.0384,-0.1268,51.43,-4.85,-2.53,0.0018,0.002500,0.029
1776967086.202967,dr,39.7375909064,-84.1765275067,242.5533,0.0443,0.0382,-0.1269,51.43,-4.86,-2.53,0.0019,0.002500,0.032
1776967086.205453,dr,39.7375909073,-84.1765275054,242.5530,0.0444,0.0381,-0.1269,51.44,-4.87,-2.52,0.0020,0.002500,0.034
1776967086.208076,dr,39.7375909081,-84.1765275041,242.5526,0.0445,0.0379,-0.1269,51.44,-4.88,-2.52,0.0022,0.002500,0.037
1776967086.210434,dr,39.7375909090,-84.1765275028,242.5523,0.0446,0.0378,-0.1269,51.44,-4.89,-2.51,0.0023,0.002500,0.039
1776967086.213041,dr,39.7375909098,-84.1765275015,242.5520,0.0447,0.0376,-0.1270,51.44,-4.91,-2.51,0.0025,0.002500,0.042
1776967086.215550,dr,39.7375909107,-84.1765275002,242.5517,0.0449,0.0375,-0.1270,51.44,-4.92,-2.50,0.0026,0.002500,0.044
1776967086.218019,dr,39.7375909115,-84.1765274989,242.5514,0.0450,0.0374,-0.1270,51.45,-4.93,-2.49,0.0028,0.002500,0.046
1776967086.220492,dr,39.7375909123,-84.1765274976,242.5511,0.0451,0.0373,-0.1271,51.45,-4.94,-2.49,0.0029,0.002500,0.049
1776967086.222896,dr,39.7375909132,-84.1765274963,242.5507,0.0452,0.0371,-0.1271,51.45,-4.95,-2.48,0.0031,0.002500,0.051
1776967086.225419,dr,39.7375909140,-84.1765274950,242.5504,0.0453,0.0370,-0.1271,51.45,-4.96,-2.47,0.0032,0.002500,0.054
1776967086.227865,dr,39.7375909148,-84.1765274936,242.5501,0.0454,0.0370,-0.1272,51.45,-4.97,-2.46,0.0034,0.002500,0.056
1776967086.230355,dr,39.7375909157,-84.1765274923,242.5498,0.0455,0.0369,-0.1272,51.46,-4.98,-2.46,0.0035,0.002500,0.059
1776967086.232897,dr,39.7375909165,-84.1765274910,242.5495,0.0457,0.0368,-0.1272,51.46,-4.99,-2.45,0.0037,0.002500,0.061
1776967086.235389,dr,39.7375909173,-84.1765274896,242.5492,0.0458,0.0368,-0.1272,51.46,-4.99,-2.44,0.0038,0.002500,0.064
1776967086.237931,dr,39.7375909182,-84.1765274883,242.5488,0.0458,0.0368,-0.1272,51.46,-5.00,-2.43,0.0040,0.002500,0.066
1776967086.240379,dr,39.7375909190,-84.1765274870,242.5485,0.0459,0.0368,-0.1273,51.46,-5.00,-2.43,0.0041,0.002500,0.069
1776967086.242878,dr,39.7375909198,-84.1765274856,242.5482,0.0460,0.0368,-0.1273,51.46,-5.01,-2.42,0.0042,0.002500,0.071
1776967086.245327,dr,39.7375909206,-84.1765274843,242.5479,0.0461,0.0368,-0.1273,51.46,-5.01,-2.41,0.0044,0.002500,0.074
1776967086.247747,dr,39.7375909215,-84.1765274829,242.5476,0.0461,0.0368,-0.1273,51.46,-5.01,-2.40,0.0045,0.002500,0.076
1776967086.250344,dr,39.7375909223,-84.1765274816,242.5472,0.0461,0.0369,-0.1274,51.47,-5.01,-2.40,0.0047,0.002500,0.079
1776967086.252787,dr,39.7375909231,-84.1765274802,242.5469,0.0462,0.0370,-0.1274,51.47,-5.00,-2.39,0.0048,0.002500,0.081
1776967086.255251,dr,39.7375909240,-84.1765274789,242.5466,0.0462,0.0371,-0.1274,51.47,-5.00,-2.39,0.0050,0.002500,0.084
1776967086.257854,dr,39.7375909248,-84.1765274775,242.5463,0.0462,0.0372,-0.1274,51.47,-5.00,-2.38,0.0051,0.002500,0.086
1776967086.260254,dr,39.7375909256,-84.1765274762,242.5460,0.0462,0.0373,-0.1274,51.47,-4.99,-2.38,0.0053,0.002500,0.089
1776967086.262708,dr,39.7375909265,-84.1765274748,242.5457,0.0461,0.0374,-0.1275,51.47,-4.99,-2.38,0.0054,0.002500,0.091
1776967086.265277,dr,39.7375909273,-84.1765274735,242.5453,0.0461,0.0375,-0.1275,51.47,-4.98,-2.38,0.0056,0.002500,0.094
1776967086.267796,dr,39.7375909282,-84.1765274722,242.5450,0.0460,0.0376,-0.1275,51.47,-4.98,-2.37,0.0057,0.002500,0.096
1776967086.270340,dr,39.7375909290,-84.1765274708,242.5447,0.0459,0.0377,-0.1275,51.47,-4.97,-2.37,0.0059,0.002500,0.099
1776967086.272288,gps,39.7375909517,-84.1765274767,242.5458,0.0401,0.0632,-0.1163,51.33,-4.97,-2.36,0.0000,0.002500,0.001
1776967086.274384,dr,39.7375909531,-84.1765274755,242.5455,0.0400,0.0633,-0.1164,51.47,-4.97,-2.38,0.0002,0.002500,0.003
1776967086.276051,dr,39.7375909545,-84.1765274743,242.5452,0.0399,0.0634,-0.1164,51.47,-4.96,-2.38,0.0004,0.002500,0.005
1776967086.278473,dr,39.7375909559,-84.1765274732,242.5449,0.0399,0.0635,-0.1164,110.48,-4.95,-2.37,0.0006,0.002500,0.007
1776967086.280275,dr,39.7375909574,-84.1765274720,242.5446,0.0399,0.0636,-0.1164,51.48,-4.95,-2.38,0.0007,0.002500,0.009
1776967086.282864,dr,39.7375909588,-84.1765274708,242.5443,0.0398,0.0636,-0.1164,51.48,-4.95,-2.38,0.0009,0.002500,0.012
1776967086.285181,dr,39.7375909602,-84.1765274697,242.5441,0.0397,0.0637,-0.1164,51.48,-4.94,-2.38,0.0011,0.002500,0.014
1776967086.287648,dr,39.7375909617,-84.1765274685,242.5438,0.0396,0.0637,-0.1164,51.48,-4.94,-2.39,0.0013,0.002500,0.016
1776967086.290204,dr,39.7375909631,-84.1765274674,242.5435,0.0395,0.0637,-0.1164,51.48,-4.94,-2.39,0.0015,0.002500,0.019
1776967086.292623,dr,39.7375909645,-84.1765274662,242.5432,0.0394,0.0637,-0.1164,51.48,-4.93,-2.39,0.0017,0.002500,0.022
1776967086.295156,dr,39.7375909660,-84.1765274651,242.5429,0.0394,0.0637,-0.1164,51.48,-4.93,-2.40,0.0019,0.002500,0.024
1776967086.297726,dr,39.7375909674,-84.1765274639,242.5426,0.0393,0.0637,-0.1164,51.48,-4.92,-2.40,0.0021,0.002500,0.027
1776967086.300170,dr,39.7375909688,-84.1765274628,242.5423,0.0392,0.0637,-0.1164,51.48,-4.92,-2.40,0.0022,0.002500,0.029
1776967086.302652,dr,39.7375909703,-84.1765274616,242.5420,0.0392,0.0637,-0.1164,51.48,-4.92,-2.41,0.0024,0.002500,0.031
1776967086.305181,dr,39.7375909717,-84.1765274605,242.5417,0.0392,0.0637,-0.1164,51.48,-4.92,-2.41,0.0026,0.002500,0.034
1776967086.307758,dr,39.7375909731,-84.1765274593,242.5414,0.0391,0.0636,-0.1164,51.48,-4.93,-2.40,0.0028,0.002500,0.037
1776967086.310116,dr,39.7375909746,-84.1765274582,242.5411,0.0391,0.0636,-0.1164,51.48,-4.93,-2.41,0.0030,0.002500,0.039
1776967086.312650,dr,39.7375909760,-84.1765274570,242.5409,0.0391,0.0635,-0.1164,51.48,-4.93,-2.41,0.0032,0.002500,0.042
1776967086.315142,dr,39.7375909774,-84.1765274559,242.5406,0.0391,0.0635,-0.1164,51.48,-4.94,-2.41,0.0034,0.002500,0.044
1776967086.317626,dr,39.7375909788,-84.1765274548,242.5403,0.0391,0.0634,-0.1164,51.48,-4.94,-2.41,0.0036,0.002500,0.046
1776967086.320141,dr,39.7375909803,-84.1765274536,242.5400,0.0391,0.0634,-0.1164,51.48,-4.95,-2.41,0.0037,0.002500,0.049
1776967086.322648,dr,39.7375909817,-84.1765274525,242.5397,0.0391,0.0633,-0.1164,51.48,-4.96,-2.41,0.0039,0.002500,0.052
1776967086.325028,dr,39.7375909831,-84.1765274513,242.5394,0.0391,0.0632,-0.1164,51.48,-4.96,-2.40,0.0041,0.002500,0.054
1776967086.327507,dr,39.7375909845,-84.1765274502,242.5391,0.0391,0.0632,-0.1164,51.48,-4.96,-2.40,0.0043,0.002500,0.056
1776967086.330034,dr,39.7375909860,-84.1765274491,242.5388,0.0392,0.0631,-0.1164,51.48,-4.97,-2.39,0.0045,0.002500,0.059
1776967086.332495,dr,39.7375909874,-84.1765274479,242.5385,0.0392,0.0630,-0.1164,51.48,-4.97,-2.39,0.0047,0.002500,0.061
1776967086.334983,dr,39.7375909888,-84.1765274468,242.5382,0.0392,0.0630,-0.1164,51.48,-4.98,-2.38,0.0049,0.002500,0.064
1776967086.337572,dr,39.7375909902,-84.1765274456,242.5379,0.0392,0.0629,-0.1164,51.48,-4.98,-2.38,0.0050,0.002500,0.066
1776967086.340034,dr,39.7375909916,-84.1765274445,242.5377,0.0393,0.0628,-0.1164,51.48,-4.99,-2.37,0.0052,0.002500,0.069
1776967086.342487,dr,39.7375909930,-84.1765274433,242.5374,0.0393,0.0627,-0.1164,51.48,-5.00,-2.37,0.0054,0.002500,0.071
1776967086.344971,dr,39.7375909945,-84.1765274422,242.5371,0.0393,0.0627,-0.1165,51.48,-5.00,-2.36,0.0056,0.002500,0.074
1776967086.347545,dr,39.7375909959,-84.1765274410,242.5368,0.0393,0.0627,-0.1165,51.48,-5.01,-2.36,0.0058,0.002500,0.076
1776967086.349993,dr,39.7375909973,-84.1765274399,242.5365,0.0393,0.0626,-0.1165,51.48,-5.01,-2.36,0.0060,0.002500,0.079
1776967086.352431,dr,39.7375909987,-84.1765274387,242.5362,0.0393,0.0626,-0.1165,51.48,-5.01,-2.35,0.0062,0.002500,0.081
1776967086.355066,dr,39.7375910001,-84.1765274376,242.5359,0.0393,0.0626,-0.1165,51.48,-5.01,-2.35,0.0063,0.002500,0.084
1776967086.357458,dr,39.7375910015,-84.1765274364,242.5356,0.0392,0.0626,-0.1165,51.48,-5.02,-2.35,0.0065,0.002500,0.086
1776967086.360004,dr,39.7375910029,-84.1765274353,242.5353,0.0392,0.0627,-0.1165,51.48,-5.02,-2.35,0.0067,0.002500,0.089
1776967086.362561,dr,39.7375910043,-84.1765274342,242.5350,0.0391,0.0627,-0.1166,51.49,-5.01,-2.35,0.0069,0.002500,0.091
1776967086.365068,dr,39.7375910057,-84.1765274330,242.5347,0.0391,0.0628,-0.1166,51.49,-5.01,-2.35,0.0071,0.002500,0.094
1776967086.367642,dr,39.7375910071,-84.1765274319,242.5344,0.0390,0.0628,-0.1166,51.49,-5.01,-2.35,0.0073,0.002500,0.096
1776967086.370136,dr,39.7375910086,-84.1765274307,242.5342,0.0389,0.0629,-0.1166,51.49,-5.00,-2.35,0.0074,0.002500,0.099
1776967086.372489,gps,39.7375909833,-84.1765274400,242.5393,0.0313,0.0351,-0.0649,51.35,-5.00,-2.34,0.0000,0.002500,0.001
1776967086.374118,dr,39.7375909841,-84.1765274391,242.5391,0.0312,0.0352,-0.0649,51.49,-5.00,-2.35,0.0001,0.002500,0.003
1776967086.376245,dr,39.7375909849,-84.1765274382,242.5390,0.0311,0.0353,-0.0649,51.49,-4.99,-2.36,0.0002,0.002500,0.005
1776967086.377771,dr,39.7375909857,-84.1765274373,242.5388,0.0310,0.0354,-0.0649,51.49,-4.98,-2.36,0.0004,0.002500,0.006
1776967086.380170,dr,39.7375909865,-84.1765274364,242.5387,0.0311,0.0356,-0.0649,110.43,-4.97,-2.35,0.0005,0.002500,0.009
1776967086.382382,dr,39.7375909873,-84.1765274355,242.5385,0.0310,0.0357,-0.0649,51.49,-4.97,-2.36,0.0006,0.002500,0.011
1776967086.384989,dr,39.7375909881,-84.1765274346,242.5383,0.0308,0.0359,-0.0649,51.49,-4.95,-2.37,0.0007,0.002500,0.014
1776967086.387347,dr,39.7375909889,-84.1765274337,242.5382,0.0307,0.0360,-0.0650,51.49,-4.95,-2.37,0.0008,0.002500,0.016
1776967086.389927,dr,39.7375909897,-84.1765274328,242.5380,0.0305,0.0361,-0.0650,51.49,-4.93,-2.38,0.0009,0.002500,0.019
1776967086.392318,dr,39.7375909906,-84.1765274319,242.5378,0.0304,0.0363,-0.0650,51.49,-4.92,-2.39,0.0011,0.002500,0.021
1776967086.394980,dr,39.7375909914,-84.1765274310,242.5377,0.0302,0.0364,-0.0651,51.50,-4.91,-2.39,0.0012,0.002500,0.024
1776967086.397444,dr,39.7375909922,-84.1765274301,242.5375,0.0301,0.0365,-0.0651,51.50,-4.90,-2.40,0.0013,0.002500,0.026
1776967086.399924,dr,39.7375909930,-84.1765274292,242.5374,0.0299,0.0366,-0.0651,51.50,-4.89,-2.41,0.0014,0.002500,0.028
1776967086.402435,dr,39.7375909938,-84.1765274284,242.5372,0.0298,0.0367,-0.0651,51.50,-4.88,-2.42,0.0015,0.002500,0.031
1776967086.404885,dr,39.7375909947,-84.1765274275,242.5370,0.0297,0.0368,-0.0652,51.50,-4.87,-2.43,0.0017,0.002500,0.033
1776967086.407576,dr,39.7375909955,-84.1765274266,242.5369,0.0296,0.0370,-0.0652,51.50,-4.86,-2.43,0.0018,0.002500,0.036
1776967086.409837,dr,39.7375909963,-84.1765274258,242.5367,0.0295,0.0370,-0.0652,51.50,-4.85,-2.44,0.0019,0.002500,0.038
1776967086.412298,dr,39.7375909972,-84.1765274249,242.5365,0.0294,0.0371,-0.0652,51.51,-4.84,-2.45,0.0020,0.002500,0.041
1776967086.414769,dr,39.7375909980,-84.1765274240,242.5364,0.0293,0.0372,-0.0652,51.51,-4.83,-2.46,0.0021,0.002500,0.043
1776967086.417246,dr,39.7375909988,-84.1765274232,242.5362,0.0293,0.0372,-0.0653,51.51,-4.83,-2.46,0.0022,0.002500,0.045
1776967086.419735,dr,39.7375909997,-84.1765274223,242.5360,0.0293,0.0372,-0.0653,51.51,-4.82,-2.47,0.0024,0.002500,0.048
1776967086.422257,dr,39.7375910005,-84.1765274215,242.5359,0.0293,0.0373,-0.0653,51.51,-4.82,-2.47,0.0025,0.002500,0.051
1776967086.424722,dr,39.7375910013,-84.1765274206,242.5357,0.0292,0.0373,-0.0653,51.51,-4.81,-2.48,0.0026,0.002500,0.053
1776967086.427334,dr,39.7375910022,-84.1765274198,242.5356,0.0293,0.0373,-0.0654,51.51,-4.81,-2.48,0.0027,0.002500,0.056
1776967086.429769,dr,39.7375910030,-84.1765274189,242.5354,0.0292,0.0372,-0.0654,51.51,-4.81,-2.48,0.0028,0.002500,0.058
1776967086.432200,dr,39.7375910039,-84.1765274181,242.5352,0.0293,0.0372,-0.0654,51.52,-4.81,-2.49,0.0030,0.002500,0.061
1776967086.434792,dr,39.7375910047,-84.1765274172,242.5351,0.0293,0.0371,-0.0655,51.52,-4.81,-2.49,0.0031,0.002500,0.063
1776967086.437249,dr,39.7375910055,-84.1765274163,242.5349,0.0293,0.0370,-0.0655,51.52,-4.81,-2.49,0.0032,0.002500,0.066
1776967086.439762,dr,39.7375910064,-84.1765274155,242.5347,0.0294,0.0370,-0.0655,51.52,-4.82,-2.49,0.0033,0.002500,0.068
1776967086.442194,dr,39.7375910072,-84.1765274146,242.5346,0.0295,0.0369,-0.0656,51.52,-4.82,-2.49,0.0034,0.002500,0.071
1776967086.444663,dr,39.7375910080,-84.1765274138,242.5344,0.0295,0.0367,-0.0656,51.53,-4.83,-2.49,0.0035,0.002500,0.073
1776967086.447308,dr,39.7375910088,-84.1765274129,242.5342,0.0296,0.0366,-0.0657,51.53,-4.84,-2.49,0.0037,0.002500,0.076
1776967086.449772,dr,39.7375910097,-84.1765274120,242.5341,0.0297,0.0365,-0.0657,51.53,-4.84,-2.49,0.0038,0.002500,0.078
1776967086.452155,dr,39.7375910105,-84.1765274112,242.5339,0.0298,0.0364,-0.0657,51.53,-4.85,-2.48,0.0039,0.002500,0.081
1776967086.454671,dr,39.7375910113,-84.1765274103,242.5338,0.0298,0.0363,-0.0658,51.54,-4.86,-2.48,0.0040,0.002500,0.083
1776967086.457123,dr,39.7375910121,-84.1765274094,242.5336,0.0299,0.0362,-0.0658,51.54,-4.87,-2.48,0.0041,0.002500,0.086
1776967086.459690,dr,39.7375910129,-84.1765274086,242.5334,0.0300,0.0361,-0.0658,51.54,-4.88,-2.47,0.0043,0.002500,0.088
1776967086.462189,dr,39.7375910138,-84.1765274077,242.5333,0.0300,0.0360,-0.0659,51.55,-4.89,-2.47,0.0044,0.002500,0.091
1776967086.464652,dr,39.7375910146,-84.1765274068,242.5331,0.0301,0.0359,-0.0659,51.55,-4.90,-2.46,0.0045,0.002500,0.093
1776967086.467523,dr,39.7375910154,-84.1765274059,242.5329,0.0302,0.0358,-0.0660,51.55,-4.91,-2.46,0.0046,0.002500,0.097
1776967086.470052,dr,39.7375910162,-84.1765274050,242.5328,0.0303,0.0356,-0.0660,51.55,-4.92,-2.45,0.0047,0.002500,0.099
1776967086.472133,gps,39.7375910050,-84.1765273967,242.5311,0.0372,0.0242,-0.0823,51.41,-4.94,-2.43,0.0000,0.002500,0.001
1776967086.473470,dr,39.7375910055,-84.1765273956,242.5309,0.0373,0.0240,-0.0823,51.56,-4.93,-2.45,0.0001,0.002500,0.002
1776967086.475253,dr,39.7375910061,-84.1765273945,242.5307,0.0374,0.0239,-0.0824,51.56,-4.95,-2.45,0.0002,0.002500,0.005
1776967086.477150,dr,39.7375910066,-84.1765273934,242.5305,0.0374,0.0238,-0.0824,51.56,-4.96,-2.44,0.0003,0.002500,0.006
1776967086.479674,dr,39.7375910072,-84.1765273923,242.5303,0.0373,0.0236,-0.0825,110.40,-4.96,-2.43,0.0004,0.002500,0.009
1776967086.482204,dr,39.7375910077,-84.1765273912,242.5301,0.0374,0.0235,-0.0825,51.57,-4.98,-2.43,0.0006,0.002500,0.011
1776967086.484521,dr,39.7375910082,-84.1765273901,242.5299,0.0375,0.0234,-0.0826,51.57,-4.99,-2.43,0.0007,0.002500,0.013
1776967086.487069,dr,39.7375910087,-84.1765273890,242.5297,0.0375,0.0232,-0.0826,51.58,-5.00,-2.43,0.0008,0.002500,0.016
1776967086.489570,dr,39.7375910093,-84.1765273879,242.5295,0.0376,0.0231,-0.0827,51.58,-5.01,-2.42,0.0009,0.002500,0.019
1776967086.492137,dr,39.7375910098,-84.1765273868,242.5292,0.0377,0.0230,-0.0827,51.58,-5.02,-2.42,0.0010,0.002500,0.021
1776967086.494613,dr,39.7375910103,-84.1765273857,242.5290,0.0377,0.0229,-0.0828,51.59,-5.03,-2.41,0.0011,0.002500,0.024
1776967086.497113,dr,39.7375910108,-84.1765273846,242.5288,0.0378,0.0228,-0.0828,51.59,-5.04,-2.41,0.0012,0.002500,0.026
1776967086.499580,dr,39.7375910113,-84.1765273835,242.5286,0.0378,0.0227,-0.0829,51.59,-5.05,-2.41,0.0013,0.002500,0.029
1776967086.502043,dr,39.7375910118,-84.1765273824,242.5284,0.0378,0.0226,-0.0829,51.59,-5.06,-2.40,0.0014,0.002500,0.031
1776967086.504562,dr,39.7375910123,-84.1765273813,242.5282,0.0378,0.0226,-0.0830,51.60,-5.07,-2.40,0.0015,0.002500,0.034
1776967086.507013,dr,39.7375910128,-84.1765273802,242.5280,0.0378,0.0225,-0.0830,51.60,-5.08,-2.40,0.0017,0.002500,0.036
1776967086.509513,dr,39.7375910133,-84.1765273791,242.5278,0.0378,0.0225,-0.0831,51.61,-5.08,-2.40,0.0018,0.002500,0.039
1776967086.512065,dr,39.7375910139,-84.1765273780,242.5276,0.0378,0.0225,-0.0831,51.61,-5.09,-2.40,0.0019,0.002500,0.041
1776967086.514489,dr,39.7375910144,-84.1765273769,242.5274,0.0377,0.0225,-0.0832,51.61,-5.09,-2.40,0.0020,0.002500,0.044
1776967086.516919,dr,39.7375910149,-84.1765273758,242.5272,0.0377,0.0225,-0.0832,51.62,-5.09,-2.40,0.0021,0.002500,0.045
1776967086.519438,dr,39.7375910154,-84.1765273747,242.5270,0.0376,0.0225,-0.0833,51.62,-5.09,-2.41,0.0022,0.002500,0.049
1776967086.521951,dr,39.7375910159,-84.1765273736,242.5268,0.0376,0.0225,-0.0833,51.62,-5.09,-2.41,0.0023,0.002500,0.051
1776967086.524647,dr,39.7375910164,-84.1765273725,242.5265,0.0375,0.0225,-0.0834,51.62,-5.09,-2.41,0.0024,0.002500,0.054
1776967086.527019,dr,39.7375910169,-84.1765273714,242.5263,0.0374,0.0226,-0.0834,51.62,-5.09,-2.41,0.0025,0.002500,0.056
1776967086.529470,dr,39.7375910174,-84.1765273703,242.5261,0.0374,0.0226,-0.0835,51.63,-5.09,-2.42,0.0026,0.002500,0.059
1776967086.531989,dr,39.7375910179,-84.1765273692,242.5259,0.0373,0.0227,-0.0835,51.63,-5.09,-2.42,0.0028,0.002500,0.061
1776967086.534411,dr,39.7375910184,-84.1765273681,242.5257,0.0372,0.0228,-0.0836,51.63,-5.08,-2.42,0.0029,0.002500,0.063
1776967086.536903,dr,39.7375910189,-84.1765273671,242.5255,0.0371,0.0229,-0.0836,51.63,-5.08,-2.43,0.0030,0.002500,0.066
1776967086.539347,dr,39.7375910194,-84.1765273660,242.5253,0.0370,0.0230,-0.0836,51.63,-5.07,-2.43,0.0031,0.002500,0.068
1776967086.541877,dr,39.7375910200,-84.1765273649,242.5251,0.0369,0.0231,-0.0837,51.64,-5.07,-2.43,0.0032,0.002500,0.071
1776967086.544466,dr,39.7375910205,-84.1765273638,242.5249,0.0368,0.0232,-0.0837,51.64,-5.07,-2.44,0.0033,0.002500,0.073
1776967086.546879,dr,39.7375910210,-84.1765273627,242.5247,0.0367,0.0233,-0.0838,51.64,-5.06,-2.44,0.0034,0.002500,0.076
1776967086.549340,dr,39.7375910215,-84.1765273617,242.5245,0.0365,0.0234,-0.0838,51.64,-5.06,-2.45,0.0035,0.002500,0.078
1776967086.551862,dr,39.7375910221,-84.1765273606,242.5242,0.0364,0.0235,-0.0839,51.65,-5.05,-2.46,0.0036,0.002500,0.081
1776967086.554349,dr,39.7375910226,-84.1765273595,242.5240,0.0363,0.0236,-0.0839,51.65,-5.04,-2.47,0.0037,0.002500,0.083
1776967086.556853,dr,39.7375910231,-84.1765273585,242.5238,0.0362,0.0238,-0.0839,51.65,-5.04,-2.48,0.0038,0.002500,0.086
1776967086.559266,dr,39.7375910237,-84.1765273574,242.5236,0.0361,0.0239,-0.0840,51.65,-5.03,-2.48,0.0039,0.002500,0.088
1776967086.561953,dr,39.7375910242,-84.1765273564,242.5234,0.0361,0.0240,-0.0840,51.65,-5.02,-2.49,0.0041,0.002500,0.091
1776967086.564363,dr,39.7375910247,-84.1765273553,242.5232,0.0360,0.0241,-0.0840,51.65,-5.01,-2.49,0.0042,0.002500,0.093
1776967086.567035,dr,39.7375910253,-84.1765273543,242.5230,0.0359,0.0242,-0.0841,51.65,-5.01,-2.50,0.0043,0.002500,0.096
1776967086.569535,dr,39.7375910258,-84.1765273532,242.5228,0.0358,0.0243,-0.0841,51.65,-4.99,-2.51,0.0044,0.002500,0.099
1776967086.571522,gps,39.7375910100,-84.1765273667,242.5247,0.0258,0.0056,-0.0644,51.51,-4.99,-2.50,0.0000,0.002500,0.001
1776967086.573122,dr,39.7375910101,-84.1765273659,242.5245,0.0258,0.0057,-0.0644,51.65,-4.98,-2.51,0.0001,0.002500,0.003
1776967086.575599,dr,39.7375910103,-84.1765273652,242.5244,0.0258,0.0058,-0.0644,110.58,-4.97,-2.50,0.0001,0.002500,0.006
1776967086.578111,dr,39.7375910104,-84.1765273644,242.5242,0.0258,0.0058,-0.0645,51.65,-4.96,-2.52,0.0002,0.002500,0.008
1776967086.579787,dr,39.7375910105,-84.1765273637,242.5241,0.0257,0.0059,-0.0645,51.66,-4.95,-2.52,0.0003,0.002500,0.010
1776967086.581732,dr,39.7375910107,-84.1765273629,242.5239,0.0257,0.0060,-0.0645,51.66,-4.94,-2.53,0.0003,0.002500,0.011
1776967086.584303,dr,39.7375910108,-84.1765273622,242.5237,0.0257,0.0060,-0.0646,51.66,-4.93,-2.53,0.0004,0.002500,0.014
1776967086.586808,dr,39.7375910109,-84.1765273614,242.5236,0.0256,0.0061,-0.0646,51.66,-4.92,-2.53,0.0005,0.002500,0.016
1776967086.589234,dr,39.7375910111,-84.1765273607,242.5234,0.0256,0.0062,-0.0646,51.67,-4.92,-2.53,0.0005,0.002500,0.019
1776967086.591690,dr,39.7375910112,-84.1765273599,242.5232,0.0256,0.0062,-0.0647,51.66,-4.91,-2.53,0.0006,0.002500,0.021
1776967086.594316,dr,39.7375910113,-84.1765273592,242.5231,0.0255,0.0062,-0.0647,51.67,-4.90,-2.53,0.0007,0.002500,0.024
1776967086.596687,dr,39.7375910115,-84.1765273584,242.5229,0.0255,0.0063,-0.0647,51.67,-4.89,-2.53,0.0007,0.002500,0.026
1776967086.599277,dr,39.7375910116,-84.1765273577,242.5228,0.0254,0.0063,-0.0648,51.67,-4.88,-2.53,0.0008,0.002500,0.029
1776967086.601703,dr,39.7375910118,-84.1765273569,242.5226,0.0254,0.0063,-0.0648,51.67,-4.88,-2.53,0.0009,0.002500,0.031
1776967086.604272,dr,39.7375910119,-84.1765273562,242.5224,0.0254,0.0064,-0.0649,51.67,-4.87,-2.53,0.0009,0.002500,0.034
1776967086.606610,dr,39.7375910121,-84.1765273554,242.5223,0.0253,0.0064,-0.0649,51.68,-4.86,-2.53,0.0010,0.002500,0.036
1776967086.609134,dr,39.7375910122,-84.1765273547,242.5221,0.0253,0.0064,-0.0650,51.68,-4.86,-2.53,0.0011,0.002500,0.039
1776967086.611642,dr,39.7375910123,-84.1765273540,242.5220,0.0253,0.0063,-0.0650,51.68,-4.86,-2.53,0.0011,0.002500,0.041
1776967086.614204,dr,39.7375910125,-84.1765273532,242.5218,0.0252,0.0063,-0.0651,51.68,-4.85,-2.53,0.0012,0.002500,0.044
1776967086.616594,dr,39.7375910126,-84.1765273525,242.5216,0.0252,0.0063,-0.0651,51.68,-4.85,-2.53,0.0012,0.002500,0.046
1776967086.619117,dr,39.7375910128,-84.1765273518,242.5215,0.0252,0.0063,-0.0652,51.69,-4.84,-2.53,0.0013,0.002500,0.049
1776967086.621566,dr,39.7375910129,-84.1765273510,242.5213,0.0252,0.0062,-0.0652,51.69,-4.84,-2.52,0.0014,0.002500,0.051
1776967086.624109,dr,39.7375910130,-84.1765273503,242.5211,0.0252,0.0062,-0.0653,51.69,-4.84,-2.52,0.0014,0.002500,0.054
1776967086.626682,dr,39.7375910132,-84.1765273496,242.5210,0.0252,0.0062,-0.0653,51.69,-4.84,-2.52,0.0015,0.002500,0.056
1776967086.629196,dr,39.7375910133,-84.1765273488,242.5208,0.0251,0.0062,-0.0654,51.69,-4.83,-2.52,0.0016,0.002500,0.059
1776967086.631675,dr,39.7375910135,-84.1765273481,242.5206,0.0251,0.0061,-0.0654,51.70,-4.83,-2.52,0.0016,0.002500,0.061
1776967086.634159,dr,39.7375910136,-84.1765273474,242.5205,0.0251,0.0061,-0.0655,51.70,-4.83,-2.52,0.0017,0.002500,0.064
1776967086.636602,dr,39.7375910137,-84.1765273466,242.5203,0.0251,0.0060,-0.0655,51.70,-4.83,-2.51,0.0018,0.002500,0.066
1776967086.639067,dr,39.7375910139,-84.1765273459,242.5202,0.0251,0.0060,-0.0656,51.71,-4.82,-2.51,0.0018,0.002500,0.069
1776967086.641508,dr,39.7375910140,-84.1765273452,242.5200,0.0252,0.0060,-0.0656,51.71,-4.82,-2.51,0.0019,0.002500,0.071
1776967086.644122,dr,39.7375910141,-84.1765273444,242.5198,0.0252,0.0059,-0.0657,51.71,-4.82,-2.50,0.0020,0.002500,0.074
1776967086.646624,dr,39.7375910143,-84.1765273437,242.5197,0.0252,0.0059,-0.0657,51.71,-4.81,-2.50,0.0020,0.002500,0.076
1776967086.649122,dr,39.7375910144,-84.1765273429,242.5195,0.0253,0.0059,-0.0658,51.72,-4.81,-2.50,0.0021,0.002500,0.079
1776967086.651518,dr,39.7375910145,-84.1765273422,242.5193,0.0253,0.0058,-0.0658,51.72,-4.81,-2.50,0.0022,0.002500,0.081
1776967086.654117,dr,39.7375910147,-84.1765273415,242.5192,0.0253,0.0058,-0.0659,51.72,-4.81,-2.49,0.0022,0.002500,0.084
1776967086.656507,dr,39.7375910148,-84.1765273407,242.5190,0.0253,0.0058,-0.0659,51.72,-4.81,-2.49,0.0023,0.002500,0.086
1776967086.659115,dr,39.7375910149,-84.1765273400,242.5188,0.0253,0.0058,-0.0660,51.72,-4.81,-2.49,0.0023,0.002500,0.089
1776967086.661477,dr,39.7375910151,-84.1765273392,242.5187,0.0254,0.0058,-0.0660,51.73,-4.80,-2.48,0.0024,0.002500,0.091
1776967086.664005,dr,39.7375910152,-84.1765273385,242.5185,0.0254,0.0058,-0.0661,51.73,-4.80,-2.48,0.0025,0.002500,0.094
1776967086.666512,dr,39.7375910153,-84.1765273378,242.5183,0.0254,0.0057,-0.0661,51.73,-4.79,-2.48,0.0025,0.002500,0.096
1776967086.669034,dr,39.7375910154,-84.1765273370,242.5182,0.0255,0.0057,-0.0662,51.74,-4.79,-2.48,0.0026,0.002500,0.099
1776967086.671496,gps,39.7375910017,-84.1765273633,242.5218,0.0029,-0.0093,-0.0290,51.60,-4.80,-2.46,0.0000,0.002500,0.001
1776967086.673146,dr,39.7375910015,-84.1765273632,242.5217,0.0029,-0.0093,-0.0291,51.74,-4.79,-2.47,0.0000,0.002500,0.003
1776967086.675428,dr,39.7375910012,-84.1765273632,242.5217,0.0029,-0.0093,-0.0291,51.74,-4.79,-2.47,0.0000,0.002500,0.005
1776967086.677220,dr,39.7375910010,-84.1765273631,242.5216,0.0030,-0.0093,-0.0291,51.74,-4.79,-2.47,0.0001,0.002500,0.007
1776967086.679007,dr,39.7375910008,-84.1765273630,242.5215,0.0030,-0.0093,-0.0292,110.66,-4.78,-2.45,0.0001,0.002500,0.009
1776967086.681871,dr,39.7375910006,-84.1765273629,242.5214,0.0030,-0.0093,-0.0292,51.75,-4.79,-2.46,0.0001,0.002500,0.011
1776967086.684087,dr,39.7375910004,-84.1765273628,242.5214,0.0031,-0.0093,-0.0293,51.75,-4.79,-2.46,0.0001,0.002500,0.014
1776967086.686500,dr,39.7375910002,-84.1765273627,242.5213,0.0031,-0.0093,-0.0293,51.75,-4.79,-2.46,0.0002,0.002500,0.016
1776967086.688974,dr,39.7375910000,-84.1765273626,242.5212,0.0032,-0.0093,-0.0294,51.75,-4.79,-2.46,0.0002,0.002500,0.019
1776967086.691504,dr,39.7375909998,-84.1765273625,242.5211,0.0032,-0.0092,-0.0294,51.75,-4.79,-2.46,0.0002,0.002500,0.021
1776967086.693952,dr,39.7375909996,-84.1765273624,242.5211,0.0033,-0.0092,-0.0295,51.76,-4.79,-2.46,0.0002,0.002500,0.024
1776967086.696467,dr,39.7375909994,-84.1765273623,242.5210,0.0033,-0.0092,-0.0295,51.76,-4.79,-2.46,0.0003,0.002500,0.026
1776967086.699007,dr,39.7375909992,-84.1765273622,242.5209,0.0033,-0.0092,-0.0296,51.77,-4.79,-2.46,0.0003,0.002500,0.028
1776967086.701407,dr,39.7375909990,-84.1765273622,242.5208,0.0034,-0.0092,-0.0297,51.77,-4.78,-2.46,0.0003,0.002500,0.030
1776967086.703928,dr,39.7375909988,-84.1765273621,242.5208,0.0034,-0.0091,-0.0297,51.77,-4.79,-2.46,0.0003,0.002500,0.033
1776967086.706321,dr,39.7375909985,-84.1765273620,242.5207,0.0034,-0.0091,-0.0298,51.77,-4.79,-2.46,0.0004,0.002500,0.036
1776967086.708931,dr,39.7375909983,-84.1765273619,242.5206,0.0034,-0.0091,-0.0298,51.78,-4.79,-2.45,0.0004,0.002500,0.039
1776967086.711489,dr,39.7375909981,-84.1765273618,242.5205,0.0035,-0.0091,-0.0299,51.78,-4.80,-2.45,0.0004,0.002500,0.041
1776967086.713950,dr,39.7375909979,-84.1765273617,242.5205,0.0035,-0.0092,-0.0300,51.78,-4.80,-2.46,0.0004,0.002500,0.044
1776967086.716402,dr,39.7375909977,-84.1765273615,242.5204,0.0035,-0.0092,-0.0300,51.79,-4.80,-2.46,0.0005,0.002500,0.046
1776967086.718935,dr,39.7375909975,-84.1765273614,242.5203,0.0035,-0.0092,-0.0301,51.79,-4.80,-2.46,0.0005,0.002500,0.049
1776967086.721333,dr,39.7375909973,-84.1765273613,242.5202,0.0035,-0.0092,-0.0302,51.80,-4.80,-2.46,0.0005,0.002500,0.051
1776967086.723750,dr,39.7375909971,-84.1765273612,242.5202,0.0035,-0.0093,-0.0302,51.80,-4.81,-2.46,0.0005,0.002500,0.053
1776967086.726363,dr,39.7375909969,-84.1765273611,242.5201,0.0035,-0.0093,-0.0303,51.80,-4.81,-2.46,0.0006,0.002500,0.056
1776967086.728886,dr,39.7375909967,-84.1765273610,242.5200,0.0035,-0.0093,-0.0304,51.81,-4.81,-2.46,0.0006,0.002500,0.058
1776967086.731331,dr,39.7375909965,-84.1765273609,242.5199,0.0036,-0.0094,-0.0305,51.81,-4.81,-2.47,0.0006,0.002500,0.061
1776967086.733901,dr,39.7375909963,-84.1765273608,242.5199,0.0036,-0.0094,-0.0305,51.82,-4.82,-2.47,0.0006,0.002500,0.064
1776967086.736285,dr,39.7375909960,-84.1765273607,242.5198,0.0036,-0.0095,-0.0306,51.82,-4.82,-2.47,0.0007,0.002500,0.066
1776967086.738782,dr,39.7375909958,-84.1765273606,242.5197,0.0036,-0.0095,-0.0307,51.83,-4.82,-2.48,0.0007,0.002500,0.068
1776967086.741227,dr,39.7375909956,-84.1765273605,242.5196,0.0036,-0.0096,-0.0307,51.83,-4.83,-2.48,0.0007,0.002500,0.071
1776967086.743844,dr,39.7375909954,-84.1765273604,242.5196,0.0036,-0.0096,-0.0308,51.83,-4.83,-2.48,0.0007,0.002500,0.073
1776967086.746234,dr,39.7375909952,-84.1765273603,242.5195,0.0036,-0.0097,-0.0309,51.84,-4.83,-2.48,0.0008,0.002500,0.076
1776967086.748828,dr,39.7375909950,-84.1765273602,242.5194,0.0035,-0.0097,-0.0310,51.84,-4.83,-2.48,0.0008,0.002500,0.078
1776967086.751171,dr,39.7375909948,-84.1765273601,242.5193,0.0035,-0.0097,-0.0310,51.85,-4.84,-2.48,0.0008,0.002500,0.081
1776967086.753781,dr,39.7375909945,-84.1765273600,242.5193,0.0035,-0.0098,-0.0311,51.85,-4.84,-2.48,0.0008,0.002500,0.083
1776967086.756285,dr,39.7375909943,-84.1765273599,242.5192,0.0035,-0.0098,-0.0312,51.85,-4.84,-2.49,0.0009,0.002500,0.086
1776967086.758664,dr,39.7375909941,-84.1765273598,242.5191,0.0035,-0.0098,-0.0312,51.85,-4.85,-2.49,0.0009,0.002500,0.088
1776967086.761212,dr,39.7375909939,-84.1765273597,242.5190,0.0035,-0.0098,-0.0313,51.86,-4.85,-2.49,0.0009,0.002500,0.091
1776967086.763654,dr,39.7375909937,-84.1765273596,242.5189,0.0036,-0.0098,-0.0314,51.86,-4.85,-2.49,0.0009,0.002500,0.093
1776967086.766250,dr,39.7375909934,-84.1765273595,242.5189,0.0035,-0.0098,-0.0315,51.87,-4.85,-2.49,0.0010,0.002500,0.096
1776967086.768955,dr,39.7375909932,-84.1765273594,242.5188,0.0035,-0.0098,-0.0315,51.87,-4.85,-2.49,0.0010,0.002500,0.099
1776967086.771227,dr,39.7375909930,-84.1765273593,242.5187,0.0035,-0.0097,-0.0316,51.88,-4.85,-2.49,0.0010,0.002500,0.101
1776967086.772854,gps,39.7375910017,-84.1765273567,242.5162,0.0056,0.0000,-0.0553,51.74,-4.85,-2.48,0.0000,0.002500,0.001
1776967086.774762,dr,39.7375910017,-84.1765273565,242.5161,0.0056,0.0001,-0.0553,51.88,-4.85,-2.49,0.0000,0.002500,0.003
1776967086.776428,dr,39.7375910017,-84.1765273563,242.5159,0.0056,0.0001,-0.0554,51.88,-4.84,-2.49,0.0000,0.002500,0.005
1776967086.779196,dr,39.7375910017,-84.1765273562,242.5158,0.0057,0.0002,-0.0555,110.84,-4.83,-2.48,0.0000,0.002500,0.007
1776967086.781293,dr,39.7375910017,-84.1765273560,242.5156,0.0056,0.0003,-0.0556,51.89,-4.83,-2.49,0.0001,0.002500,0.009
1776967086.783700,dr,39.7375910017,-84.1765273558,242.5155,0.0056,0.0004,-0.0556,51.90,-4.83,-2.49,0.0001,0.002500,0.012
1776967086.786142,dr,39.7375910017,-84.1765273557,242.5154,0.0056,0.0004,-0.0557,51.90,-4.83,-2.49,0.0001,0.002500,0.014
1776967086.788689,dr,39.7375910017,-84.1765273555,242.5152,0.0056,0.0005,-0.0558,51.91,-4.83,-2.49,0.0001,0.002500,0.017
1776967086.791201,dr,39.7375910017,-84.1765273554,242.5151,0.0055,0.0006,-0.0559,51.91,-4.82,-2.49,0.0001,0.002500,0.019
1776967086.793630,dr,39.7375910017,-84.1765273552,242.5149,0.0055,0.0007,-0.0560,51.91,-4.82,-2.49,0.0001,0.002500,0.022
1776967086.796220,dr,39.7375910018,-84.1765273550,242.5148,0.0055,0.0008,-0.0560,51.92,-4.81,-2.49,0.0001,0.002500,0.025
1776967086.798630,dr,39.7375910018,-84.1765273549,242.5147,0.0054,0.0009,-0.0561,51.92,-4.80,-2.48,0.0002,0.002500,0.027
1776967086.801200,dr,39.7375910018,-84.1765273547,242.5145,0.0054,0.0010,-0.0562,51.93,-4.79,-2.49,0.0002,0.002500,0.029
1776967086.803512,dr,39.7375910018,-84.1765273546,242.5144,0.0054,0.0011,-0.0563,51.93,-4.78,-2.49,0.0002,0.002500,0.032
1776967086.806086,dr,39.7375910018,-84.1765273544,242.5142,0.0053,0.0012,-0.0563,51.93,-4.78,-2.50,0.0002,0.002500,0.034
1776967086.808545,dr,39.7375910019,-84.1765273542,242.5141,0.0052,0.0012,-0.0564,51.94,-4.77,-2.50,0.0002,0.002500,0.037
1776967086.810996,dr,39.7375910019,-84.1765273541,242.5140,0.0052,0.0013,-0.0565,51.94,-4.76,-2.50,0.0002,0.002500,0.039
1776967086.813521,dr,39.7375910019,-84.1765273539,242.5138,0.0051,0.0015,-0.0566,51.95,-4.75,-2.50,0.0002,0.002500,0.042
1776967086.816038,dr,39.7375910020,-84.1765273538,242.5137,0.0051,0.0015,-0.0567,51.95,-4.74,-2.51,0.0002,0.002500,0.044
1776967086.818580,dr,39.7375910020,-84.1765273536,242.5135,0.0050,0.0016,-0.0567,51.95,-4.74,-2.51,0.0003,0.002500,0.047
1776967086.821078,dr,39.7375910020,-84.1765273535,242.5134,0.0050,0.0017,-0.0568,51.96,-4.73,-2.51,0.0003,0.002500,0.049
1776967086.823535,dr,39.7375910021,-84.1765273534,242.5133,0.0049,0.0018,-0.0568,51.96,-4.72,-2.51,0.0003,0.002500,0.052
1776967086.825945,dr,39.7375910021,-84.1765273532,242.5131,0.0049,0.0019,-0.0569,51.96,-4.72,-2.51,0.0003,0.002500,0.054
1776967086.828489,dr,39.7375910022,-84.1765273531,242.5130,0.0048,0.0020,-0.0569,51.97,-4.71,-2.51,0.0003,0.002500,0.057
1776967086.830964,dr,39.7375910022,-84.1765273529,242.5128,0.0048,0.0021,-0.0570,51.97,-4.70,-2.51,0.0003,0.002500,0.059
1776967086.833421,dr,39.7375910022,-84.1765273528,242.5127,0.0048,0.0021,-0.0570,51.97,-4.69,-2.51,0.0003,0.002500,0.062
1776967086.836046,dr,39.7375910023,-84.1765273527,242.5125,0.0047,0.0022,-0.0571,51.97,-4.68,-2.51,0.0004,0.002500,0.064
1776967086.838544,dr,39.7375910023,-84.1765273525,242.5124,0.0047,0.0023,-0.0571,51.98,-4.67,-2.51,0.0004,0.002500,0.067
1776967086.840959,dr,39.7375910024,-84.1765273524,242.5123,0.0047,0.0023,-0.0572,51.98,-4.67,-2.51,0.0004,0.002500,0.069
1776967086.843453,dr,39.7375910025,-84.1765273522,242.5121,0.0046,0.0024,-0.0573,51.98,-4.66,-2.52,0.0004,0.002500,0.072
1776967086.845956,dr,39.7375910025,-84.1765273521,242.5120,0.0046,0.0024,-0.0573,51.98,-4.66,-2.52,0.0004,0.002500,0.074
1776967086.848483,dr,39.7375910026,-84.1765273520,242.5118,0.0046,0.0024,-0.0574,51.99,-4.65,-2.52,0.0004,0.002500,0.077
1776967086.850983,dr,39.7375910026,-84.1765273518,242.5117,0.0046,0.0024,-0.0574,51.99,-4.65,-2.52,0.0004,0.002500,0.079
1776967086.853442,dr,39.7375910027,-84.1765273517,242.5115,0.0046,0.0024,-0.0575,51.99,-4.64,-2.52,0.0004,0.002500,0.082
1776967086.855855,dr,39.7375910027,-84.1765273516,242.5114,0.0046,0.0025,-0.0575,52.00,-4.64,-2.53,0.0005,0.002500,0.084
1776967086.858338,dr,39.7375910028,-84.1765273514,242.5113,0.0046,0.0025,-0.0575,52.00,-4.63,-2.53,0.0005,0.002500,0.087
1776967086.860973,dr,39.7375910028,-84.1765273513,242.5111,0.0046,0.0025,-0.0576,52.00,-4.63,-2.53,0.0005,0.002500,0.089
1776967086.863414,dr,39.7375910029,-84.1765273512,242.5110,0.0046,0.0024,-0.0577,52.00,-4.63,-2.53,0.0005,0.002500,0.092
1776967086.865959,dr,39.7375910029,-84.1765273510,242.5108,0.0047,0.0024,-0.0577,52.01,-4.63,-2.53,0.0005,0.002500,0.094
1776967086.868382,dr,39.7375910030,-84.1765273509,242.5107,0.0047,0.0024,-0.0577,52.01,-4.63,-2.53,0.0005,0.002500,0.097
