wall_time,gps_utc,gps_utc_type,msg_type,lat,lon,alt,fix_quality,num_sats,hdop,lat_err_m,lon_err_m,alt_err_m,heading_deg,speed_knots,speed_kmh,course_true_deg,rmc_status,raw_nmea,nearest_imu_wall_time,nearest_imu_timestamp_us,nearest_imu_dt_ms
1777581825.920615,74625.900000,tod,GGA,39.7382124950,-84.1763460767,242.1597,4,12,1.40,,,,,,,,,"$GPGGA,204345.90,3944.2927497,N,08410.5807646,W,4,12,1.4,242.1597,M,-33.3702,M,0.9,1564*79",,,
1777581825.921463,,,HDT,,,,,,,,,,267.6860,,,,,"$GPHDT,267.686,T*3E",,,
1777581825.922159,74625.900000,tod,GST,,,,,,,0.0130,0.0060,0.0140,,,,,,"$GPGST,204345.90,0.332,0.014,0.005,15.358,0.013,0.006,0.014*63",,,
1777581826.020667,74626.000000,tod,GGA,39.7382124700,-84.1763460817,242.1593,4,12,1.40,,,,,,,,,"$GPGGA,204346.00,3944.2927482,N,08410.5807649,W,4,12,1.4,242.1593,M,-33.3702,M,1.0,1564*74",,,
1777581826.021171,,,HDT,,,,,,,,,,268.2630,,,,,"$GPHDT,268.263,T*3E",,,
1777581826.021887,74626.000000,tod,GST,,,,,,,0.0140,0.0070,0.0150,,,,,,"$GPGST,204346.00,0.332,0.015,0.006,15.545,0.014,0.007,0.015*66",,,
1777581826.120176,74626.100000,tod,GGA,39.7382124850,-84.1763460850,242.1601,4,12,1.40,,,,,,,,,"$GPGGA,204346.10,3944.2927491,N,08410.5807651,W,4,12,1.4,242.1601,M,-33.3702,M,1.1,1564*77",,,
1777581826.120834,,,HDT,,,,,,,,,,267.8700,,,,,"$GPHDT,267.870,T*39",,,
1777581826.121465,74626.100000,tod,GST,,,,,,,0.0130,0.0060,0.0140,,,,,,"$GPGST,204346.10,0.293,0.014,0.005,15.512,0.013,0.006,0.014*6A",,,
1777581826.220109,74626.200000,tod,GGA,39.7382125267,-84.1763460883,242.1594,4,12,1.40,,,,,,,,,"$GPGGA,204346.20,3944.2927516,N,08410.5807653,W,4,12,1.4,242.1594,M,-33.3702,M,1.2,1564*74",,,
1777581826.220837,,,HDT,,,,,,,,,,267.4980,,,,,"$GPHDT,267.498,T*33",,,
1777581826.221469,74626.200000,tod,GST,,,,,,,0.0160,0.0080,0.0160,,,,,,"$GPGST,204346.20,0.293,0.016,0.007,15.467,0.016,0.008,0.016*63",,,
1777581826.319848,74626.300000,tod,GGA,39.7382125100,-84.1763460850,242.1606,4,12,1.40,,,,,,,,,"$GPGGA,204346.30,3944.2927506,N,08410.5807651,W,4,12,1.4,242.1606,M,-33.3702,M,1.3,1564*7F",,,
1777581826.320704,,,HDT,,,,,,,,,,267.5190,,,,,"$GPHDT,267.519,T*3B",,,
1777581826.321347,74626.300000,tod,GST,,,,,,,0.0140,0.0070,0.0140,,,,,,"$GPGST,204346.30,0.293,0.014,0.006,15.419,0.014,0.007,0.014*67",,,
1777581826.419837,74626.400000,tod,GGA,39.7382125383,-84.1763460917,242.1615,4,12,1.40,,,,,,,,,"$GPGGA,204346.40,3944.2927523,N,08410.5807655,W,4,12,1.4,242.1615,M,-33.3702,M,1.4,1564*7E",,,
1777581826.420615,,,HDT,,,,,,,,,,267.2570,,,,,"$GPHDT,267.257,T*36",,,
1777581826.421240,74626.400000,tod,GST,,,,,,,0.0130,0.0060,0.0140,,,,,,"$GPGST,204346.40,0.293,0.013,0.005,15.468,0.013,0.006,0.014*64",,,
1777581826.519991,74626.500000,tod,GGA,39.7382124983,-84.1763461033,242.1625,4,12,1.40,,,,,,,,,"$GPGGA,204346.50,3944.2927499,N,08410.5807662,W,4,12,1.4,242.1625,M,-33.3702,M,1.5,1564*79",,,
1777581826.520801,,,HDT,,,,,,,,,,267.4090,,,,,"$GPHDT,267.409,T*3B",,,
1777581826.521492,74626.500000,tod,GST,,,,,,,0.0130,0.0060,0.0140,,,,,,"$GPGST,204346.50,0.293,0.014,0.005,15.536,0.013,0.006,0.014*68",,,
1777581826.619781,74626.600000,tod,GGA,39.7382125200,-84.1763461133,242.1619,4,12,1.40,,,,,,,,,"$GPGGA,204346.60,3944.2927512,N,08410.5807668,W,4,12,1.4,242.1619,M,-33.3702,M,0.6,1564*7F",,,
1777581826.620747,,,HDT,,,,,,,,,,267.5510,,,,,"$GPHDT,267.551,T*37",,,
1777581826.621408,74626.600000,tod,GST,,,,,,,0.0130,0.0060,0.0140,,,,,,"$GPGST,204346.60,0.269,0.014,0.005,15.486,0.013,0.006,0.014*64",,,
1777581826.720230,74626.700000,tod,GGA,39.7382125517,-84.1763461367,242.1606,4,12,1.40,,,,,,,,,"$GPGGA,204346.70,3944.2927531,N,08410.5807682,W,4,12,1.4,242.1606,M,-33.3702,M,0.7,1564*74",,,
1777581826.720825,,,HDT,,,,,,,,,,267.4440,,,,,"$GPHDT,267.444,T*32",,,
1777581826.721440,74626.700000,tod,GST,,,,,,,0.0140,0.0070,0.0140,,,,,,"$GPGST,204346.70,0.269,0.014,0.006,15.466,0.014,0.007,0.014*6E",,,
1777581826.820166,74626.800000,tod,GGA,39.7382125333,-84.1763461650,242.1608,4,12,1.40,,,,,,,,,"$GPGGA,204346.80,3944.2927520,N,08410.5807699,W,4,12,1.4,242.1608,M,-33.3702,M,0.8,1564*70",,,
1777581826.820787,,,HDT,,,,,,,,,,267.9500,,,,,"$GPHDT,267.950,T*3A",,,
1777581826.821406,74626.800000,tod,GST,,,,,,,0.0140,0.0070,0.0140,,,,,,"$GPGST,204346.80,0.269,0.014,0.006,15.319,0.014,0.007,0.014*6E",,,
1777581826.920354,74626.900000,tod,GGA,39.7382125167,-84.1763461717,242.1628,4,12,1.40,,,,,,,,,"$GPGGA,204346.90,3944.2927510,N,08410.5807703,W,4,12,1.4,242.1628,M,-33.3702,M,0.9,1564*73",,,
1777581826.920890,,,HDT,,,,,,,,,,268.2240,,,,,"$GPHDT,268.224,T*3D",,,
1777581826.921518,74626.900000,tod,GST,,,,,,,0.0130,0.0060,0.0140,,,,,,"$GPGST,204346.90,0.269,0.014,0.005,15.268,0.013,0.006,0.014*6D",,,
1777581827.020577,74627.000000,tod,GGA,39.7382124983,-84.1763462083,242.1644,4,12,1.40,,,,,,,,,"$GPGGA,204347.00,3944.2927499,N,08410.5807725,W,4,12,1.4,242.1644,M,-33.3702,M,1.0,1564*7D",,,
1777581827.021018,,,HDT,,,,,,,,,,268.6580,,,,,"$GPHDT,268.658,T*32",,,
1777581827.021643,74627.000000,tod,GST,,,,,,,0.0140,0.0070,0.0140,,,,,,"$GPGST,204347.00,0.269,0.014,0.006,15.373,0.014,0.007,0.014*6B",,,
1777581827.120351,74627.100000,tod,GGA,39.7382124600,-84.1763462517,242.1635,4,12,1.40,,,,,,,,,"$GPGGA,204347.10,3944.2927476,N,08410.5807751,W,4,12,1.4,242.1635,M,-33.3702,M,1.1,1564*79",,,
1777581827.120764,,,HDT,,,,,,,,,,269.1460,,,,,"$GPHDT,269.146,T*3B",,,
1777581827.121435,74627.100000,tod,GST,,,,,,,0.0140,0.0070,0.0150,,,,,,"$GPGST,204347.10,0.274,0.015,0.006,15.533,0.014,0.007,0.015*64",,,
1777581827.220285,74627.200000,tod,GGA,39.7382123967,-84.1763463067,242.1631,4,12,1.40,,,,,,,,,"$GPGGA,204347.20,3944.2927438,N,08410.5807784,W,4,12,1.4,242.1631,M,-33.3702,M,1.2,1564*7F",,,
1777581827.220866,,,HDT,,,,,,,,,,270.0680,,,,,"$GPHDT,270.068,T*3E",,,
1777581827.221489,74627.200000,tod,GST,,,,,,,0.0170,0.0080,0.0170,,,,,,"$GPGST,204347.20,0.274,0.017,0.007,15.452,0.017,0.008,0.017*6C",,,
1777581827.320073,74627.300000,tod,GGA,39.7382124100,-84.1763463700,242.1651,4,12,1.40,,,,,,,,,"$GPGGA,204347.30,3944.2927446,N,08410.5807822,W,4,12,1.4,242.1651,M,-33.3702,M,1.3,1564*73",,,
1777581827.320824,,,HDT,,,,,,,,,,270.1140,,,,,"$GPHDT,270.114,T*34",,,
1777581827.321424,74627.300000,tod,GST,,,,,,,0.0160,0.0080,0.0160,,,,,,"$GPGST,204347.30,0.274,0.016,0.007,15.355,0.016,0.008,0.016*6C",,,
1777581827.418955,74627.400000,tod,GGA,39.7382124833,-84.1763464683,242.1689,4,12,1.40,,,,,,,,,"$GPGGA,204347.40,3944.2927490,N,08410.5807881,W,4,12,1.4,242.1689,M,-33.3702,M,1.4,1564*74",,,
1777581827.419432,,,HDT,,,,,,,,,,269.6020,,,,,"$GPHDT,269.602,T*3C",,,
1777581827.420062,74627.400000,tod,GST,,,,,,,0.0120,0.0060,0.0130,,,,,,"$GPGST,204347.40,0.274,0.012,0.005,15.174,0.012,0.006,0.013*63",,,
1777581827.520237,74627.500000,tod,GGA,39.7382126033,-84.1763466167,242.1697,4,12,1.40,,,,,,,,,"$GPGGA,204347.50,3944.2927562,N,08410.5807970,W,4,12,1.4,242.1697,M,-33.3702,M,1.5,1564*78",,,
1777581827.520783,,,HDT,,,,,,,,,,268.9490,,,,,"$GPHDT,268.949,T*3D",,,
1777581827.521386,74627.500000,tod,GST,,,,,,,0.0120,0.0060,0.0130,,,,,,"$GPGST,204347.50,0.274,0.012,0.005,15.128,0.012,0.006,0.013*6B",,,
1777581827.620458,74627.600000,tod,GGA,39.7382127900,-84.1763467717,242.1666,4,11,1.50,,,,,,,,,"$GPGGA,204347.60,3944.2927674,N,08410.5808063,W,4,11,1.5,242.1666,M,-33.3702,M,0.6,1564*75",,,
1777581827.620868,,,HDT,,,,,,,,,,267.6990,,,,,"$GPHDT,267.699,T*30",,,
1777581827.621477,74627.600000,tod,GST,,,,,,,0.0120,0.0060,0.0130,,,,,,"$GPGST,204347.60,0.392,0.013,0.005,15.175,0.012,0.006,0.013*68",,,
1777581827.720474,74627.700000,tod,GGA,39.7382129567,-84.1763469967,242.1608,4,11,1.50,,,,,,,,,"$GPGGA,204347.70,3944.2927774,N,08410.5808198,W,4,11,1.5,242.1608,M,-33.3702,M,0.7,1564*79",,,
1777581827.720946,,,HDT,,,,,,,,,,266.6630,,,,,"$GPHDT,266.663,T*34",,,
1777581827.721639,74627.700000,tod,GST,,,,,,,0.0120,0.0060,0.0140,,,,,,"$GPGST,204347.70,0.392,0.013,0.005,15.277,0.012,0.006,0.014*6F",,,
1777581827.820508,74627.800000,tod,GGA,39.7382130967,-84.1763472217,242.1565,4,11,1.50,,,,,,,,,"$GPGGA,204347.80,3944.2927858,N,08410.5808333,W,4,11,1.5,242.1565,M,-33.3702,M,0.8,1564*73",,,
1777581827.820683,,,HDT,,,,,,,,,,265.7020,,,,,"$GPHDT,265.702,T*31",,,
1777581827.821668,74627.800000,tod,GST,,,,,,,0.0120,0.0060,0.0140,,,,,,"$GPGST,204347.80,0.392,0.013,0.005,15.346,0.012,0.006,0.014*63",,,
1777581827.920431,74627.900000,tod,GGA,39.7382131867,-84.1763474267,242.1563,4,11,1.50,,,,,,,,,"$GPGGA,204347.90,3944.2927912,N,08410.5808456,W,4,11,1.5,242.1563,M,-33.3702,M,0.9,1564*7E",,,
1777581827.921317,,,HDT,,,,,,,,,,265.3370,,,,,"$GPHDT,265.337,T*33",,,
1777581827.922032,74627.900000,tod,GST,,,,,,,0.0120,0.0060,0.0140,,,,,,"$GPGST,204347.90,0.392,0.013,0.005,15.366,0.012,0.006,0.014*60",,,
1777581828.020586,74628.000000,tod,GGA,39.7382132867,-84.1763476567,242.1506,4,11,1.50,,,,,,,,,"$GPGGA,204348.00,3944.2927972,N,08410.5808594,W,4,11,1.5,242.1506,M,-33.3702,M,1.0,1564*7A",,,
1777581828.021326,,,HDT,,,,,,,,,,265.1930,,,,,"$GPHDT,265.193,T*3F",,,
1777581828.022017,74628.000000,tod,GST,,,,,,,0.0120,0.0060,0.0140,,,,,,"$GPGST,204348.00,0.392,0.012,0.005,15.529,0.012,0.006,0.014*6A",,,
1777581828.120337,74628.100000,tod,GGA,39.7382133983,-84.1763479083,242.1545,4,11,1.50,,,,,,,,,"$GPGGA,204348.10,3944.2928039,N,08410.5808745,W,4,11,1.5,242.1545,M,-33.3702,M,1.1,1564*7A",,,
1777581828.121016,,,HDT,,,,,,,,,,265.0980,,,,,"$GPHDT,265.098,T*35",,,
1777581828.121688,74628.100000,tod,GST,,,,,,,0.0120,0.0060,0.0140,,,,,,"$GPGST,204348.10,0.385,0.012,0.005,15.801,0.012,0.006,0.014*6A",,,
1777581828.220258,74628.200000,tod,GGA,39.7382134467,-84.1763480967,242.1525,4,11,1.50,,,,,,,,,"$GPGGA,204348.20,3944.2928068,N,08410.5808858,W,4,11,1.5,242.1525,M,-33.3702,M,1.2,1564*7B",,,
1777581828.220866,,,HDT,,,,,,,,,,265.5680,,,,,"$GPHDT,265.568,T*3F",,,
1777581828.221694,74628.200000,tod,GST,,,,,,,0.0120,0.0060,0.0140,,,,,,"$GPGST,204348.20,0.385,0.012,0.005,16.209,0.012,0.006,0.014*68",,,
1777581828.320145,74628.300000,tod,GGA,39.7382136000,-84.1763483333,242.1580,4,11,1.50,,,,,,,,,"$GPGGA,204348.30,3944.2928160,N,08410.5809000,W,4,11,1.5,242.1580,M,-33.3702,M,1.3,1564*79",,,
1777581828.320863,,,HDT,,,,,,,,,,265.0980,,,,,"$GPHDT,265.098,T*35",,,
1777581828.321538,74628.300000,tod,GST,,,,,,,0.0120,0.0060,0.0140,,,,,,"$GPGST,204348.30,0.385,0.012,0.005,16.444,0.012,0.006,0.014*66",,,
1777581828.419907,74628.400000,tod,GGA,39.7382137333,-84.1763485667,242.1599,4,11,1.50,,,,,,,,,"$GPGGA,204348.40,3944.2928240,N,08410.5809140,W,4,11,1.5,242.1599,M,-33.3702,M,1.4,1564*75",,,
1777581828.420654,,,HDT,,,,,,,,,,264.5330,,,,,"$GPHDT,264.533,T*30",,,
1777581828.421334,74628.400000,tod,GST,,,,,,,0.0120,0.0060,0.0140,,,,,,"$GPGST,204348.40,0.385,0.013,0.005,16.587,0.012,0.006,0.014*6E",,,
1777581828.520277,74628.500000,tod,GGA,39.7382138467,-84.1763488733,242.1548,4,11,1.50,,,,,,,,,"$GPGGA,204348.50,3944.2928308,N,08410.5809324,W,4,11,1.5,242.1548,M,-33.3702,M,1.5,1564*74",,,
1777581828.520870,,,HDT,,,,,,,,,,264.1600,,,,,"$GPHDT,264.160,T*32",,,
1777581828.521525,74628.500000,tod,GST,,,,,,,0.0120,0.0060,0.0140,,,,,,"$GPGST,204348.50,0.385,0.013,0.006,16.585,0.012,0.006,0.014*6E",,,
1777581828.620469,74628.600000,tod,GGA,39.7382140167,-84.1763491883,242.1560,4,11,1.50,,,,,,,,,"$GPGGA,204348.60,3944.2928410,N,08410.5809513,W,4,11,1.5,242.1560,M,-33.3702,M,0.6,1564*73",,,
1777581828.620965,,,HDT,,,,,,,,,,263.4440,,,,,"$GPHDT,263.444,T*36",,,
1777581828.621612,74628.600000,tod,GST,,,,,,,0.0120,0.0060,0.0150,,,,,,"$GPGST,204348.60,0.412,0.013,0.005,16.338,0.012,0.006,0.015*66",,,
1777581828.720619,74628.700000,tod,GGA,39.7382141733,-84.1763494467,242.1692,4,11,1.50,,,,,,,,,"$GPGGA,204348.70,3944.2928504,N,08410.5809668,W,4,11,1.5,242.1692,M,-33.3702,M,0.7,1564*76",,,
1777581828.721179,,,HDT,,,,,,,,,,262.9700,,,,,"$GPHDT,262.970,T*3D",,,
1777581828.721838,74628.700000,tod,GST,,,,,,,0.0120,0.0060,0.0140,,,,,,"$GPGST,204348.70,0.412,0.013,0.005,16.238,0.012,0.006,0.014*67",,,
1777581828.820384,74628.800000,tod,GGA,39.7382143617,-84.1763497167,242.1804,4,11,1.50,,,,,,,,,"$GPGGA,204348.80,3944.2928617,N,08410.5809830,W,4,11,1.5,242.1804,M,-33.3702,M,0.8,1564*75",,,
1777581828.820935,,,HDT,,,,,,,,,,262.5480,,,,,"$GPHDT,262.548,T*3A",,,
1777581828.821574,74628.800000,tod,GST,,,,,,,0.0120,0.0060,0.0140,,,,,,"$GPGST,204348.80,0.412,0.013,0.005,16.122,0.012,0.006,0.014*60",,,
1777581828.920280,74628.900000,tod,GGA,39.7382145550,-84.1763500767,242.1876,4,11,1.50,,,,,,,,,"$GPGGA,204348.90,3944.2928733,N,08410.5810046,W,4,11,1.5,242.1876,M,-33.3702,M,0.9,1564*76",,,
1777581828.920501,,,HDT,,,,,,,,,,262.3140,,,,,"$GPHDT,262.314,T*35",,,
1777581828.921332,74628.900000,tod,GST,,,,,,,0.0120,0.0060,0.0150,,,,,,"$GPGST,204348.90,0.412,0.013,0.005,16.005,0.012,0.006,0.015*64",,,
1777581829.020682,74629.000000,tod,GGA,39.7382146983,-84.1763503533,242.2020,4,11,1.50,,,,,,,,,"$GPGGA,204349.00,3944.2928819,N,08410.5810212,W,4,11,1.5,242.2020,M,-33.3702,M,1.0,1564*7A",,,
1777581829.021105,,,HDT,,,,,,,,,,262.3210,,,,,"$GPHDT,262.321,T*33",,,
1777581829.021719,74629.000000,tod,GST,,,,,,,0.0120,0.0060,0.0150,,,,,,"$GPGST,204349.00,0.412,0.013,0.005,15.931,0.012,0.006,0.015*61",,,
1777581829.120432,74629.100000,tod,GGA,39.7382147900,-84.1763506117,242.2020,4,11,1.50,,,,,,,,,"$GPGGA,204349.10,3944.2928874,N,08410.5810367,W,4,11,1.5,242.2020,M,-33.3702,M,1.1,1564*72",,,
1777581829.120598,,,HDT,,,,,,,,,,262.7250,,,,,"$GPHDT,262.725,T*33",,,
1777581829.121354,74629.100000,tod,GST,,,,,,,0.0120,0.0060,0.0140,,,,,,"$GPGST,204349.10,0.443,0.012,0.005,15.903,0.012,0.006,0.014*65",,,
1777581829.220428,74629.200000,tod,GGA,39.7382148883,-84.1763508717,242.1956,4,11,1.50,,,,,,,,,"$GPGGA,204349.20,3944.2928933,N,08410.5810523,W,4,11,1.5,242.1956,M,-33.3702,M,1.2,1564*7D",,,
1777581829.220875,,,HDT,,,,,,,,,,263.2000,,,,,"$GPHDT,263.200,T*30",,,
1777581829.221486,74629.200000,tod,GST,,,,,,,0.0120,0.0060,0.0140,,,,,,"$GPGST,204349.20,0.443,0.012,0.005,15.869,0.012,0.006,0.014*6B",,,
1777581829.320229,74629.300000,tod,GGA,39.7382150133,-84.1763511567,242.1901,4,11,1.50,,,,,,,,,"$GPGGA,204349.30,3944.2929008,N,08410.5810694,W,4,11,1.5,242.1901,M,-33.3702,M,1.3,1564*70",,,
1777581829.320788,,,HDT,,,,,,,,,,263.7060,,,,,"$GPHDT,263.706,T*33",,,
1777581829.321399,74629.300000,tod,GST,,,,,,,0.0120,0.0060,0.0150,,,,,,"$GPGST,204349.30,0.443,0.013,0.005,15.829,0.012,0.006,0.015*6E",,,
1777581829.419859,74629.400000,tod,GGA,39.7382151067,-84.1763513717,242.1899,4,11,1.50,,,,,,,,,"$GPGGA,204349.40,3944.2929064,N,08410.5810823,W,4,11,1.5,242.1899,M,-33.3702,M,1.4,1564*78",,,
1777581829.420560,,,HDT,,,,,,,,,,264.4040,,,,,"$GPHDT,264.404,T*35",,,
1777581829.421184,74629.400000,tod,GST,,,,,,,0.0120,0.0060,0.0140,,,,,,"$GPGST,204349.40,0.443,0.012,0.005,15.812,0.012,0.006,0.014*61",,,
1777581829.521168,74629.500000,tod,GGA,39.7382151767,-84.1763515650,242.1957,4,11,1.50,,,,,,,,,"$GPGGA,204349.50,3944.2929106,N,08410.5810939,W,4,11,1.5,242.1957,M,-33.3702,M,1.5,1564*74",,,
1777581829.521785,,,HDT,,,,,,,,,,265.5460,,,,,"$GPHDT,265.546,T*33",,,
1777581829.522427,74629.500000,tod,GST,,,,,,,0.0120,0.0060,0.0140,,,,,,"$GPGST,204349.50,0.443,0.012,0.005,15.776,0.012,0.006,0.014*6D",,,
1777581829.620492,74629.600000,tod,GGA,39.7382151850,-84.1763518667,242.1928,4,11,1.50,,,,,,,,,"$GPGGA,204349.60,3944.2929111,N,08410.5811120,W,4,11,1.5,242.1928,M,-33.3702,M,0.6,1564*7A",,,
1777581829.620990,,,HDT,,,,,,,,,,267.3910,,,,,"$GPHDT,267.391,T*3D",,,
1777581829.621607,74629.600000,tod,GST,,,,,,,0.0120,0.0060,0.0140,,,,,,"$GPGST,204349.60,0.318,0.012,0.005,15.722,0.012,0.006,0.014*66",,,
1777581829.719311,74629.700000,tod,GGA,39.7382152567,-84.1763521750,242.1850,4,11,1.50,,,,,,,,,"$GPGGA,204349.70,3944.2929154,N,08410.5811305,W,4,11,1.5,242.1850,M,-33.3702,M,0.7,1564*70",,,
1777581829.720181,,,HDT,,,,,,,,,,269.5330,,,,,"$GPHDT,269.533,T*3D",,,
1777581829.721652,74629.700000,tod,GST,,,,,,,0.0120,0.0060,0.0150,,,,,,"$GPGST,204349.70,0.318,0.013,0.005,15.681,0.012,0.006,0.015*6F",,,
1777581829.821055,74629.800000,tod,GGA,39.7382154483,-84.1763524767,242.1802,4,11,1.50,,,,,,,,,"$GPGGA,204349.80,3944.2929269,N,08410.5811486,W,4,11,1.5,242.1802,M,-33.3702,M,0.8,1564*76",,,
1777581829.821775,,,HDT,,,,,,,,,,269.8480,,,,,"$GPHDT,269.848,T*3C",,,
1777581829.822414,74629.800000,tod,GST,,,,,,,0.0120,0.0060,0.0150,,,,,,"$GPGST,204349.80,0.318,0.013,0.006,15.659,0.012,0.006,0.015*66",,,
1777581829.919938,74629.900000,tod,GGA,39.7382155600,-84.1763527850,242.1704,4,11,1.50,,,,,,,,,"$GPGGA,204349.90,3944.2929336,N,08410.5811671,W,4,11,1.5,242.1704,M,-33.3702,M,0.9,1564*7E",,,
1777581829.920806,,,HDT,,,,,,,,,,271.0640,,,,,"$GPHDT,271.064,T*33",,,
1777581829.921443,74629.900000,tod,GST,,,,,,,0.0120,0.0060,0.0150,,,,,,"$GPGST,204349.90,0.318,0.013,0.006,15.742,0.012,0.006,0.015*6C",,,
1777581830.020861,74630.000000,tod,GGA,39.7382156800,-84.1763531100,242.1547,4,11,1.50,,,,,,,,,"$GPGGA,204350.00,3944.2929408,N,08410.5811866,W,4,11,1.5,242.1547,M,-33.3702,M,1.0,1564*70",,,
1777581830.021395,,,HDT,,,,,,,,,,272.6210,,,,,"$GPHDT,272.621,T*37",,,
1777581830.022019,74630.000000,tod,GST,,,,,,,0.0120,0.0060,0.0150,,,,,,"$GPGST,204350.00,0.318,0.012,0.006,15.847,0.012,0.006,0.015*66",,,
1777581830.120018,74630.100000,tod,GGA,39.7382158850,-84.1763532917,242.1569,4,11,1.50,,,,,,,,,"$GPGGA,204350.10,3944.2929531,N,08410.5811975,W,4,11,1.5,242.1569,M,-33.3702,M,1.1,1564*74",,,
1777581830.120651,,,HDT,,,,,,,,,,275.1230,,,,,"$GPHDT,275.123,T*35",,,
1777581830.121279,74630.100000,tod,GST,,,,,,,0.0120,0.0060,0.0150,,,,,,"$GPGST,204350.10,0.242,0.012,0.006,15.876,0.012,0.006,0.015*6B",,,
1777581830.219021,74630.200000,tod,GGA,39.7382161950,-84.1763534633,242.1723,4,11,1.50,,,,,,,,,"$GPGGA,204350.20,3944.2929717,N,08410.5812078,W,4,11,1.5,242.1723,M,-33.3702,M,1.2,1564*79",,,
1777581830.220072,,,HDT,,,,,,,,,,278.3240,,,,,"$GPHDT,278.324,T*3D",,,
1777581830.221195,74630.200000,tod,GST,,,,,,,0.0120,0.0060,0.0150,,,,,,"$GPGST,204350.20,0.242,0.013,0.006,15.776,0.012,0.006,0.015*66",,,
1777581830.319665,74630.300000,tod,GGA,39.7382165567,-84.1763536750,242.1873,4,10,1.50,,,,,,,,,"$GPGGA,204350.30,3944.2929934,N,08410.5812205,W,4,10,1.5,242.1873,M,-33.3702,M,1.3,1564*75",,,
1777581830.320551,,,HDT,,,,,,,,,,280.8860,,,,,"$GPHDT,280.886,T*39",,,
1777581830.321209,74630.300000,tod,GST,,,,,,,0.0130,0.0070,0.0160,,,,,,"$GPGST,204350.30,0.242,0.014,0.006,15.879,0.013,0.007,0.016*63",,,
1777581830.420488,74630.400000,tod,GGA,39.7382166800,-84.1763540067,242.1709,4,9,1.70,,,,,,,,,"$GPGGA,204350.40,3944.2930008,N,08410.5812404,W,4,09,1.7,242.1709,M,-33.3702,M,1.4,1564*74",,,
1777581830.421172,,,HDT,,,,,,,,,,282.8910,,,,,"$GPHDT,282.891,T*3D",,,
1777581830.421809,74630.400000,tod,GST,,,,,,,0.0130,0.0060,0.0150,,,,,,"$GPGST,204350.40,0.242,0.013,0.006,15.834,0.013,0.006,0.015*68",,,
1777581830.520957,74630.500000,tod,GGA,39.7382169100,-84.1763543067,242.1559,4,9,1.70,,,,,,,,,"$GPGGA,204350.50,3944.2930146,N,08410.5812584,W,4,09,1.7,242.1559,M,-33.3702,M,1.5,1564*71",,,
1777581830.521422,,,HDT,,,,,,,,,,283.4440,,,,,"$GPHDT,283.444,T*38",,,
1777581830.522046,74630.500000,tod,GST,,,,,,,0.0140,0.0070,0.0160,,,,,,"$GPGST,204350.50,0.242,0.015,0.006,15.859,0.014,0.007,0.016*61",,,
1777581830.620882,74630.600000,tod,GGA,39.7382174617,-84.1763545283,242.1811,4,11,1.50,,,,,,,,,"$GPGGA,204350.60,3944.2930477,N,08410.5812717,W,4,11,1.5,242.1811,M,-33.3702,M,0.6,1564*75",,,
1777581830.621509,,,HDT,,,,,,,,,,286.3600,,,,,"$GPHDT,286.360,T*3C",,,
1777581830.622146,74630.600000,tod,GST,,,,,,,0.0140,0.0080,0.0170,,,,,,"$GPGST,204350.60,0.289,0.015,0.007,15.679,0.014,0.008,0.017*66",,,
1777581830.721268,74630.700000,tod,GGA,39.7382176683,-84.1763548317,242.1764,4,11,1.50,,,,,,,,,"$GPGGA,204350.70,3944.2930601,N,08410.5812899,W,4,11,1.5,242.1764,M,-33.3702,M,0.7,1564*72",,,
1777581830.721818,,,HDT,,,,,,,,,,287.3080,,,,,"$GPHDT,287.308,T*33",,,
1777581830.722462,74630.700000,tod,GST,,,,,,,0.0140,0.0070,0.0170,,,,,,"$GPGST,204350.70,0.289,0.014,0.007,15.599,0.014,0.007,0.017*64",,,
1777581830.820412,74630.800000,tod,GGA,39.7382179500,-84.1763551000,242.1731,4,11,1.50,,,,,,,,,"$GPGGA,204350.80,3944.2930770,N,08410.5813060,W,4,11,1.5,242.1731,M,-33.3702,M,0.8,1564*7A",,,
1777581830.821544,,,HDT,,,,,,,,,,289.5100,,,,,"$GPHDT,289.510,T*32",,,
1777581830.823120,74630.800000,tod,GST,,,,,,,0.0150,0.0080,0.0180,,,,,,"$GPGST,204350.80,0.289,0.016,0.007,15.208,0.015,0.008,0.018*67",,,
1777581830.921283,74630.900000,tod,GGA,39.7382183767,-84.1763553583,242.1785,4,11,1.50,,,,,,,,,"$GPGGA,204350.90,3944.2931026,N,08410.5813215,W,4,11,1.5,242.1785,M,-33.3702,M,0.9,1564*70",,,
1777581830.922074,,,HDT,,,,,,,,,,288.1460,,,,,"$GPHDT,288.146,T*34",,,
1777581830.922843,74630.900000,tod,GST,,,,,,,0.0160,0.0080,0.0190,,,,,,"$GPGST,204350.90,0.289,0.017,0.007,15.084,0.016,0.008,0.019*63",,,
1777581831.021545,74631.000000,tod,GGA,39.7382187483,-84.1763555950,242.1709,4,9,1.70,,,,,,,,,"$GPGGA,204351.00,3944.2931249,N,08410.5813357,W,4,09,1.7,242.1709,M,-33.3702,M,1.0,1564*73",,,
1777581831.021725,,,HDT,,,,,,,,,,288.4760,,,,,"$GPHDT,288.476,T*32",,,
1777581831.022995,74631.000000,tod,GST,,,,,,,0.0150,0.0080,0.0180,,,,,,"$GPGST,204351.00,0.289,0.016,0.007,14.987,0.015,0.008,0.018*63",,,
1777581831.120946,74631.100000,tod,GGA,39.7382196567,-84.1763557133,242.1928,4,7,2.10,,,,,,,,,"$GPGGA,204351.10,3944.2931794,N,08410.5813428,W,4,07,2.1,242.1928,M,-33.3702,M,1.1,1564*7F",,,
1777581831.121918,,,HDT,,,,,,,,,,290.1010,,,,,"$GPHDT,290.101,T*3E",,,
1777581831.122705,74631.100000,tod,GST,,,,,,,0.0200,0.0090,0.0260,,,,,,"$GPGST,204351.10,0.360,0.021,0.007,15.574,0.020,0.009,0.026*6B",,,
1777581831.220132,74631.200000,tod,GGA,39.7382198717,-84.1763560167,242.1683,4,7,2.10,,,,,,,,,"$GPGGA,204351.20,3944.2931923,N,08410.5813610,W,4,07,2.1,242.1683,M,-33.3702,M,1.2,1564*7A",,,
1777581831.220931,,,HDT,,,,,,,,,,293.9560,,,,,"$GPHDT,293.956,T*37",,,
1777581831.221672,74631.200000,tod,GST,,,,,,,0.0220,0.0100,0.0300,,,,,,"$GPGST,204351.20,0.360,0.023,0.008,15.282,0.022,0.010,0.030*66",,,
1777581831.320116,74631.300000,tod,GGA,39.7382200467,-84.1763562733,242.1566,4,7,2.10,,,,,,,,,"$GPGGA,204351.30,3944.2932028,N,08410.5813764,W,4,07,2.1,242.1566,M,-33.3702,M,1.3,1564*71",,,
1777581831.321011,,,HDT,,,,,,,,,,296.4200,,,,,"$GPHDT,296.420,T*3E",,,
1777581831.321781,74631.300000,tod,GST,,,,,,,0.0240,0.0100,0.0300,,,,,,"$GPGST,204351.30,0.360,0.025,0.008,14.989,0.024,0.010,0.030*66",,,
1777581831.418781,74631.400000,tod,GGA,39.7382212150,-84.1763560450,242.2027,4,7,2.10,,,,,,,,,"$GPGGA,204351.40,3944.2932729,N,08410.5813627,W,4,07,2.1,242.2027,M,-33.3702,M,1.4,1564*72",,,
1777581831.420024,,,HDT,,,,,,,,,,298.5800,,,,,"$GPHDT,298.580,T*3B",,,
1777581831.421502,74631.400000,tod,GST,,,,,,,0.0290,0.0110,0.0320,,,,,,"$GPGST,204351.40,0.360,0.030,0.008,15.416,0.029,0.011,0.032*61",,,
1777581831.520207,74631.500000,tod,GGA,39.7382211850,-84.1763563917,242.1665,4,7,2.10,,,,,,,,,"$GPGGA,204351.50,3944.2932711,N,08410.5813835,W,4,07,2.1,242.1665,M,-33.3702,M,1.5,1564*77",,,
1777581831.521043,,,HDT,,,,,,,,,,300.2560,,,,,"$GPHDT,300.256,T*37",,,
1777581831.521827,74631.500000,tod,GST,,,,,,,0.0310,0.0120,0.0340,,,,,,"$GPGST,204351.50,0.360,0.032,0.008,15.599,0.031,0.012,0.034*68",,,
1777581831.619860,74631.600000,tod,GGA,39.7382220367,-84.1763564800,242.1894,4,10,1.50,,,,,,,,,"$GPGGA,204351.60,3944.2933222,N,08410.5813888,W,4,10,1.5,242.1894,M,-33.3702,M,0.6,1564*75",,,
1777581831.621058,,,HDT,,,,,,,,,,300.2610,,,,,"$GPHDT,300.261,T*33",,,
1777581831.621850,74631.600000,tod,GST,,,,,,,0.0260,0.0100,0.0290,,,,,,"$GPGST,204351.60,0.412,0.027,0.008,14.482,0.026,0.010,0.029*6F",,,
1777581831.719681,74631.700000,tod,GGA,39.7382224933,-84.1763566917,242.1699,4,10,1.50,,,,,,,,,"$GPGGA,204351.70,3944.2933496,N,08410.5814015,W,4,10,1.5,242.1699,M,-33.3702,M,0.7,1564*74",,,
1777581831.720880,,,HDT,,,,,,,,,,302.4150,,,,,"$GPHDT,302.415,T*34",,,
1777581831.721723,74631.700000,tod,GST,,,,,,,0.0280,0.0110,0.0300,,,,,,"$GPGST,204351.70,0.412,0.029,0.007,15.736,0.028,0.011,0.030*65",,,
1777581831.821041,74631.800000,tod,GGA,39.7382231333,-84.1763567867,242.1666,4,10,1.50,,,,,,,,,"$GPGGA,204351.80,3944.2933880,N,08410.5814072,W,4,10,1.5,242.1666,M,-33.3702,M,0.8,1564*7E",,,
1777581831.821929,,,HDT,,,,,,,,,,302.4110,,,,,"$GPHDT,302.411,T*30",,,
1777581831.822745,74631.800000,tod,GST,,,,,,,0.0300,0.0110,0.0330,,,,,,"$GPGST,204351.80,0.412,0.031,0.007,16.232,0.030,0.011,0.033*6B",,,
1777581831.921844,74631.900000,tod,GGA,39.7382239717,-84.1763567500,242.1837,4,10,1.50,,,,,,,,,"$GPGGA,204351.90,3944.2934383,N,08410.5814050,W,4,10,1.5,242.1837,M,-33.3702,M,0.9,1564*7B",,,
1777581831.923082,,,HDT,,,,,,,,,,301.7740,,,,,"$GPHDT,301.774,T*33",,,
1777581831.924666,74631.900000,tod,GST,,,,,,,0.0310,0.0110,0.0330,,,,,,"$GPGST,204351.90,0.412,0.032,0.007,16.596,0.031,0.011,0.033*61",,,
1777581832.021609,74632.000000,tod,GGA,39.7382245633,-84.1763568950,242.1608,4,10,1.50,,,,,,,,,"$GPGGA,204352.00,3944.2934738,N,08410.5814137,W,4,10,1.5,242.1608,M,-33.3702,M,1.0,1564*7F",,,
1777581832.022445,,,HDT,,,,,,,,,,303.7190,,,,,"$GPHDT,303.719,T*3A",,,
1777581832.023697,74632.000000,tod,GST,,,,,,,0.0310,0.0110,0.0340,,,,,,"$GPGST,204352.00,0.412,0.032,0.007,16.574,0.031,0.011,0.034*60",,,
1777581832.122086,74632.100000,tod,GGA,39.7382249583,-84.1763569200,242.1673,4,9,1.60,,,,,,,,,"$GPGGA,204352.10,3944.2934975,N,08410.5814152,W,4,09,1.6,242.1673,M,-33.3702,M,1.1,1564*7C",,,
1777581832.123301,,,HDT,,,,,,,,,,305.0620,,,,,"$GPHDT,305.062,T*37",,,
1777581832.125022,74632.100000,tod,GST,,,,,,,0.0300,0.0110,0.0330,,,,,,"$GPGST,204352.10,0.380,0.031,0.007,16.339,0.030,0.011,0.033*67",,,
1777581832.219792,74632.200000,tod,GGA,39.7382256817,-84.1763568950,242.1843,4,9,1.60,,,,,,,,,"$GPGGA,204352.20,3944.2935409,N,08410.5814137,W,4,09,1.6,242.1843,M,-33.3702,M,1.2,1564*75",,,
1777581832.221119,,,HDT,,,,,,,,,,306.8740,,,,,"$GPHDT,306.874,T*3B",,,
1777581832.222011,74632.200000,tod,GST,,,,,,,0.0300,0.0110,0.0320,,,,,,"$GPGST,204352.20,0.380,0.031,0.007,16.097,0.030,0.011,0.032*62",,,
1777581832.320865,74632.300000,tod,GGA,39.7382263200,-84.1763569417,242.1704,4,8,1.70,,,,,,,,,"$GPGGA,204352.30,3944.2935792,N,08410.5814165,W,4,08,1.7,242.1704,M,-33.3702,M,1.3,1564*7F",,,
1777581832.321666,,,HDT,,,,,,,,,,307.8090,,,,,"$GPHDT,307.809,T*30",,,
1777581832.322451,74632.300000,tod,GST,,,,,,,0.0300,0.0110,0.0320,,,,,,"$GPGST,204352.30,0.380,0.031,0.007,15.964,0.030,0.011,0.032*65",,,
1777581832.420899,74632.400000,tod,GGA,39.7382272683,-84.1763567467,242.2072,4,8,1.70,,,,,,,,,"$GPGGA,204352.40,3944.2936361,N,08410.5814048,W,4,08,1.7,242.2072,M,-33.3702,M,1.4,1564*7F",,,
1777581832.421611,,,HDT,,,,,,,,,,312.1410,,,,,"$GPHDT,312.141,T*31",,,
1777581832.422461,74632.400000,tod,GST,,,,,,,0.0290,0.0110,0.0320,,,,,,"$GPGST,204352.40,0.380,0.030,0.008,15.666,0.029,0.011,0.032*69",,,
1777581832.521148,74632.500000,tod,GGA,39.7382277433,-84.1763567833,242.1975,4,8,1.70,,,,,,,,,"$GPGGA,204352.50,3944.2936646,N,08410.5814070,W,4,08,1.7,242.1975,M,-33.3702,M,1.5,1564*79",,,
1777581832.521869,,,HDT,,,,,,,,,,313.0070,,,,,"$GPHDT,313.007,T*33",,,
1777581832.522696,74632.500000,tod,GST,,,,,,,0.0280,0.0110,0.0300,,,,,,"$GPGST,204352.50,0.380,0.029,0.008,15.344,0.028,0.011,0.030*66",,,
1777581832.620539,74632.600000,tod,GGA,39.7382282833,-84.1763567967,242.1563,4,8,1.70,,,,,,,,,"$GPGGA,204352.60,3944.2936970,N,08410.5814078,W,4,08,1.7,242.1563,M,-33.3702,M,0.6,1564*71",,,
1777581832.621793,,,HDT,,,,,,,,,,314.4430,,,,,"$GPHDT,314.443,T*30",,,
1777581832.623377,74632.600000,tod,GST,,,,,,,0.0270,0.0100,0.0290,,,,,,"$GPGST,204352.60,0.311,0.027,0.008,15.308,0.027,0.010,0.029*6D",,,
1777581832.720349,74632.700000,tod,GGA,39.7382287917,-84.1763567200,242.1675,4,8,1.70,,,,,,,,,"$GPGGA,204352.70,3944.2937275,N,08410.5814032,W,4,08,1.7,242.1675,M,-33.3702,M,0.7,1564*74",,,
1777581832.720529,,,HDT,,,,,,,,,,316.5060,,,,,"$GPHDT,316.506,T*32",,,
1777581832.721853,74632.700000,tod,GST,,,,,,,0.0250,0.0100,0.0270,,,,,,"$GPGST,204352.70,0.311,0.026,0.008,15.352,0.025,0.010,0.027*6E",,,
1777581832.820368,74632.800000,tod,GGA,39.7382294467,-84.1763566200,242.1538,4,8,1.70,,,,,,,,,"$GPGGA,204352.80,3944.2937668,N,08410.5813972,W,4,08,1.7,242.1538,M,-33.3702,M,0.8,1564*7C",,,
1777581832.820549,,,HDT,,,,,,,,,,318.6740,,,,,"$GPHDT,318.674,T*3A",,,
1777581832.821909,74632.800000,tod,GST,,,,,,,0.0250,0.0100,0.0270,,,,,,"$GPGST,204352.80,0.311,0.026,0.008,15.309,0.025,0.010,0.027*6F",,,
1777581832.920110,74632.900000,tod,GGA,39.7382302250,-84.1763564367,242.1742,4,8,1.70,,,,,,,,,"$GPGGA,204352.90,3944.2938135,N,08410.5813862,W,4,08,1.7,242.1742,M,-33.3702,M,0.9,1564*73",,,
1777581832.921200,,,HDT,,,,,,,,,,319.5520,,,,,"$GPHDT,319.552,T*3C",,,
1777581832.922025,74632.900000,tod,GST,,,,,,,0.0240,0.0100,0.0250,,,,,,"$GPGST,204352.90,0.311,0.025,0.008,15.438,0.024,0.010,0.025*6B",,,
1777581833.020120,74633.000000,tod,GGA,39.7382308167,-84.1763564300,242.1755,4,8,1.70,,,,,,,,,"$GPGGA,204353.00,3944.2938490,N,08410.5813858,W,4,08,1.7,242.1755,M,-33.3702,M,1.0,1564*76",,,
1777581833.020895,,,HDT,,,,,,,,,,321.7230,,,,,"$GPHDT,321.723,T*33",,,
1777581833.022499,74633.000000,tod,GST,,,,,,,0.0230,0.0100,0.0240,,,,,,"$GPGST,204353.00,0.311,0.024,0.008,15.387,0.023,0.010,0.024*67",,,
1777581833.120665,74633.100000,tod,GGA,39.7382316433,-84.1763563150,242.1972,4,9,1.60,,,,,,,,,"$GPGGA,204353.10,3944.2938986,N,08410.5813789,W,4,09,1.6,242.1972,M,-33.3702,M,1.1,1564*74",,,
1777581833.121567,,,HDT,,,,,,,,,,321.5560,,,,,"$GPHDT,321.556,T*33",,,
1777581833.122569,74633.100000,tod,GST,,,,,,,0.0210,0.0100,0.0220,,,,,,"$GPGST,204353.10,0.157,0.021,0.008,15.920,0.021,0.010,0.022*60",,,
1777581833.220759,74633.200000,tod,GGA,39.7382320200,-84.1763562783,242.2006,4,9,1.60,,,,,,,,,"$GPGGA,204353.20,3944.2939212,N,08410.5813767,W,4,09,1.6,242.2006,M,-33.3702,M,1.2,1564*7A",,,
1777581833.221692,,,HDT,,,,,,,,,,323.3630,,,,,"$GPHDT,323.363,T*31",,,
1777581833.222806,74633.200000,tod,GST,,,,,,,0.0210,0.0100,0.0210,,,,,,"$GPGST,204353.20,0.157,0.022,0.008,16.110,0.021,0.010,0.021*6B",,,
1777581833.320514,74633.300000,tod,GGA,39.7382331300,-84.1763560217,242.2256,4,8,1.70,,,,,,,,,"$GPGGA,204353.30,3944.2939878,N,08410.5813613,W,4,08,1.7,242.2256,M,-33.3702,M,1.3,1564*79",,,
1777581833.321540,,,HDT,,,,,,,,,,322.5270,,,,,"$GPHDT,322.527,T*36",,,
1777581833.323205,74633.300000,tod,GST,,,,,,,0.0220,0.0110,0.0230,,,,,,"$GPGST,204353.30,0.157,0.023,0.009,16.690,0.022,0.011,0.023*65",,,
1777581833.420416,74633.400000,tod,GGA,39.7382335617,-84.1763561250,242.2074,4,8,1.70,,,,,,,,,"$GPGGA,204353.40,3944.2940137,N,08410.5813675,W,4,08,1.7,242.2074,M,-33.3702,M,1.4,1564*77",,,
1777581833.421276,,,HDT,,,,,,,,,,325.5990,,,,,"$GPHDT,325.599,T*34",,,
1777581833.422432,74633.400000,tod,GST,,,,,,,0.0220,0.0110,0.0230,,,,,,"$GPGST,204353.40,0.157,0.023,0.009,17.876,0.022,0.011,0.023*65",,,
1777581833.520767,74633.500000,tod,GGA,39.7382342550,-84.1763558783,242.2076,4,8,1.70,,,,,,,,,"$GPGGA,204353.50,3944.2940553,N,08410.5813527,W,4,08,1.7,242.2076,M,-33.3702,M,1.5,1564*77",,,
1777581833.521694,,,HDT,,,,,,,,,,324.3580,,,,,"$GPHDT,324.358,T*3E",,,
1777581833.523214,74633.500000,tod,GST,,,,,,,0.0220,0.0120,0.0240,,,,,,"$GPGST,204353.50,0.157,0.023,0.010,19.987,0.022,0.012,0.024*69",,,
1777581833.620418,74633.600000,tod,GGA,39.7382348600,-84.1763554983,242.2038,4,10,1.50,,,,,,,,,"$GPGGA,204353.60,3944.2940916,N,08410.5813299,W,4,10,1.5,242.2038,M,-33.3702,M,0.6,1564*78",,,
1777581833.621168,,,HDT,,,,,,,,,,322.9590,,,,,"$GPHDT,322.959,T*33",,,
1777581833.621999,74633.600000,tod,GST,,,,,,,0.0200,0.0130,0.0240,,,,,,"$GPGST,204353.60,0.517,0.022,0.010,23.493,0.020,0.013,0.024*69",,,
1777581833.720687,74633.700000,tod,GGA,39.7382358633,-84.1763552033,242.2069,4,10,1.50,,,,,,,,,"$GPGGA,204353.70,3944.2941518,N,08410.5813122,W,4,10,1.5,242.2069,M,-33.3702,M,0.7,1564*7C",,,
1777581833.721586,,,HDT,,,,,,,,,,323.6520,,,,,"$GPHDT,323.652,T*36",,,
1777581833.723109,74633.700000,tod,GST,,,,,,,0.0200,0.0130,0.0250,,,,,,"$GPGST,204353.70,0.517,0.022,0.010,26.124,0.020,0.013,0.025*65",,,
1777581833.821117,74633.800000,tod,GGA,39.7382364800,-84.1763548767,242.2051,4,10,1.50,,,,,,,,,"$GPGGA,204353.80,3944.2941888,N,08410.5812926,W,4,10,1.5,242.2051,M,-33.3702,M,0.8,1564*7E",,,
1777581833.822011,,,HDT,,,,,,,,,,322.0470,,,,,"$GPHDT,322.047,T*35",,,
1777581833.823333,74633.800000,tod,GST,,,,,,,0.0200,0.0140,0.0250,,,,,,"$GPGST,204353.80,0.517,0.022,0.010,28.157,0.020,0.014,0.025*67",,,
1777581833.920342,74633.900000,tod,GGA,39.7382372667,-84.1763546900,242.1847,4,10,1.50,,,,,,,,,"$GPGGA,204353.90,3944.2942360,N,08410.5812814,W,4,10,1.5,242.1847,M,-33.3702,M,0.9,1564*7C",,,
1777581833.920677,,,HDT,,,,,,,,,,321.5510,,,,,"$GPHDT,321.551,T*34",,,
1777581833.922833,74633.900000,tod,GST,,,,,,,0.0200,0.0140,0.0250,,,,,,"$GPGST,204353.90,0.517,0.022,0.011,29.596,0.020,0.014,0.025*6F",,,
1777581834.020606,74634.000000,tod,GGA,39.7382382367,-84.1763542450,242.2064,4,10,1.50,,,,,,,,,"$GPGGA,204354.00,3944.2942942,N,08410.5812547,W,4,10,1.5,242.2064,M,-33.3702,M,1.0,1564*71",,,
1777581834.020784,,,HDT,,,,,,,,,,321.2670,,,,,"$GPHDT,321.267,T*36",,,
1777581834.021811,74634.000000,tod,GST,,,,,,,0.0190,0.0140,0.0250,,,,,,"$GPGST,204354.00,0.517,0.022,0.011,29.782,0.019,0.014,0.025*6C",,,
1777581834.121086,74634.100000,tod,GGA,39.7382388200,-84.1763541317,242.2119,4,9,1.60,,,,,,,,,"$GPGGA,204354.10,3944.2943292,N,08410.5812479,W,4,09,1.6,242.2119,M,-33.3702,M,1.1,1564*7A",,,
1777581834.121659,,,HDT,,,,,,,,,,321.3440,,,,,"$GPHDT,321.344,T*36",,,
1777581834.122499,74634.100000,tod,GST,,,,,,,0.0190,0.0140,0.0250,,,,,,"$GPGST,204354.10,0.194,0.021,0.011,29.247,0.019,0.014,0.025*6D",,,
1777581834.221903,74634.200000,tod,GGA,39.7382396167,-84.1763538300,242.1784,4,9,1.60,,,,,,,,,"$GPGGA,204354.20,3944.2943770,N,08410.5812298,W,4,09,1.6,242.1784,M,-33.3702,M,1.2,1564*7B",,,
1777581834.222628,,,HDT,,,,,,,,,,319.8900,,,,,"$GPHDT,319.890,T*3F",,,
1777581834.223452,74634.200000,tod,GST,,,,,,,0.0190,0.0140,0.0260,,,,,,"$GPGST,204354.20,0.194,0.021,0.011,29.137,0.019,0.014,0.026*69",,,
1777581834.323484,74634.300000,tod,GGA,39.7382404900,-84.1763533767,242.2052,4,9,1.60,,,,,,,,,"$GPGGA,204354.30,3944.2944294,N,08410.5812026,W,4,09,1.6,242.2052,M,-33.3702,M,1.3,1564*7B",,,
1777581834.323883,,,HDT,,,,,,,,,,320.0910,,,,,"$GPHDT,320.091,T*3C",,,
1777581834.325894,74634.300000,tod,GST,,,,,,,0.0190,0.0140,0.0260,,,,,,"$GPGST,204354.30,0.194,0.021,0.011,28.568,0.019,0.014,0.026*67",,,
1777581834.420298,74634.400000,tod,GGA,39.7382412000,-84.1763529167,242.2061,4,9,1.60,,,,,,,,,"$GPGGA,204354.40,3944.2944720,N,08410.5811750,W,4,09,1.6,242.2061,M,-33.3702,M,1.4,1564*74",,,
1777581834.420931,,,HDT,,,,,,,,,,319.7000,,,,,"$GPHDT,319.700,T*39",,,
1777581834.421581,74634.400000,tod,GST,,,,,,,0.0190,0.0140,0.0260,,,,,,"$GPGST,204354.40,0.194,0.021,0.011,28.493,0.019,0.014,0.026*65",,,
1777581834.520880,74634.500000,tod,GGA,39.7382421200,-84.1763525567,242.1899,4,9,1.60,,,,,,,,,"$GPGGA,204354.50,3944.2945272,N,08410.5811534,W,4,09,1.6,242.1899,M,-33.3702,M,1.5,1564*7B",,,
1777581834.521430,,,HDT,,,,,,,,,,318.1690,,,,,"$GPHDT,318.169,T*31",,,
1777581834.522066,74634.500000,tod,GST,,,,,,,0.0190,0.0140,0.0260,,,,,,"$GPGST,204354.50,0.194,0.021,0.011,28.695,0.019,0.014,0.026*60",,,
1777581834.620201,74634.600000,tod,GGA,39.7382430033,-84.1763518383,242.2317,4,10,1.40,,,,,,,,,"$GPGGA,204354.60,3944.2945802,N,08410.5811103,W,4,10,1.4,242.2317,M,-33.3702,M,0.6,1564*73",,,
1777581834.620730,,,HDT,,,,,,,,,,318.9760,,,,,"$GPHDT,318.976,T*37",,,
1777581834.621356,74634.600000,tod,GST,,,,,,,0.0180,0.0140,0.0250,,,,,,"$GPGST,204354.60,0.250,0.021,0.010,31.234,0.018,0.014,0.025*6C",,,
1777581834.720073,74634.700000,tod,GGA,39.7382436733,-84.1763514533,242.2038,4,10,1.40,,,,,,,,,"$GPGGA,204354.70,3944.2946204,N,08410.5810872,W,4,10,1.4,242.2038,M,-33.3702,M,0.7,1564*7C",,,
1777581834.720731,,,HDT,,,,,,,,,,321.1110,,,,,"$GPHDT,321.111,T*34",,,
1777581834.721382,74634.700000,tod,GST,,,,,,,0.0190,0.0160,0.0310,,,,,,"$GPGST,204354.70,0.250,0.021,0.013,33.485,0.019,0.016,0.031*66",,,
1777581834.820262,74634.800000,tod,GGA,39.7382441650,-84.1763509317,242.2393,4,10,1.40,,,,,,,,,"$GPGGA,204354.80,3944.2946499,N,08410.5810559,W,4,10,1.4,242.2393,M,-33.3702,M,0.8,1564*78",,,
1777581834.820434,,,HDT,,,,,,,,,,322.8950,,,,,"$GPHDT,322.895,T*32",,,
1777581834.821576,74634.800000,tod,GST,,,,,,,0.0180,0.0140,0.0270,,,,,,"$GPGST,204354.80,0.250,0.021,0.011,31.665,0.018,0.014,0.027*61",,,
1777581834.920400,74634.900000,tod,GGA,39.7382450250,-84.1763502783,242.2705,4,10,1.40,,,,,,,,,"$GPGGA,204354.90,3944.2947015,N,08410.5810167,W,4,10,1.4,242.2705,M,-33.3702,M,0.9,1564*7B",,,
1777581834.920982,,,HDT,,,,,,,,,,322.7910,,,,,"$GPHDT,322.791,T*39",,,
1777581834.921645,74634.900000,tod,GST,,,,,,,0.0180,0.0140,0.0270,,,,,,"$GPGST,204354.90,0.250,0.021,0.011,31.495,0.018,0.014,0.027*6D",,,
1777581835.020682,74635.000000,tod,GGA,39.7382456450,-84.1763497283,242.2763,4,10,1.40,,,,,,,,,"$GPGGA,204355.00,3944.2947387,N,08410.5809837,W,4,10,1.4,242.2763,M,-33.3702,M,1.0,1564*77",,,
1777581835.021192,,,HDT,,,,,,,,,,325.0230,,,,,"$GPHDT,325.023,T*30",,,
1777581835.021855,74635.000000,tod,GST,,,,,,,0.0180,0.0140,0.0260,,,,,,"$GPGST,204355.00,0.250,0.021,0.011,31.114,0.018,0.014,0.026*68",,,
1777581835.120634,74635.100000,tod,GGA,39.7382463517,-84.1763494833,242.2067,4,9,2.10,,,,,,,,,"$GPGGA,204355.10,3944.2947811,N,08410.5809690,W,4,09,2.1,242.2067,M,-33.3702,M,1.1,1564*7D",,,
1777581835.121200,,,HDT,,,,,,,,,,324.8450,,,,,"$GPHDT,324.845,T*39",,,
1777581835.121876,74635.100000,tod,GST,,,,,,,0.0190,0.0160,0.0320,,,,,,"$GPGST,204355.10,0.245,0.020,0.013,31.734,0.019,0.016,0.032*6C",,,
1777581835.220777,74635.200000,tod,GGA,39.7382471633,-84.1763488850,242.1956,4,9,2.10,,,,,,,,,"$GPGGA,204355.20,3944.2948298,N,08410.5809331,W,4,09,2.1,242.1956,M,-33.3702,M,1.2,1564*7F",,,
1777581835.220945,,,HDT,,,,,,,,,,324.5970,,,,,"$GPHDT,324.597,T*3B",,,
1777581835.221905,74635.200000,tod,GST,,,,,,,0.0190,0.0160,0.0320,,,,,,"$GPGST,204355.20,0.245,0.021,0.013,32.940,0.019,0.016,0.032*60",,,
1777581835.320208,74635.300000,tod,GGA,39.7382478150,-84.1763482067,242.2077,4,9,2.10,,,,,,,,,"$GPGGA,204355.30,3944.2948689,N,08410.5808924,W,4,09,2.1,242.2077,M,-33.3702,M,1.3,1564*7D",,,
1777581835.320820,,,HDT,,,,,,,,,,324.8570,,,,,"$GPHDT,324.857,T*3A",,,
1777581835.321449,74635.300000,tod,GST,,,,,,,0.0200,0.0180,0.0350,,,,,,"$GPGST,204355.30,0.245,0.023,0.014,36.452,0.020,0.018,0.035*6D",,,
1777581835.419715,74635.400000,tod,GGA,39.7382484883,-84.1763476000,242.1951,4,9,2.10,,,,,,,,,"$GPGGA,204355.40,3944.2949093,N,08410.5808560,W,4,09,2.1,242.1951,M,-33.3702,M,1.4,1564*73",,,
1777581835.420432,,,HDT,,,,,,,,,,323.9890,,,,,"$GPHDT,323.989,T*3F",,,
1777581835.421076,74635.400000,tod,GST,,,,,,,0.0220,0.0210,0.0390,,,,,,"$GPGST,204355.40,0.245,0.025,0.016,41.585,0.022,0.021,0.039*61",,,
1777581835.520093,74635.500000,tod,GGA,39.7382491100,-84.1763469533,242.2239,4,9,2.10,,,,,,,,,"$GPGGA,204355.50,3944.2949466,N,08410.5808172,W,4,09,2.1,242.2239,M,-33.3702,M,1.5,1564*7C",,,
1777581835.520626,,,HDT,,,,,,,,,,324.3500,,,,,"$GPHDT,324.350,T*36",,,
1777581835.521253,74635.500000,tod,GST,,,,,,,0.0230,0.0240,0.0450,,,,,,"$GPGST,204355.50,0.245,0.028,0.017,47.770,0.023,0.024,0.045*6D",,,
1777581835.620439,74635.600000,tod,GGA,39.7382496133,-84.1763463667,242.2476,4,10,2.00,,,,,,,,,"$GPGGA,204355.60,3944.2949768,N,08410.5807820,W,4,10,2.0,242.2476,M,-33.3702,M,0.6,1564*75",,,
1777581835.620606,,,HDT,,,,,,,,,,323.9230,,,,,"$GPHDT,323.923,T*3F",,,
1777581835.621508,74635.600000,tod,GST,,,,,,,0.0230,0.0270,0.0530,,,,,,"$GPGST,204355.60,0.304,0.030,0.018,55.197,0.023,0.027,0.053*64",,,
1777581835.720376,74635.700000,tod,GGA,39.7382502267,-84.1763457317,242.2509,4,10,2.00,,,,,,,,,"$GPGGA,204355.70,3944.2950136,N,08410.5807439,W,4,10,2.0,242.2509,M,-33.3702,M,0.7,1564*7D",,,
1777581835.720910,,,HDT,,,,,,,,,,322.9350,,,,,"$GPHDT,322.935,T*39",,,
1777581835.721541,74635.700000,tod,GST,,,,,,,0.0250,0.0300,0.0580,,,,,,"$GPGST,204355.70,0.304,0.034,0.019,55.527,0.025,0.030,0.058*64",,,
1777581835.820327,74635.800000,tod,GGA,39.7382508783,-84.1763451200,242.2425,4,10,2.00,,,,,,,,,"$GPGGA,204355.80,3944.2950527,N,08410.5807072,W,4,10,2.0,242.2425,M,-33.3702,M,0.8,1564*7D",,,
1777581835.820846,,,HDT,,,,,,,,,,323.2700,,,,,"$GPHDT,323.270,T*32",,,
1777581835.821533,74635.800000,tod,GST,,,,,,,0.0250,0.0310,0.0590,,,,,,"$GPGST,204355.80,0.304,0.035,0.018,56.006,0.025,0.031,0.059*6E",,,
1777581835.920531,74635.900000,tod,GGA,39.7382516317,-84.1763445100,242.2312,4,10,2.00,,,,,,,,,"$GPGGA,204355.90,3944.2950979,N,08410.5806706,W,4,10,2.0,242.2312,M,-33.3702,M,0.9,1564*7C",,,
1777581835.921073,,,HDT,,,,,,,,,,322.4670,,,,,"$GPHDT,322.467,T*33",,,
1777581835.921707,74635.900000,tod,GST,,,,,,,0.0250,0.0300,0.0590,,,,,,"$GPGST,204355.90,0.304,0.034,0.019,56.506,0.025,0.030,0.059*6B",,,
1777581836.020835,74636.000000,tod,GGA,39.7382520267,-84.1763438783,242.2391,4,10,2.00,,,,,,,,,"$GPGGA,204356.00,3944.2951216,N,08410.5806327,W,4,10,2.0,242.2391,M,-33.3702,M,1.0,1564*71",,,
1777581836.021004,,,HDT,,,,,,,,,,322.9260,,,,,"$GPHDT,322.926,T*3B",,,
1777581836.021900,74636.000000,tod,GST,,,,,,,0.0230,0.0280,0.0550,,,,,,"$GPGST,204356.00,0.304,0.031,0.019,57.745,0.023,0.028,0.055*63",,,
1777581836.120614,74636.100000,tod,GGA,39.7382529250,-84.1763429517,242.2920,4,10,2.00,,,,,,,,,"$GPGGA,204356.10,3944.2951755,N,08410.5805771,W,4,10,2.0,242.2920,M,-33.3702,M,1.1,1564*77",,,
1777581836.120783,,,HDT,,,,,,,,,,321.8340,,,,,"$GPHDT,321.834,T*3A",,,
1777581836.121668,74636.100000,tod,GST,,,,,,,0.0200,0.0240,0.0490,,,,,,"$GPGST,204356.10,0.318,0.026,0.018,60.439,0.020,0.024,0.049*66",,,
1777581836.220193,74636.200000,tod,GGA,39.7382535533,-84.1763422217,242.2889,4,10,2.00,,,,,,,,,"$GPGGA,204356.20,3944.2952132,N,08410.5805333,W,4,10,2.0,242.2889,M,-33.3702,M,1.2,1564*73",,,
1777581836.220715,,,HDT,,,,,,,,,,322.2080,,,,,"$GPHDT,322.208,T*3C",,,
1777581836.221347,74636.200000,tod,GST,,,,,,,0.0200,0.0230,0.0470,,,,,,"$GPGST,204356.20,0.318,0.025,0.018,61.211,0.020,0.023,0.047*62",,,
1777581836.320421,74636.300000,tod,GGA,39.7382543200,-84.1763415067,242.2779,4,10,2.00,,,,,,,,,"$GPGGA,204356.30,3944.2952592,N,08410.5804904,W,4,10,2.0,242.2779,M,-33.3702,M,1.3,1564*72",,,
1777581836.320943,,,HDT,,,,,,,,,,321.1160,,,,,"$GPHDT,321.116,T*33",,,
1777581836.321602,74636.300000,tod,GST,,,,,,,0.0190,0.0220,0.0450,,,,,,"$GPGST,204356.30,0.318,0.023,0.018,62.442,0.019,0.022,0.045*6F",,,
1777581836.420310,74636.400000,tod,GGA,39.7382550100,-84.1763407533,242.2771,4,10,2.00,,,,,,,,,"$GPGGA,204356.40,3944.2953006,N,08410.5804452,W,4,10,2.0,242.2771,M,-33.3702,M,1.4,1564*7D",,,
1777581836.420842,,,HDT,,,,,,,,,,320.5010,,,,,"$GPHDT,320.501,T*30",,,
1777581836.421476,74636.400000,tod,GST,,,,,,,0.0180,0.0210,0.0430,,,,,,"$GPGST,204356.40,0.318,0.022,0.017,64.187,0.018,0.021,0.043*68",,,
1777581836.520809,74636.500000,tod,GGA,39.7382557267,-84.1763399550,242.2672,4,10,2.00,,,,,,,,,"$GPGGA,204356.50,3944.2953436,N,08410.5803973,W,4,10,2.0,242.2672,M,-33.3702,M,1.5,1564*71",,,
1777581836.521301,,,HDT,,,,,,,,,,319.7830,,,,,"$GPHDT,319.783,T*32",,,
1777581836.521969,74636.500000,tod,GST,,,,,,,0.0180,0.0200,0.0410,,,,,,"$GPGST,204356.50,0.318,0.020,0.017,67.093,0.018,0.020,0.041*6F",,,
1777581836.620805,74636.600000,tod,GGA,39.7382562917,-84.1763391900,242.2878,4,12,1.30,,,,,,,,,"$GPGGA,204356.60,3944.2953775,N,08410.5803514,W,4,12,1.3,242.2878,M,-33.3702,M,0.6,1564*7F",,,
1777581836.621306,,,HDT,,,,,,,,,,319.8410,,,,,"$GPHDT,319.841,T*33",,,
1777581836.621976,74636.600000,tod,GST,,,,,,,0.0160,0.0170,0.0370,,,,,,"$GPGST,204356.60,0.462,0.018,0.016,57.301,0.016,0.017,0.037*6C",,,
1777581836.720746,74636.700000,tod,GGA,39.7382570517,-84.1763383000,242.3132,4,12,1.30,,,,,,,,,"$GPGGA,204356.70,3944.2954231,N,08410.5802980,W,4,12,1.3,242.3132,M,-33.3702,M,0.7,1564*7B",,,
1777581836.720916,,,HDT,,,,,,,,,,319.2850,,,,,"$GPHDT,319.285,T*31",,,
1777581836.721785,74636.700000,tod,GST,,,,,,,0.0160,0.0160,0.0350,,,,,,"$GPGST,204356.70,0.462,0.017,0.015,50.508,0.016,0.016,0.035*6A",,,
1777581836.820677,74636.800000,tod,GGA,39.7382577250,-84.1763375300,242.2985,4,12,1.30,,,,,,,,,"$GPGGA,204356.80,3944.2954635,N,08410.5802518,W,4,12,1.3,242.2985,M,-33.3702,M,0.8,1564*73",,,
1777581836.821231,,,HDT,,,,,,,,,,319.1590,,,,,"$GPHDT,319.159,T*33",,,
1777581836.821856,74636.800000,tod,GST,,,,,,,0.0150,0.0150,0.0340,,,,,,"$GPGST,204356.80,0.462,0.016,0.014,42.438,0.015,0.015,0.034*65",,,
1777581836.920294,74636.900000,tod,GGA,39.7382584650,-84.1763367350,242.2968,4,12,1.30,,,,,,,,,"$GPGGA,204356.90,3944.2955079,N,08410.5802041,W,4,12,1.3,242.2968,M,-33.3702,M,0.9,1564*76",,,
1777581836.920461,,,HDT,,,,,,,,,,318.7380,,,,,"$GPHDT,318.738,T*33",,,
1777581836.921316,74636.900000,tod,GST,,,,,,,0.0150,0.0140,0.0320,,,,,,"$GPGST,204356.90,0.462,0.016,0.014,34.540,0.015,0.014,0.032*6C",,,
1777581837.020804,74637.000000,tod,GGA,39.7382592950,-84.1763360233,242.2830,4,12,1.30,,,,,,,,,"$GPGGA,204357.00,3944.2955577,N,08410.5801614,W,4,12,1.3,242.2830,M,-33.3702,M,1.0,1564*74",,,
1777581837.021301,,,HDT,,,,,,,,,,317.1360,,,,,"$GPHDT,317.136,T*34",,,
1777581837.021924,74637.000000,tod,GST,,,,,,,0.0150,0.0130,0.0290,,,,,,"$GPGST,204357.00,0.462,0.016,0.013,28.667,0.015,0.013,0.029*65",,,
1777581837.120487,74637.100000,tod,GGA,39.7382599667,-84.1763352633,242.2856,4,12,1.30,,,,,,,,,"$GPGGA,204357.10,3944.2955980,N,08410.5801158,W,4,12,1.3,242.2856,M,-33.3702,M,1.1,1564*7F",,,
1777581837.120963,,,HDT,,,,,,,,,,317.3910,,,,,"$GPHDT,317.391,T*3B",,,
1777581837.121582,74637.100000,tod,GST,,,,,,,0.0150,0.0120,0.0270,,,,,,"$GPGST,204357.10,0.299,0.015,0.011,23.021,0.015,0.012,0.027*67",,,
1777581837.220169,74637.200000,tod,GGA,39.7382607050,-84.1763343917,242.2971,4,12,1.30,,,,,,,,,"$GPGGA,204357.20,3944.2956423,N,08410.5800635,W,4,12,1.3,242.2971,M,-33.3702,M,1.2,1564*71",,,
1777581837.220671,,,HDT,,,,,,,,,,317.2280,,,,,"$GPHDT,317.228,T*38",,,
1777581837.221312,74637.200000,tod,GST,,,,,,,0.0150,0.0120,0.0270,,,,,,"$GPGST,204357.20,0.299,0.016,0.011,22.782,0.015,0.012,0.027*68",,,
1777581837.320130,74637.300000,tod,GGA,39.7382614100,-84.1763335217,242.2816,4,12,1.30,,,,,,,,,"$GPGGA,204357.30,3944.2956846,N,08410.5800113,W,4,12,1.3,242.2816,M,-33.3702,M,1.3,1564*7D",,,
1777581837.320740,,,HDT,,,,,,,,,,316.8900,,,,,"$GPHDT,316.890,T*30",,,
1777581837.321362,74637.300000,tod,GST,,,,,,,0.0150,0.0120,0.0270,,,,,,"$GPGST,204357.30,0.299,0.016,0.011,22.053,0.015,0.012,0.027*62",,,
1777581837.420020,74637.400000,tod,GGA,39.7382622583,-84.1763327233,242.2883,4,12,1.30,,,,,,,,,"$GPGGA,204357.40,3944.2957355,N,08410.5799634,W,4,12,1.3,242.2883,M,-33.3702,M,1.4,1564*74",,,
1777581837.420562,,,HDT,,,,,,,,,,315.4240,,,,,"$GPHDT,315.424,T*30",,,
1777581837.421176,74637.400000,tod,GST,,,,,,,0.0150,0.0110,0.0260,,,,,,"$GPGST,204357.40,0.299,0.016,0.011,21.365,0.015,0.011,0.026*62",,,
1777581837.520379,74637.500000,tod,GGA,39.7382629500,-84.1763319217,242.2960,4,12,1.30,,,,,,,,,"$GPGGA,204357.50,3944.2957770,N,08410.5799153,W,4,12,1.3,242.2960,M,-33.3702,M,1.5,1564*7D",,,
1777581837.520782,,,HDT,,,,,,,,,,316.1550,,,,,"$GPHDT,316.155,T*30",,,
1777581837.521384,74637.500000,tod,GST,,,,,,,0.0150,0.0110,0.0250,,,,,,"$GPGST,204357.50,0.299,0.016,0.010,21.126,0.015,0.011,0.025*64",,,
1777581837.620085,74637.600000,tod,GGA,39.7382636433,-84.1763312433,242.2922,4,13,1.10,,,,,,,,,"$GPGGA,204357.60,3944.2958186,N,08410.5798746,W,4,13,1.1,242.2922,M,-33.3702,M,0.6,1564*7A",,,
1777581837.620607,,,HDT,,,,,,,,,,315.6450,,,,,"$GPHDT,315.645,T*35",,,
1777581837.621221,74637.600000,tod,GST,,,,,,,0.0150,0.0100,0.0230,,,,,,"$GPGST,204357.60,0.215,0.015,0.009,19.656,0.015,0.010,0.023*64",,,
1777581837.719651,74637.700000,tod,GGA,39.7382644283,-84.1763304067,242.2979,4,13,1.10,,,,,,,,,"$GPGGA,204357.70,3944.2958657,N,08410.5798244,W,4,13,1.1,242.2979,M,-33.3702,M,0.7,1564*78",,,
1777581837.720549,,,HDT,,,,,,,,,,315.8030,,,,,"$GPHDT,315.803,T*39",,,
1777581837.721228,74637.700000,tod,GST,,,,,,,0.0150,0.0100,0.0230,,,,,,"$GPGST,204357.70,0.215,0.015,0.009,19.083,0.015,0.010,0.023*6B",,,
1777581837.820078,74637.800000,tod,GGA,39.7382651500,-84.1763295283,242.3056,4,13,1.10,,,,,,,,,"$GPGGA,204357.80,3944.2959090,N,08410.5797717,W,4,13,1.1,242.3056,M,-33.3702,M,0.8,1564*7D",,,
1777581837.820743,,,HDT,,,,,,,,,,314.6130,,,,,"$GPHDT,314.613,T*37",,,
1777581837.821393,74637.800000,tod,GST,,,,,,,0.0150,0.0100,0.0230,,,,,,"$GPGST,204357.80,0.215,0.015,0.009,19.011,0.015,0.010,0.023*6F",,,
1777581837.920297,74637.900000,tod,GGA,39.7382659817,-84.1763288217,242.2875,4,13,1.10,,,,,,,,,"$GPGGA,204357.90,3944.2959589,N,08410.5797293,W,4,13,1.1,242.2875,M,-33.3702,M,0.9,1564*71",,,
1777581837.920491,,,HDT,,,,,,,,,,314.4520,,,,,"$GPHDT,314.452,T*30",,,
1777581837.921486,74637.900000,tod,GST,,,,,,,0.0140,0.0100,0.0220,,,,,,"$GPGST,204357.90,0.215,0.015,0.009,19.218,0.014,0.010,0.022*65",,,
1777581838.020736,74638.000000,tod,GGA,39.7382666617,-84.1763281267,242.2782,4,13,1.10,,,,,,,,,"$GPGGA,204358.00,3944.2959997,N,08410.5796876,W,4,13,1.1,242.2782,M,-33.3702,M,1.0,1564*7B",,,
1777581838.021319,,,HDT,,,,,,,,,,313.8410,,,,,"$GPHDT,313.841,T*39",,,
1777581838.021971,74638.000000,tod,GST,,,,,,,0.0140,0.0100,0.0220,,,,,,"$GPGST,204358.00,0.215,0.015,0.009,18.698,0.014,0.010,0.022*6E",,,
1777581838.120418,74638.100000,tod,GGA,39.7382675100,-84.1763270400,242.3101,4,13,1.10,,,,,,,,,"$GPGGA,204358.10,3944.2960506,N,08410.5796224,W,4,13,1.1,242.3101,M,-33.3702,M,1.1,1564*74",,,
1777581838.121010,,,HDT,,,,,,,,,,313.3080,,,,,"$GPHDT,313.308,T*3F",,,
1777581838.121664,74638.100000,tod,GST,,,,,,,0.0140,0.0090,0.0220,,,,,,"$GPGST,204358.10,0.160,0.015,0.009,17.629,0.014,0.009,0.022*63",,,
1777581838.220097,74638.200000,tod,GGA,39.7382682417,-84.1763263133,242.3173,4,13,1.10,,,,,,,,,"$GPGGA,204358.20,3944.2960945,N,08410.5795788,W,4,13,1.1,242.3173,M,-33.3702,M,1.2,1564*7A",,,
1777581838.220813,,,HDT,,,,,,,,,,314.6630,,,,,"$GPHDT,314.663,T*30",,,
1777581838.221455,74638.200000,tod,GST,,,,,,,0.0140,0.0090,0.0220,,,,,,"$GPGST,204358.20,0.160,0.015,0.009,17.468,0.014,0.009,0.022*67",,,
1777581838.320398,74638.300000,tod,GGA,39.7382690317,-84.1763255533,242.3146,4,13,1.10,,,,,,,,,"$GPGGA,204358.30,3944.2961419,N,08410.5795332,W,4,13,1.1,242.3146,M,-33.3702,M,1.3,1564*7C",,,
1777581838.321079,,,HDT,,,,,,,,,,314.1840,,,,,"$GPHDT,314.184,T*3E",,,
1777581838.321735,74638.300000,tod,GST,,,,,,,0.0140,0.0090,0.0220,,,,,,"$GPGST,204358.30,0.160,0.015,0.009,17.519,0.014,0.009,0.022*61",,,
1777581838.419956,74638.400000,tod,GGA,39.7382698017,-84.1763248650,242.3096,4,13,1.10,,,,,,,,,"$GPGGA,204358.40,3944.2961881,N,08410.5794919,W,4,13,1.1,242.3096,M,-33.3702,M,1.4,1564*7F",,,
1777581838.420671,,,HDT,,,,,,,,,,314.8510,,,,,"$GPHDT,314.851,T*3F",,,
1777581838.421311,74638.400000,tod,GST,,,,,,,0.0140,0.0090,0.0210,,,,,,"$GPGST,204358.40,0.160,0.015,0.009,18.161,0.014,0.009,0.021*61",,,
1777581838.520143,74638.500000,tod,GGA,39.7382705133,-84.1763241450,242.3087,4,13,1.10,,,,,,,,,"$GPGGA,204358.50,3944.2962308,N,08410.5794487,W,4,13,1.1,242.3087,M,-33.3702,M,1.5,1564*7C",,,
1777581838.520774,,,HDT,,,,,,,,,,313.7760,,,,,"$GPHDT,313.776,T*32",,,
1777581838.521493,74638.500000,tod,GST,,,,,,,0.0150,0.0100,0.0220,,,,,,"$GPGST,204358.50,0.160,0.015,0.009,18.409,0.015,0.010,0.022*61",,,
1777581838.620592,74638.600000,tod,GGA,39.7382710900,-84.1763236033,242.3227,4,13,1.10,,,,,,,,,"$GPGGA,204358.60,3944.2962654,N,08410.5794162,W,4,13,1.1,242.3227,M,-33.3702,M,0.6,1564*77",,,
1777581838.621312,,,HDT,,,,,,,,,,315.3420,,,,,"$GPHDT,315.342,T*37",,,
1777581838.621950,74638.600000,tod,GST,,,,,,,0.0150,0.0090,0.0220,,,,,,"$GPGST,204358.60,0.266,0.015,0.009,18.149,0.015,0.009,0.022*6E",,,
1777581838.719981,74638.700000,tod,GGA,39.7382718500,-84.1763229383,242.3271,4,13,1.10,,,,,,,,,"$GPGGA,204358.70,3944.2963110,N,08410.5793763,W,4,13,1.1,242.3271,M,-33.3702,M,0.7,1564*72",,,
1777581838.721030,,,HDT,,,,,,,,,,315.4670,,,,,"$GPHDT,315.467,T*37",,,
1777581838.721679,74638.700000,tod,GST,,,,,,,0.0150,0.0090,0.0210,,,,,,"$GPGST,204358.70,0.266,0.015,0.009,18.066,0.015,0.009,0.021*60",,,
1777581838.820483,74638.800000,tod,GGA,39.7382726433,-84.1763221067,242.3189,4,13,1.10,,,,,,,,,"$GPGGA,204358.80,3944.2963586,N,08410.5793264,W,4,13,1.1,242.3189,M,-33.3702,M,0.8,1564*7F",,,
1777581838.820656,,,HDT,,,,,,,,,,315.5950,,,,,"$GPHDT,315.595,T*3B",,,
1777581838.821636,74638.800000,tod,GST,,,,,,,0.0150,0.0100,0.0220,,,,,,"$GPGST,204358.80,0.266,0.015,0.009,17.492,0.015,0.010,0.022*64",,,
1777581838.920514,74638.900000,tod,GGA,39.7382734317,-84.1763213650,242.3071,4,13,1.10,,,,,,,,,"$GPGGA,204358.90,3944.2964059,N,08410.5792819,W,4,13,1.1,242.3071,M,-33.3702,M,0.9,1564*78",,,
1777581838.920687,,,HDT,,,,,,,,,,315.5000,,,,,"$GPHDT,315.500,T*37",,,
1777581838.921724,74638.900000,tod,GST,,,,,,,0.0150,0.0100,0.0220,,,,,,"$GPGST,204358.90,0.266,0.015,0.009,16.594,0.015,0.010,0.022*63",,,
1777581839.020826,74639.000000,tod,GGA,39.7382740283,-84.1763206050,242.3150,4,13,1.10,,,,,,,,,"$GPGGA,204359.00,3944.2964417,N,08410.5792363,W,4,13,1.1,242.3150,M,-33.3702,M,1.0,1564*72",,,
1777581839.021588,,,HDT,,,,,,,,,,315.6850,,,,,"$GPHDT,315.685,T*39",,,
1777581839.022306,74639.000000,tod,GST,,,,,,,0.0150,0.0090,0.0220,,,,,,"$GPGST,204359.00,0.266,0.015,0.009,15.894,0.015,0.009,0.022*6D",,,
1777581839.120476,74639.100000,tod,GGA,39.7382749733,-84.1763198400,242.2983,4,13,1.10,,,,,,,,,"$GPGGA,204359.10,3944.2964984,N,08410.5791904,W,4,13,1.1,242.2983,M,-33.3702,M,1.1,1564*7A",,,
1777581839.121134,,,HDT,,,,,,,,,,315.6480,,,,,"$GPHDT,315.648,T*38",,,
1777581839.121841,74639.100000,tod,GST,,,,,,,0.0150,0.0090,0.0220,,,,,,"$GPGST,204359.10,0.205,0.015,0.009,15.413,0.015,0.009,0.022*6A",,,
1777581839.220234,74639.200000,tod,GGA,39.7382756600,-84.1763190800,242.3039,4,13,1.10,,,,,,,,,"$GPGGA,204359.20,3944.2965396,N,08410.5791448,W,4,13,1.1,242.3039,M,-33.3702,M,1.2,1564*7E",,,
1777581839.220936,,,HDT,,,,,,,,,,317.2650,,,,,"$GPHDT,317.265,T*31",,,
1777581839.221611,74639.200000,tod,GST,,,,,,,0.0150,0.0100,0.0230,,,,,,"$GPGST,204359.20,0.205,0.015,0.009,15.463,0.015,0.010,0.023*67",,,
1777581839.319840,74639.300000,tod,GGA,39.7382763467,-84.1763183550,242.2991,4,13,1.10,,,,,,,,,"$GPGGA,204359.30,3944.2965808,N,08410.5791013,W,4,13,1.1,242.2991,M,-33.3702,M,1.3,1564*72",,,
1777581839.320789,,,HDT,,,,,,,,,,317.4250,,,,,"$GPHDT,317.425,T*33",,,
1777581839.321479,74639.300000,tod,GST,,,,,,,0.0150,0.0100,0.0230,,,,,,"$GPGST,204359.30,0.205,0.015,0.009,15.756,0.015,0.010,0.023*63",,,
1777581839.420098,74639.400000,tod,GGA,39.7382770383,-84.1763176183,242.2973,4,13,1.10,,,,,,,,,"$GPGGA,204359.40,3944.2966223,N,08410.5790571,W,4,13,1.1,242.2973,M,-33.3702,M,1.4,1564*7E",,,
1777581839.421149,,,HDT,,,,,,,,,,318.1100,,,,,"$GPHDT,318.110,T*3F",,,
1777581839.421851,74639.400000,tod,GST,,,,,,,0.0150,0.0100,0.0230,,,,,,"$GPGST,204359.40,0.205,0.015,0.009,15.660,0.015,0.010,0.023*60",,,
1777581839.520712,74639.500000,tod,GGA,39.7382777283,-84.1763168717,242.3099,4,13,1.10,,,,,,,,,"$GPGGA,204359.50,3944.2966637,N,08410.5790123,W,4,13,1.1,242.3099,M,-33.3702,M,1.5,1564*70",,,
1777581839.521493,,,HDT,,,,,,,,,,318.9350,,,,,"$GPHDT,318.935,T*30",,,
1777581839.522186,74639.500000,tod,GST,,,,,,,0.0150,0.0100,0.0230,,,,,,"$GPGST,204359.50,0.205,0.015,0.009,15.615,0.015,0.010,0.023*63",,,
1777581839.619908,74639.600000,tod,GGA,39.7382784567,-84.1763160867,242.3117,4,13,1.10,,,,,,,,,"$GPGGA,204359.60,3944.2967074,N,08410.5789652,W,4,13,1.1,242.3117,M,-33.3702,M,0.6,1564*7F",,,
1777581839.620847,,,HDT,,,,,,,,,,319.1810,,,,,"$GPHDT,319.181,T*36",,,
1777581839.621692,74639.600000,tod,GST,,,,,,,0.0140,0.0100,0.0230,,,,,,"$GPGST,204359.60,0.275,0.015,0.009,15.060,0.014,0.010,0.023*62",,,
1777581839.719863,74639.700000,tod,GGA,39.7382791167,-84.1763152767,242.3123,4,13,1.10,,,,,,,,,"$GPGGA,204359.70,3944.2967470,N,08410.5789166,W,4,13,1.1,242.3123,M,-33.3702,M,0.7,1564*78",,,
1777581839.720884,,,HDT,,,,,,,,,,319.6680,,,,,"$GPHDT,319.668,T*36",,,
1777581839.721773,74639.700000,tod,GST,,,,,,,0.0150,0.0100,0.0230,,,,,,"$GPGST,204359.70,0.275,0.015,0.009,13.966,0.015,0.010,0.023*6B",,,
1777581839.820709,74639.800000,tod,GGA,39.7382798950,-84.1763144350,242.3109,4,13,1.10,,,,,,,,,"$GPGGA,204359.80,3944.2967937,N,08410.5788661,W,4,13,1.1,242.3109,M,-33.3702,M,0.8,1564*7F",,,
1777581839.821441,,,HDT,,,,,,,,,,319.7910,,,,,"$GPHDT,319.791,T*31",,,
1777581839.822143,74639.800000,tod,GST,,,,,,,0.0140,0.0100,0.0230,,,,,,"$GPGST,204359.80,0.275,0.015,0.010,13.302,0.014,0.010,0.023*65",,,
1777581839.920523,74639.900000,tod,GGA,39.7382805767,-84.1763136817,242.3225,4,13,1.10,,,,,,,,,"$GPGGA,204359.90,3944.2968346,N,08410.5788209,W,4,13,1.1,242.3225,M,-33.3702,M,0.9,1564*7B",,,
1777581839.921261,,,HDT,,,,,,,,,,319.3930,,,,,"$GPHDT,319.393,T*37",,,
1777581839.921941,74639.900000,tod,GST,,,,,,,0.0140,0.0090,0.0220,,,,,,"$GPGST,204359.90,0.275,0.015,0.009,14.291,0.014,0.009,0.022*69",,,
1777581840.020946,74640.000000,tod,GGA,39.7382811900,-84.1763130083,242.3158,4,13,1.10,,,,,,,,,"$GPGGA,204400.00,3944.2968714,N,08410.5787805,W,4,13,1.1,242.3158,M,-33.3702,M,1.0,1564*72",,,
1777581840.021772,,,HDT,,,,,,,,,,320.8930,,,,,"$GPHDT,320.893,T*36",,,
1777581840.022914,74640.000000,tod,GST,,,,,,,0.0140,0.0100,0.0220,,,,,,"$GPGST,204400.00,0.275,0.015,0.009,14.604,0.014,0.010,0.022*6B",,,
1777581840.120931,74640.100000,tod,GGA,39.7382819817,-84.1763122883,242.3057,4,13,1.10,,,,,,,,,"$GPGGA,204400.10,3944.2969189,N,08410.5787373,W,4,13,1.1,242.3057,M,-33.3702,M,1.1,1564*75",,,
1777581840.121110,,,HDT,,,,,,,,,,319.9880,,,,,"$GPHDT,319.988,T*37",,,
1777581840.122211,74640.100000,tod,GST,,,,,,,0.0140,0.0100,0.0230,,,,,,"$GPGST,204400.10,0.209,0.015,0.010,14.420,0.014,0.010,0.023*6C",,,
1777581840.220581,74640.200000,tod,GGA,39.7382826700,-84.1763114133,242.3110,4,13,1.10,,,,,,,,,"$GPGGA,204400.20,3944.2969602,N,08410.5786848,W,4,13,1.1,242.3110,M,-33.3702,M,1.2,1564*71",,,
1777581840.221344,,,HDT,,,,,,,,,,320.0730,,,,,"$GPHDT,320.073,T*30",,,
1777581840.222023,74640.200000,tod,GST,,,,,,,0.0140,0.0100,0.0230,,,,,,"$GPGST,204400.20,0.209,0.015,0.010,14.501,0.014,0.010,0.023*6D",,,
1777581840.320350,74640.300000,tod,GGA,39.7382834533,-84.1763105333,242.3104,4,13,1.10,,,,,,,,,"$GPGGA,204400.30,3944.2970072,N,08410.5786320,W,4,13,1.1,242.3104,M,-33.3702,M,1.3,1564*78",,,
1777581840.321135,,,HDT,,,,,,,,,,320.4060,,,,,"$GPHDT,320.406,T*36",,,
1777581840.321872,74640.300000,tod,GST,,,,,,,0.0140,0.0100,0.0230,,,,,,"$GPGST,204400.30,0.209,0.015,0.010,14.446,0.014,0.010,0.023*6E",,,
1777581840.419930,74640.400000,tod,GGA,39.7382841700,-84.1763096483,242.3190,4,12,1.30,,,,,,,,,"$GPGGA,204400.40,3944.2970502,N,08410.5785789,W,4,12,1.3,242.3190,M,-33.3702,M,1.4,1564*70",,,
1777581840.420989,,,HDT,,,,,,,,,,320.1630,,,,,"$GPHDT,320.163,T*30",,,
1777581840.421700,74640.400000,tod,GST,,,,,,,0.0140,0.0100,0.0240,,,,,,"$GPGST,204400.40,0.209,0.015,0.010,13.619,0.014,0.010,0.024*61",,,
1777581840.520259,74640.500000,tod,GGA,39.7382848633,-84.1763088317,242.3195,4,12,1.30,,,,,,,,,"$GPGGA,204400.50,3944.2970918,N,08410.5785299,W,4,12,1.3,242.3195,M,-33.3702,M,1.5,1564*76",,,
1777581840.521292,,,HDT,,,,,,,,,,320.1260,,,,,"$GPHDT,320.126,T*31",,,
1777581840.521991,74640.500000,tod,GST,,,,,,,0.0140,0.0100,0.0240,,,,,,"$GPGST,204400.50,0.209,0.014,0.010,13.803,0.014,0.010,0.024*64",,,
1777581840.619725,74640.600000,tod,GGA,39.7382856900,-84.1763081417,242.3020,4,12,1.30,,,,,,,,,"$GPGGA,204400.60,3944.2971414,N,08410.5784885,W,4,12,1.3,242.3020,M,-33.3702,M,0.6,1564*7E",,,
1777581840.620726,,,HDT,,,,,,,,,,319.6860,,,,,"$GPHDT,319.686,T*36",,,
