time,source,lat,lon,alt,ve,vn,vu,yaw,pitch,roll,drift_m,imu_dt,gps_age
1776964729.042578,gps,39.7375907300,-84.1764362183,243.5521,0.0000,0.0000,0.0000,333.28,-2.49,-2.15,0.0000,0.000000,0.001
1776964729.059153,gps,39.7375907500,-84.1764362133,243.5536,0.0258,0.1341,0.0905,333.40,-2.47,-2.19,0.0000,0.002500,0.001
1776964729.061542,dr,39.7375907530,-84.1764362126,243.5538,0.0257,0.1342,0.0906,333.39,-2.47,-2.19,0.0003,0.002500,0.004
1776964729.072989,gps,39.7375907667,-84.1764361817,243.5495,0.1959,0.1339,-0.2963,333.23,-2.47,-2.22,0.0000,0.002500,0.000
1776964729.074312,dr,39.7375907697,-84.1764361759,243.5488,0.1958,0.1340,-0.2963,333.37,-2.47,-2.23,0.0006,0.002500,0.002
1776964729.087550,gps,39.7375907883,-84.1764361700,243.5486,0.0686,0.1654,-0.0618,333.19,-2.45,-2.28,0.0000,0.002500,0.001
1776964729.089333,dr,39.7375907921,-84.1764361680,243.5484,0.0684,0.1654,-0.0617,333.34,-2.44,-2.29,0.0004,0.002500,0.002
1776964729.100840,gps,39.7375908000,-84.1764361333,243.5459,0.2362,0.0976,-0.2032,333.17,-2.43,-2.33,0.0000,0.002500,0.000
1776964729.101693,dr,39.7375908022,-84.1764361264,243.5454,0.2360,0.0977,-0.2031,333.31,-2.43,-2.33,0.0006,0.002500,0.002
1776964729.115116,gps,39.7375908217,-84.1764361100,243.5439,0.1399,0.1687,-0.1401,333.14,-2.42,-2.39,0.0000,0.002500,0.001
1776964729.116710,dr,39.7375908255,-84.1764361059,243.5435,0.1398,0.1688,-0.1400,333.28,-2.41,-2.39,0.0005,0.002500,0.002
1776964729.128144,gps,39.7375908317,-84.1764361000,243.5399,0.0657,0.0853,-0.3070,333.11,-2.39,-2.44,0.0000,0.002500,0.001
1776964729.129661,dr,39.7375908336,-84.1764360981,243.5391,0.0656,0.0854,-0.3070,333.26,-2.39,-2.45,0.0003,0.002500,0.002
1776964729.143066,gps,39.7375908533,-84.1764360983,243.5403,0.0096,0.1614,0.0268,333.08,-2.37,-2.50,0.0000,0.002500,0.001
1776964729.144631,dr,39.7375908570,-84.1764360981,243.5404,0.0094,0.1615,0.0269,333.23,-2.36,-2.51,0.0004,0.002500,0.003
1776964729.155980,gps,39.7375908800,-84.1764360833,243.5383,0.0994,0.2295,-0.1549,333.06,-2.34,-2.56,0.0000,0.002500,0.000
1776964729.156875,dr,39.7375908852,-84.1764360804,243.5379,0.0993,0.2296,-0.1548,333.20,-2.33,-2.57,0.0006,0.002500,0.002
1776964729.170804,gps,39.7375908917,-84.1764360650,243.5349,0.1059,0.0875,-0.2294,333.03,-2.30,-2.62,0.0000,0.002500,0.000
1776964729.172934,dr,39.7375908936,-84.1764360619,243.5343,0.1057,0.0875,-0.2293,333.17,-2.30,-2.63,0.0003,0.002500,0.003
1776964729.184336,gps,39.7375909017,-84.1764360600,243.5350,0.0316,0.0821,0.0074,333.00,-2.27,-2.67,0.0000,0.002500,0.001
1776964729.186757,dr,39.7375909035,-84.1764360591,243.5350,0.0315,0.0822,0.0075,333.14,-2.27,-2.67,0.0002,0.002500,0.003
1776964729.198307,gps,39.7375909133,-84.1764360650,243.5346,-0.0306,0.0928,-0.0286,332.98,-2.27,-2.70,0.0000,0.002500,0.001
1776964729.199270,dr,39.7375909154,-84.1764360659,243.5345,-0.0307,0.0929,-0.0286,333.12,-2.26,-2.71,0.0002,0.002500,0.002
1776964729.213102,gps,39.7375909250,-84.1764360600,243.5351,0.0289,0.0876,0.0338,332.95,-2.24,-2.74,0.0000,0.002500,0.000
1776964729.214076,dr,39.7375909270,-84.1764360592,243.5352,0.0288,0.0877,0.0339,333.09,-2.23,-2.74,0.0002,0.002500,0.002
1776964729.227633,gps,39.7375909400,-84.1764360517,243.5334,0.0491,0.1147,-0.1170,332.92,-2.20,-2.78,0.0000,0.002500,0.000
1776964729.229711,dr,39.7375909426,-84.1764360502,243.5331,0.0490,0.1148,-0.1169,333.06,-2.19,-2.78,0.0003,0.002500,0.003
1776964729.240539,gps,39.7375909533,-84.1764360533,243.5341,-0.0111,0.1148,0.0542,332.89,-2.15,-2.81,0.0000,0.002500,0.001
1776964729.242657,dr,39.7375909559,-84.1764360537,243.5342,-0.0111,0.1149,0.0543,333.03,-2.15,-2.82,0.0003,0.002500,0.003
1776964729.255271,gps,39.7375887167,-84.1764695633,244.9086,-194.7101,-16.8722,93.2980,332.86,-2.10,-2.84,0.0000,0.002500,0.001
1776964729.256374,dr,39.7375883371,-84.1764752498,245.1418,-194.7102,-16.8721,93.2981,333.00,-2.09,-2.85,0.4886,0.002500,0.002
1776964729.270489,gps,39.7375887283,-84.1764695967,244.9064,-0.1875,0.0852,-0.1446,332.82,-2.06,-2.88,0.0000,0.002500,0.001
1776964729.272095,dr,39.7375887303,-84.1764696021,244.9060,-0.1876,0.0853,-0.1445,332.97,-2.05,-2.89,0.0005,0.002500,0.003
1776964729.288538,gps,39.7375887400,-84.1764696400,244.9134,-0.2055,0.0718,0.3878,332.78,-2.02,-2.91,0.0000,0.002500,0.000
1776964729.289477,dr,39.7375887416,-84.1764696460,244.9144,-0.2056,0.0720,0.3879,332.93,-2.01,-2.92,0.0005,0.002500,0.002
1776964729.305919,gps,39.7375887433,-84.1764696517,244.9063,-0.0575,0.0213,-0.4085,332.74,-1.98,-2.92,0.0000,0.002500,0.000
1776964729.306640,dr,39.7375887438,-84.1764696533,244.9053,-0.0575,0.0214,-0.4084,332.88,-1.97,-2.93,0.0002,0.002500,0.001
1776964729.331095,dr,39.7375887488,-84.1764696702,244.8951,-0.0581,0.0225,-0.4072,332.81,-1.90,-2.93,0.0017,0.002500,0.026
1776964729.355971,dr,39.7375887540,-84.1764696873,244.8849,-0.0586,0.0237,-0.4059,332.73,-1.83,-2.92,0.0033,0.002500,0.051
1776964729.381046,dr,39.7375887594,-84.1764697044,244.8748,-0.0590,0.0249,-0.4042,332.64,-1.77,-2.91,0.0049,0.002500,0.076
1776964729.395011,gps,39.7375887483,-84.1764696833,244.9121,-0.0304,0.0062,0.0651,332.43,-1.73,-2.89,0.0000,0.002500,0.001
1776964729.396169,dr,39.7375887485,-84.1764696842,244.9123,-0.0305,0.0063,0.0653,332.58,-1.73,-2.90,0.0001,0.002500,0.002
1776964729.420561,dr,39.7375887500,-84.1764696932,244.9139,-0.0308,0.0075,0.0674,332.45,-1.65,-2.87,0.0009,0.002500,0.026
1776964729.445621,dr,39.7375887518,-84.1764697022,244.9156,-0.0310,0.0086,0.0696,332.32,-1.58,-2.85,0.0017,0.002500,0.051
1776964729.470596,dr,39.7375887539,-84.1764697113,244.9174,-0.0313,0.0096,0.0721,332.18,-1.51,-2.83,0.0025,0.002500,0.077
1776964729.496019,dr,39.7375887562,-84.1764697205,244.9192,-0.0315,0.0106,0.0748,332.02,-1.44,-2.81,0.0033,0.002500,0.102
1776964729.498712,gps,39.7375887567,-84.1764697283,244.9130,-0.0371,0.0089,0.0087,331.86,-1.43,-2.81,0.0000,0.002500,0.001
1776964729.499926,dr,39.7375887569,-84.1764697294,244.9130,-0.0372,0.0090,0.0090,332.00,-1.43,-2.81,0.0001,0.002500,0.008
1776964729.523098,dr,39.7375887590,-84.1764697403,244.9133,-0.0375,0.0099,0.0119,331.83,-1.36,-2.79,0.0011,0.002500,0.026
1776964729.547569,dr,39.7375887613,-84.1764697513,244.9136,-0.0379,0.0107,0.0151,331.64,-1.29,-2.79,0.0020,0.002500,0.050
1776964729.572869,dr,39.7375887638,-84.1764697625,244.9140,-0.0384,0.0113,0.0185,331.45,-1.23,-2.79,0.0030,0.002500,0.075
1776964729.595635,gps,39.7375870250,-84.1764683150,244.8330,1.2483,-1.9855,-0.8254,331.08,-1.18,-2.80,0.0000,0.002500,0.001
1776964729.597884,dr,39.7375869803,-84.1764682785,244.8309,1.2482,-1.9855,-0.8250,331.23,-1.18,-2.80,0.0059,0.002500,0.003
1776964729.622587,dr,39.7375865337,-84.1764679141,244.8104,1.2477,-1.9852,-0.8206,330.98,-1.14,-2.81,0.0645,0.002500,0.028
1776964729.647272,dr,39.7375860872,-84.1764675498,244.7899,1.2472,-1.9849,-0.8157,330.70,-1.09,-2.82,0.1231,0.002500,0.052
1776964729.672370,dr,39.7375856407,-84.1764671856,244.7696,1.2470,-1.9849,-0.8102,330.39,-1.05,-2.83,0.1817,0.002500,0.078
1776964729.695818,gps,39.7375869433,-84.1764684917,244.8372,-0.1510,-0.0906,0.0419,329.90,-1.03,-2.85,0.0000,0.002500,0.000
1776964729.697272,dr,39.7375869413,-84.1764684961,244.8373,-0.1510,-0.0906,0.0426,330.04,-1.02,-2.84,0.0004,0.002500,0.002
1776964729.722283,dr,39.7375869209,-84.1764685402,244.8385,-0.1508,-0.0909,0.0492,329.67,-1.00,-2.83,0.0048,0.002500,0.027
1776964729.747052,dr,39.7375869004,-84.1764685842,244.8398,-0.1505,-0.0912,0.0565,329.25,-1.00,-2.81,0.0092,0.002500,0.052
1776964729.772372,dr,39.7375868798,-84.1764686280,244.8413,-0.1499,-0.0917,0.0644,328.80,-0.99,-2.78,0.0136,0.002500,0.077
1776964729.794299,gps,39.7375867467,-84.1764687033,244.8408,-0.1840,-0.2219,0.0366,328.22,-1.01,-2.75,0.0000,0.002500,0.001
1776964729.795327,dr,39.7375867417,-84.1764687087,244.8409,-0.1839,-0.2220,0.0374,328.36,-1.00,-2.74,0.0007,0.002500,0.002
1776964729.819646,dr,39.7375866916,-84.1764687623,244.8419,-0.1828,-0.2229,0.0466,327.84,-1.02,-2.67,0.0079,0.002500,0.026
1776964729.844529,dr,39.7375866414,-84.1764688154,244.8432,-0.1813,-0.2237,0.0562,327.29,-1.05,-2.59,0.0151,0.002500,0.051
1776964729.869673,dr,39.7375865910,-84.1764688681,244.8448,-0.1797,-0.2248,0.0664,326.72,-1.07,-2.48,0.0223,0.002500,0.076
1776964729.894500,gps,39.7375864533,-84.1764689033,244.8480,-0.1709,-0.3253,0.0719,325.98,-1.10,-2.37,0.0000,0.002500,0.000
1776964729.895390,dr,39.7375864460,-84.1764689083,244.8482,-0.1707,-0.3255,0.0729,326.12,-1.10,-2.36,0.0009,0.002500,0.002
1776964729.919365,dr,39.7375863726,-84.1764689579,244.8501,-0.1687,-0.3269,0.0839,325.50,-1.13,-2.23,0.0101,0.002500,0.026
1776964729.943934,dr,39.7375862989,-84.1764690069,244.8524,-0.1667,-0.3285,0.0950,324.86,-1.17,-2.10,0.0193,0.002500,0.050
1776964729.968795,dr,39.7375862248,-84.1764690553,244.8549,-0.1647,-0.3304,0.1061,324.23,-1.20,-1.96,0.0285,0.002500,0.075
1776964729.994657,dr,39.7375861502,-84.1764691031,244.8577,-0.1626,-0.3326,0.1171,323.60,-1.24,-1.82,0.0378,0.002500,0.101
1776964729.998850,gps,39.7375860250,-84.1764690783,244.8495,-0.1436,-0.4562,0.0144,323.33,-1.26,-1.80,0.0000,0.002500,0.000
1776964730.000579,dr,39.7375860147,-84.1764690825,244.8495,-0.1434,-0.4564,0.0155,323.47,-1.25,-1.79,0.0012,0.002500,0.003
1776964730.023949,dr,39.7375859118,-84.1764691241,244.8501,-0.1411,-0.4589,0.0260,322.87,-1.30,-1.64,0.0132,0.002500,0.026
1776964730.049044,dr,39.7375858082,-84.1764691650,244.8508,-0.1388,-0.4617,0.0361,322.29,-1.36,-1.49,0.0252,0.002500,0.051
1776964730.073875,dr,39.7375857040,-84.1764692051,244.8519,-0.1364,-0.4648,0.0456,321.75,-1.44,-1.32,0.0373,0.002500,0.076
1776964730.095098,gps,39.7375854550,-84.1764692633,244.8706,-0.1645,-0.6582,0.2192,321.14,-1.52,-1.18,0.0000,0.002500,0.000
1776964730.096453,dr,39.7375854402,-84.1764692681,244.8711,-0.1643,-0.6585,0.2201,321.28,-1.52,-1.17,0.0017,0.002500,0.002
1776964730.121380,dr,39.7375852917,-84.1764693157,244.8768,-0.1617,-0.6619,0.2287,320.79,-1.62,-0.99,0.0187,0.002500,0.027
1776964730.145793,dr,39.7375851424,-84.1764693626,244.8826,-0.1590,-0.6655,0.2366,320.33,-1.72,-0.81,0.0358,0.002500,0.051
1776964730.171148,dr,39.7375849923,-84.1764694086,244.8886,-0.1560,-0.6690,0.2440,319.91,-1.84,-0.64,0.0529,0.002500,0.077
1776964730.194907,gps,39.7375847017,-84.1764693900,244.8662,-0.1086,-0.8388,-0.0441,319.38,-1.99,-0.46,0.0000,0.002500,0.000
1776964730.196035,dr,39.7375846828,-84.1764693932,244.8661,-0.1083,-0.8392,-0.0435,319.53,-1.98,-0.45,0.0021,0.002500,0.002
1776964730.221097,dr,39.7375844936,-84.1764694242,244.8651,-0.1044,-0.8428,-0.0373,319.17,-2.13,-0.25,0.0233,0.002500,0.027
1776964730.245550,dr,39.7375843036,-84.1764694541,244.8642,-0.0999,-0.8462,-0.0318,318.86,-2.30,-0.02,0.0446,0.002500,0.052
1776964730.270947,dr,39.7375841129,-84.1764694825,244.8635,-0.0945,-0.8495,-0.0266,318.56,-2.46,0.27,0.0659,0.002500,0.077
1776964730.295462,gps,39.7375837767,-84.1764694583,244.8500,-0.0582,-1.0223,-0.1611,318.12,-2.61,0.59,0.0000,0.002500,0.000
1776964730.296401,dr,39.7375837537,-84.1764694600,244.8496,-0.0576,-1.0226,-0.1606,318.27,-2.61,0.59,0.0026,0.002500,0.002
1776964730.320905,dr,39.7375835233,-84.1764694759,244.8456,-0.0510,-1.0252,-0.1557,317.98,-2.75,0.93,0.0282,0.002500,0.026
1776964730.345722,dr,39.7375832925,-84.1764694898,244.8418,-0.0440,-1.0273,-0.1509,317.71,-2.87,1.31,0.0539,0.002500,0.051
1776964730.371138,dr,39.7375830612,-84.1764695016,244.8381,-0.0368,-1.0291,-0.1463,317.44,-2.99,1.71,0.0796,0.002500,0.077
1776964730.394155,gps,39.7375827233,-84.1764694433,244.8490,0.0130,-1.1861,-0.0101,317.01,-3.09,2.17,0.0000,0.002500,0.000
1776964730.395503,dr,39.7375826967,-84.1764694429,244.8490,0.0138,-1.1862,-0.0096,317.15,-3.10,2.16,0.0030,0.002500,0.002
1776964730.420153,dr,39.7375824297,-84.1764694378,244.8488,0.0212,-1.1872,-0.0041,316.83,-3.18,2.62,0.0326,0.002500,0.027
1776964730.445590,dr,39.7375821625,-84.1764694306,244.8488,0.0284,-1.1878,0.0024,316.47,-3.23,3.08,0.0623,0.002500,0.052
1776964730.470015,dr,39.7375818953,-84.1764694213,244.8489,0.0351,-1.1881,0.0097,316.05,-3.25,3.48,0.0920,0.002500,0.077
1776964730.496390,dr,39.7375816280,-84.1764694101,244.8493,0.0415,-1.1879,0.0178,315.60,-3.23,3.85,0.1218,0.002500,0.103
1776964730.499070,gps,39.7375816317,-84.1764693133,244.8472,0.1061,-1.1564,-0.0172,315.36,-3.22,3.94,0.0000,0.002500,0.000
1776964730.500066,dr,39.7375816057,-84.1764693102,244.8472,0.1067,-1.1563,-0.0163,315.50,-3.23,3.92,0.0029,0.002500,0.002
1776964730.524915,dr,39.7375813456,-84.1764692781,244.8469,0.1129,-1.1558,-0.0075,315.00,-3.20,4.27,0.0319,0.002500,0.027
1776964730.550009,dr,39.7375810856,-84.1764692443,244.8468,0.1188,-1.1551,0.0021,314.46,-3.15,4.63,0.0610,0.002500,0.052
1776964730.574989,dr,39.7375808259,-84.1764692088,244.8470,0.1239,-1.1542,0.0127,313.87,-3.08,4.95,0.0900,0.002500,0.077
1776964730.594424,gps,39.7375807317,-84.1764694933,244.8485,-0.1616,-1.0489,0.0136,313.22,-2.98,5.21,0.0000,0.002500,0.001
1776964730.595391,dr,39.7375807081,-84.1764694980,244.8485,-0.1611,-1.0488,0.0148,313.35,-2.99,5.20,0.0027,0.002500,0.002
1776964730.619853,dr,39.7375804723,-84.1764695445,244.8491,-0.1571,-1.0473,0.0268,312.67,-2.86,5.45,0.0292,0.002500,0.026
1776964730.644819,dr,39.7375802369,-84.1764695899,244.8499,-0.1535,-1.0456,0.0395,311.96,-2.72,5.69,0.0556,0.002500,0.052
1776964730.669639,dr,39.7375800019,-84.1764696343,244.8510,-0.1507,-1.0434,0.0525,311.23,-2.56,5.90,0.0820,0.002500,0.076
1776964730.694405,dr,39.7375797674,-84.1764696780,244.8525,-0.1486,-1.0413,0.0658,310.48,-2.39,6.08,0.1083,0.002500,0.101
1776964730.695800,gps,39.7375798933,-84.1764697200,244.8445,-0.1914,-0.9190,-0.0395,310.27,-2.35,6.11,0.0000,0.002500,0.000
1776964730.697142,dr,39.7375798727,-84.1764697256,244.8444,-0.1912,-0.9188,-0.0381,310.41,-2.37,6.10,0.0023,0.002500,0.002
1776964730.721715,dr,39.7375796662,-84.1764697812,244.8436,-0.1901,-0.9164,-0.0246,309.65,-2.18,6.23,0.0258,0.002500,0.027
1776964730.746670,dr,39.7375794604,-84.1764698367,244.8432,-0.1898,-0.9139,-0.0112,308.90,-1.97,6.31,0.0491,0.002500,0.052
1776964730.771632,dr,39.7375792551,-84.1764698922,244.8431,-0.1901,-0.9114,0.0024,308.14,-1.75,6.36,0.0724,0.002500,0.077
1776964730.796316,gps,39.7375790067,-84.1764698500,244.8102,-0.1107,-0.9803,-0.3412,307.26,-1.49,6.36,0.0000,0.002500,0.000
1776964730.797194,dr,39.7375789846,-84.1764698532,244.8093,-0.1109,-0.9801,-0.3399,307.40,-1.51,6.36,0.0025,0.002500,0.002
1776964730.822488,dr,39.7375787644,-84.1764698859,244.8010,-0.1127,-0.9776,-0.3266,306.66,-1.27,6.31,0.0271,0.002500,0.027
1776964730.846509,dr,39.7375785448,-84.1764699191,244.7930,-0.1152,-0.9754,-0.3133,305.91,-1.03,6.21,0.0517,0.002500,0.051
1776964730.871450,dr,39.7375783256,-84.1764699532,244.7854,-0.1182,-0.9733,-0.3000,305.17,-0.81,6.08,0.0762,0.002500,0.076
1776964730.895232,gps,39.7375780283,-84.1764699250,244.7750,-0.0649,-1.0992,-0.3559,304.28,-0.57,5.91,0.0000,0.002500,0.000
1776964730.896677,dr,39.7375780036,-84.1764699269,244.7741,-0.0652,-1.0990,-0.3545,304.41,-0.59,5.92,0.0028,0.002500,0.003
1776964730.921394,dr,39.7375777566,-84.1764699465,244.7654,-0.0689,-1.0975,-0.3406,303.63,-0.39,5.73,0.0303,0.002500,0.027
1776964730.946005,dr,39.7375775098,-84.1764699671,244.7571,-0.0727,-1.0963,-0.3265,302.85,-0.20,5.53,0.0577,0.002500,0.052
1776964730.971215,dr,39.7375772633,-84.1764699889,244.7491,-0.0766,-1.0953,-0.3121,302.03,-0.04,5.33,0.0852,0.002500,0.077
1776964730.996059,gps,39.7375769300,-84.1764700583,244.7519,-0.1132,-1.2106,-0.2291,301.09,0.13,5.10,0.0000,0.002500,0.000
1776964730.997183,dr,39.7375769028,-84.1764700616,244.7513,-0.1136,-1.2106,-0.2277,301.23,0.11,5.11,0.0030,0.002500,0.002
1776964731.021105,dr,39.7375766305,-84.1764700954,244.7458,-0.1178,-1.2104,-0.2132,300.41,0.24,4.88,0.0334,0.002500,0.026
1776964731.045955,dr,39.7375763582,-84.1764701304,244.7407,-0.1219,-1.2105,-0.1990,299.61,0.34,4.65,0.0638,0.002500,0.051
1776964731.070661,dr,39.7375760858,-84.1764701667,244.7359,-0.1262,-1.2108,-0.1855,298.84,0.42,4.41,0.0943,0.002500,0.076
1776964731.095613,gps,39.7375756800,-84.1764702033,244.7218,-0.1247,-1.3954,-0.3023,297.94,0.49,4.16,0.0000,0.002500,0.000
1776964731.096491,dr,39.7375756486,-84.1764702070,244.7210,-0.1251,-1.3954,-0.3011,298.09,0.48,4.16,0.0035,0.002500,0.002
1776964731.120744,dr,39.7375753347,-84.1764702442,244.7137,-0.1295,-1.3956,-0.2886,297.38,0.53,3.91,0.0385,0.002500,0.026
1776964731.145656,dr,39.7375750207,-84.1764702827,244.7066,-0.1341,-1.3958,-0.2766,296.70,0.57,3.65,0.0736,0.002500,0.051
1776964731.170334,dr,39.7375747067,-84.1764703225,244.6998,-0.1387,-1.3959,-0.2649,296.04,0.61,3.37,0.1086,0.002500,0.076
1776964731.195780,dr,39.7375743927,-84.1764703636,244.6934,-0.1429,-1.3955,-0.2541,295.42,0.65,3.09,0.1437,0.002500,0.101
1776964731.197020,gps,39.7375743317,-84.1764703283,244.6618,-0.1055,-1.4777,-0.5917,295.18,0.64,3.08,0.0000,0.002500,0.000
1776964731.198320,dr,39.7375742984,-84.1764703314,244.6603,-0.1059,-1.4776,-0.5907,295.36,0.66,3.06,0.0037,0.002500,0.002
1776964731.222947,dr,39.7375739662,-84.1764703629,244.6457,-0.1092,-1.4764,-0.5810,294.79,0.71,2.83,0.0407,0.002500,0.027
1776964731.247905,dr,39.7375736342,-84.1764703952,244.6313,-0.1121,-1.4746,-0.5723,294.29,0.80,2.64,0.0777,0.002500,0.052
1776964731.272616,dr,39.7375733027,-84.1764704283,244.6171,-0.1147,-1.4728,-0.5643,293.83,0.90,2.47,0.1147,0.002500,0.076
1776964731.295463,gps,39.7375730117,-84.1764704067,244.6268,-0.0681,-1.4901,-0.3555,293.24,1.02,2.31,0.0000,0.002500,0.001
1776964731.297523,dr,39.7375729781,-84.1764704087,244.6259,-0.0684,-1.4900,-0.3548,293.39,1.02,2.31,0.0037,0.002500,0.003
1776964731.322482,dr,39.7375726432,-84.1764704290,244.6171,-0.0709,-1.4880,-0.3476,292.98,1.13,2.14,0.0410,0.002500,0.028
1776964731.347832,dr,39.7375723087,-84.1764704501,244.6085,-0.0733,-1.4861,-0.3405,292.58,1.23,1.99,0.0782,0.002500,0.053
1776964731.372491,dr,39.7375719746,-84.1764704718,244.6001,-0.0756,-1.4841,-0.3330,292.16,1.33,1.84,0.1154,0.002500,0.078
1776964731.397772,dr,39.7375716409,-84.1764704944,244.5919,-0.0785,-1.4821,-0.3249,291.70,1.40,1.63,0.1525,0.002500,0.103
1776964731.400089,gps,39.7375718500,-84.1764703617,244.6157,0.0368,-1.2339,-0.1061,291.50,1.41,1.64,0.0000,0.002500,0.001
1776964731.401356,dr,39.7375718222,-84.1764703606,244.6154,0.0367,-1.2337,-0.1053,291.65,1.41,1.62,0.0031,0.002500,0.002
1776964731.425053,dr,39.7375715450,-84.1764703501,244.6129,0.0350,-1.2315,-0.0969,291.17,1.48,1.50,0.0339,0.002500,0.026
1776964731.449805,dr,39.7375712682,-84.1764703401,244.6106,0.0332,-1.2287,-0.0879,290.66,1.59,1.38,0.0647,0.002500,0.051
1776964731.475043,dr,39.7375709921,-84.1764703307,244.6085,0.0315,-1.2262,-0.0787,290.13,1.72,1.26,0.0954,0.002500,0.076
1776964731.499849,gps,39.7375707317,-84.1764703317,244.6367,0.0257,-1.2458,0.2105,289.48,1.82,1.14,0.0000,0.002500,0.004
1776964731.502046,dr,39.7375707036,-84.1764703309,244.6372,0.0256,-1.2456,0.2114,289.61,1.83,1.13,0.0031,0.002500,0.007
1776964731.524859,dr,39.7375704238,-84.1764703237,244.6426,0.0235,-1.2423,0.2202,289.11,1.98,0.97,0.0342,0.002500,0.026
1776964731.549691,dr,39.7375701447,-84.1764703170,244.6482,0.0227,-1.2394,0.2281,288.65,2.13,0.86,0.0652,0.002500,0.050
1776964731.574776,dr,39.7375698661,-84.1764703104,244.6540,0.0226,-1.2366,0.2358,288.21,2.28,0.82,0.0962,0.002500,0.076
1776964731.598528,gps,39.7375697117,-84.1764702567,244.6243,0.0651,-1.1487,-0.1257,287.58,2.38,0.78,0.0000,0.002500,0.001
1776964731.599815,dr,39.7375696858,-84.1764702548,244.6240,0.0652,-1.1489,-0.1244,287.70,2.38,0.78,0.0029,0.002500,0.002
1776964731.624542,dr,39.7375694272,-84.1764702353,244.6211,0.0689,-1.1510,-0.1076,286.77,2.28,0.88,0.0317,0.002500,0.027
1776964731.649711,dr,39.7375691680,-84.1764702145,244.6186,0.0729,-1.1534,-0.0940,285.96,2.15,1.05,0.0605,0.002500,0.052
1776964731.674794,dr,39.7375689084,-84.1764701929,244.6163,0.0750,-1.1544,-0.0871,285.53,2.10,1.13,0.0894,0.002500,0.077
1776964731.696903,gps,39.7375686917,-84.1764700583,244.6219,0.1726,-1.1523,-0.0244,284.98,2.01,1.26,0.0000,0.002500,0.001
1776964731.698204,dr,39.7375686657,-84.1764700533,244.6218,0.1731,-1.1526,-0.0234,285.12,2.00,1.27,0.0029,0.002500,0.002
1776964731.722074,dr,39.7375684062,-84.1764700020,244.6214,0.1779,-1.1553,-0.0154,284.64,1.86,1.53,0.0321,0.002500,0.026
1776964731.746540,dr,39.7375681460,-84.1764699495,244.6210,0.1819,-1.1577,-0.0124,284.45,1.75,1.76,0.0614,0.002500,0.050
1776964731.771470,dr,39.7375678853,-84.1764698959,244.6208,0.1853,-1.1600,-0.0091,284.27,1.63,1.96,0.0907,0.002500,0.075
1776964731.796676,dr,39.7375676240,-84.1764698411,244.6206,0.1897,-1.1628,-0.0056,284.05,1.48,2.20,0.1201,0.002500,0.101
1776964731.798958,gps,39.7375676950,-84.1764698133,244.6168,0.2055,-1.0853,-0.0500,283.89,1.47,2.22,0.0000,0.002500,0.001
1776964731.799125,dr,39.7375676706,-84.1764698073,244.6167,0.2059,-1.0856,-0.0499,284.05,1.47,2.23,0.0028,0.002500,0.001
1776964731.824673,dr,39.7375674261,-84.1764697467,244.6154,0.2095,-1.0878,-0.0512,284.10,1.36,2.42,0.0304,0.002500,0.027
1776964731.849118,dr,39.7375671812,-84.1764696850,244.6141,0.2129,-1.0900,-0.0520,284.15,1.22,2.59,0.0582,0.002500,0.051
1776964731.874611,dr,39.7375669357,-84.1764696223,244.6128,0.2166,-1.0920,-0.0541,284.24,1.07,2.79,0.0860,0.002500,0.077
1776964731.894831,gps,39.7375667467,-84.1764695467,244.6148,0.2381,-1.0993,-0.0209,284.35,0.99,3.00,0.0000,0.002500,0.001
1776964731.896321,dr,39.7375667219,-84.1764695397,244.6147,0.2385,-1.0993,-0.0214,284.52,0.98,3.00,0.0028,0.002500,0.002
1776964731.921378,dr,39.7375664745,-84.1764694695,244.6142,0.2424,-1.1002,-0.0259,284.77,0.93,3.22,0.0310,0.002500,0.027
1776964731.946270,dr,39.7375662269,-84.1764693982,244.6134,0.2458,-1.1011,-0.0311,285.03,0.87,3.42,0.0591,0.002500,0.053
1776964731.972128,dr,39.7375659792,-84.1764693259,244.6126,0.2491,-1.1016,-0.0392,285.46,0.82,3.64,0.0874,0.002500,0.078
1776964731.995609,gps,39.7375659000,-84.1764692767,244.6382,0.2293,-0.9337,0.2322,285.65,0.81,3.87,0.0000,0.002500,0.001
1776964731.996761,dr,39.7375658790,-84.1764692700,244.6388,0.2297,-0.9337,0.2316,285.79,0.79,3.88,0.0024,0.002500,0.002
1776964732.020774,dr,39.7375656689,-84.1764692024,244.6445,0.2325,-0.9342,0.2250,286.13,0.74,4.06,0.0265,0.002500,0.027
1776964732.046213,dr,39.7375654587,-84.1764691342,244.6500,0.2350,-0.9348,0.2178,286.54,0.66,4.21,0.0505,0.002500,0.052
1776964732.071315,dr,39.7375652484,-84.1764690652,244.6554,0.2365,-0.9347,0.2116,286.89,0.60,4.32,0.0746,0.002500,0.077
1776964732.094327,gps,39.7375651250,-84.1764692033,244.6728,0.0636,-0.8725,0.3505,287.12,0.55,4.49,0.0000,0.002500,0.001
1776964732.096018,dr,39.7375651054,-84.1764692015,244.6737,0.0638,-0.8724,0.3499,287.23,0.55,4.48,0.0022,0.002500,0.002
1776964732.120940,dr,39.7375649092,-84.1764691825,244.6823,0.0663,-0.8719,0.3436,287.59,0.53,4.62,0.0241,0.002500,0.028
1776964732.145607,dr,39.7375647131,-84.1764691628,244.6909,0.0686,-0.8716,0.3378,287.93,0.53,4.75,0.0459,0.002500,0.052
1776964732.170844,dr,39.7375645170,-84.1764691426,244.6992,0.0697,-0.8710,0.3325,288.24,0.53,4.82,0.0678,0.002500,0.078
1776964732.195124,gps,39.7375643550,-84.1764692017,244.6921,0.0014,-0.8490,0.1915,288.42,0.55,4.89,0.0000,0.002500,0.001
1776964732.196380,dr,39.7375643359,-84.1764692016,244.6926,0.0017,-0.8489,0.1909,288.54,0.54,4.89,0.0021,0.002500,0.002
1776964732.220600,dr,39.7375641450,-84.1764692008,244.6973,0.0041,-0.8485,0.1855,288.85,0.54,5.04,0.0233,0.002500,0.026
1776964732.245634,dr,39.7375639541,-84.1764691993,244.7019,0.0060,-0.8484,0.1814,289.10,0.53,5.18,0.0446,0.002500,0.052
1776964732.270433,dr,39.7375637632,-84.1764691973,244.7064,0.0077,-0.8492,0.1779,289.30,0.49,5.31,0.0658,0.002500,0.076
1776964732.294538,gps,39.7375635883,-84.1764690817,244.6837,0.1033,-0.8570,-0.0845,289.34,0.47,5.36,0.0000,0.002500,0.000
1776964732.295892,dr,39.7375635691,-84.1764690786,244.6835,0.1034,-0.8572,-0.0848,289.47,0.45,5.38,0.0022,0.002500,0.002
1776964732.320033,dr,39.7375633761,-84.1764690485,244.6813,0.1031,-0.8588,-0.0865,289.57,0.38,5.41,0.0238,0.002500,0.026
1776964732.345043,dr,39.7375631826,-84.1764690185,244.6792,0.1021,-0.8609,-0.0874,289.62,0.31,5.39,0.0454,0.002500,0.051
1776964732.369965,dr,39.7375629887,-84.1764689889,244.6770,0.1002,-0.8635,-0.0882,289.66,0.19,5.32,0.0671,0.002500,0.076
1776964732.394431,gps,39.7375626567,-84.1764689867,244.6629,0.0814,-1.0365,-0.2082,289.51,0.07,5.20,0.0000,0.002500,0.000
1776964732.395738,dr,39.7375626333,-84.1764689843,244.6624,0.0811,-1.0368,-0.2082,289.64,0.05,5.21,0.0026,0.002500,0.002
1776964732.420052,dr,39.7375623997,-84.1764689610,244.6572,0.0783,-1.0402,-0.2071,289.57,-0.11,5.08,0.0286,0.002500,0.027
1776964732.445158,dr,39.7375621654,-84.1764689386,244.6520,0.0750,-1.0437,-0.2058,289.49,-0.27,4.92,0.0548,0.002500,0.052
1776964732.470079,dr,39.7375619302,-84.1764689172,244.6469,0.0712,-1.0474,-0.2033,289.34,-0.44,4.73,0.0810,0.002500,0.077
1776964732.495112,dr,39.7375616941,-84.1764688970,244.6419,0.0672,-1.0511,-0.2002,289.15,-0.61,4.53,0.1072,0.002500,0.102
1776964732.495437,gps,39.7375616133,-84.1764689767,244.6464,0.0085,-1.1479,-0.1634,288.98,-0.61,4.50,0.0000,0.002500,0.001
1776964732.498434,dr,39.7375615875,-84.1764689764,244.6460,0.0080,-1.1483,-0.1631,289.14,-0.63,4.51,0.0029,0.002500,0.004
1776964732.522367,dr,39.7375613288,-84.1764689747,244.6420,0.0042,-1.1516,-0.1600,288.95,-0.79,4.32,0.0316,0.002500,0.028
1776964732.548090,dr,39.7375610694,-84.1764689740,244.6380,-0.0000,-1.1549,-0.1562,288.73,-0.95,4.11,0.0605,0.002500,0.054
1776964732.572333,dr,39.7375608092,-84.1764689747,244.6341,-0.0042,-1.1578,-0.1520,288.48,-1.10,3.90,0.0894,0.002500,0.078
1776964732.596283,gps,39.7375604567,-84.1764690033,244.6257,-0.0226,-1.2747,-0.2053,288.06,-1.19,3.71,0.0000,0.002500,0.000
1776964732.597159,dr,39.7375604280,-84.1764690040,244.6252,-0.0231,-1.2749,-0.2048,288.22,-1.22,3.71,0.0032,0.002500,0.001
1776964732.621996,dr,39.7375601409,-84.1764690113,244.6201,-0.0269,-1.2770,-0.1990,287.90,-1.31,3.58,0.0351,0.002500,0.027
1776964732.646878,dr,39.7375598535,-84.1764690198,244.6152,-0.0314,-1.2791,-0.1925,287.53,-1.37,3.40,0.0671,0.002500,0.051
1776964732.671828,dr,39.7375595654,-84.1764690298,244.6105,-0.0373,-1.2817,-0.1859,287.16,-1.46,3.07,0.0991,0.002500,0.077
1776964732.696413,gps,39.7375592383,-84.1764691800,244.6050,-0.1510,-1.3522,-0.2067,286.61,-1.57,2.75,0.0000,0.002500,0.000
1776964732.697118,dr,39.7375592079,-84.1764691844,244.6045,-0.1514,-1.3523,-0.2062,286.79,-1.55,2.72,0.0034,0.002500,0.002
1776964732.721609,dr,39.7375589037,-84.1764692290,244.5994,-0.1539,-1.3524,-0.2021,286.54,-1.58,2.56,0.0374,0.002500,0.027
1776964732.746563,dr,39.7375585995,-84.1764692744,244.5944,-0.1564,-1.3517,-0.2002,286.41,-1.55,2.38,0.0715,0.002500,0.052
1776964732.771477,dr,39.7375582955,-84.1764693203,244.5894,-0.1581,-1.3505,-0.2001,286.40,-1.52,2.23,0.1055,0.002500,0.076
1776964732.795761,gps,39.7375580050,-84.1764695183,244.6159,-0.2915,-1.3796,0.1097,286.27,-1.50,2.19,0.0000,0.002500,0.001
1776964732.796290,dr,39.7375579740,-84.1764695268,244.6162,-0.2915,-1.3794,0.1096,286.44,-1.48,2.15,0.0035,0.002500,0.001
1776964732.821628,dr,39.7375576640,-84.1764696119,244.6189,-0.2911,-1.3763,0.1085,286.50,-1.38,2.14,0.0387,0.002500,0.027
1776964732.846601,dr,39.7375573548,-84.1764696969,244.6216,-0.2910,-1.3730,0.1083,286.52,-1.25,2.14,0.0739,0.002500,0.052
1776964732.871442,dr,39.7375570463,-84.1764697817,244.6243,-0.2898,-1.3689,0.1093,286.46,-1.10,2.20,0.1089,0.002500,0.077
1776964732.895303,gps,39.7375570533,-84.1764694150,244.6425,0.0889,-1.0625,0.2672,286.23,-0.97,2.31,0.0000,0.002500,0.001
1776964732.897009,dr,39.7375570294,-84.1764694124,244.6432,0.0890,-1.0620,0.2674,286.37,-0.97,2.27,0.0027,0.002500,0.003
1776964732.921124,dr,39.7375567912,-84.1764693862,244.6499,0.0908,-1.0564,0.2697,286.24,-0.85,2.35,0.0292,0.002500,0.027
1776964732.946281,dr,39.7375565542,-84.1764693593,244.6567,0.0929,-1.0502,0.2719,286.11,-0.72,2.43,0.0557,0.002500,0.052
1776964732.970965,dr,39.7375563187,-84.1764693319,244.6635,0.0946,-1.0434,0.2735,286.02,-0.57,2.46,0.0820,0.002500,0.076
1776964732.995620,gps,39.7375562300,-84.1764694367,244.6466,-0.0185,-0.9121,0.0409,285.83,-0.31,2.52,0.0000,0.002500,0.001
1776964732.996676,dr,39.7375562095,-84.1764694372,244.6467,-0.0183,-0.9113,0.0409,285.95,-0.30,2.49,0.0023,0.002500,0.002
1776964733.020877,dr,39.7375560054,-84.1764694422,244.6477,-0.0157,-0.9033,0.0408,285.97,0.06,2.61,0.0250,0.002500,0.026
1776964733.046072,dr,39.7375558031,-84.1764694463,244.6487,-0.0129,-0.8949,0.0398,286.05,0.50,2.76,0.0474,0.002500,0.051
1776964733.070822,dr,39.7375556028,-84.1764694497,244.6497,-0.0100,-0.8865,0.0379,286.17,0.96,2.93,0.0697,0.002500,0.076
1776964733.093581,gps,39.7375556033,-84.1764693733,244.6299,0.0553,-0.7109,-0.1705,286.26,1.41,3.08,0.0000,0.002500,0.000
1776964733.095534,dr,39.7375555873,-84.1764693717,244.6295,0.0556,-0.7102,-0.1709,286.38,1.41,3.09,0.0018,0.002500,0.003
1776964733.120339,dr,39.7375554284,-84.1764693551,244.6252,0.0581,-0.7030,-0.1752,286.65,1.81,3.24,0.0195,0.002500,0.028
1776964733.145593,dr,39.7375552710,-84.1764693378,244.6207,0.0604,-0.6967,-0.1808,286.99,2.16,3.38,0.0371,0.002500,0.053
1776964733.170683,dr,39.7375551148,-84.1764693199,244.6161,0.0619,-0.6916,-0.1877,287.40,2.46,3.48,0.0545,0.002500,0.078
1776964733.194968,gps,39.7375550217,-84.1764692783,244.6195,0.0802,-0.6376,-0.1026,287.72,2.71,3.54,0.0000,0.002500,0.001
1776964733.196138,dr,39.7375550073,-84.1764692760,244.6192,0.0803,-0.6372,-0.1034,287.86,2.71,3.56,0.0016,0.002500,0.002
1776964733.220120,dr,39.7375548644,-84.1764692524,244.6165,0.0813,-0.6340,-0.1127,288.40,2.90,3.63,0.0176,0.002500,0.026
1776964733.245462,dr,39.7375547220,-84.1764692286,244.6136,0.0819,-0.6318,-0.1233,289.01,3.02,3.67,0.0336,0.002500,0.051
1776964733.270355,dr,39.7375545800,-84.1764692046,244.6104,0.0823,-0.6308,-0.1358,289.73,3.08,3.68,0.0495,0.002500,0.076
1776964733.294082,gps,39.7375543883,-84.1764690233,244.5878,0.2202,-0.7101,-0.3198,290.42,3.04,3.70,0.0000,0.002500,0.000
1776964733.295957,dr,39.7375543724,-84.1764690169,244.5870,0.2203,-0.7102,-0.3214,290.58,3.04,3.71,0.0019,0.002500,0.003
1776964733.320081,dr,39.7375542125,-84.1764689526,244.5788,0.2202,-0.7108,-0.3385,291.56,2.93,3.71,0.0205,0.002500,0.027
1776964733.345107,dr,39.7375540525,-84.1764688883,244.5701,0.2196,-0.7124,-0.3576,292.64,2.78,3.70,0.0391,0.002500,0.052
1776964733.369700,dr,39.7375538920,-84.1764688244,244.5609,0.2182,-0.7149,-0.3782,293.81,2.57,3.66,0.0577,0.002500,0.077
1776964733.394737,dr,39.7375537308,-84.1764687609,244.5511,0.2162,-0.7183,-0.4000,295.04,2.29,3.59,0.0764,0.002500,0.102
1776964733.397203,gps,39.7375538767,-84.1764686133,244.5612,0.3403,-0.5514,-0.2579,295.01,2.28,3.57,0.0000,0.002500,0.000
1776964733.398134,dr,39.7375538643,-84.1764686034,244.5606,0.3401,-0.5518,-0.2602,295.17,2.26,3.58,0.0016,0.002500,0.001
1776964733.422321,dr,39.7375537396,-84.1764685044,244.5538,0.3376,-0.5563,-0.2826,296.44,1.92,3.48,0.0179,0.002500,0.026
1776964733.447256,dr,39.7375536140,-84.1764684059,244.5464,0.3375,-0.5605,-0.3043,297.67,1.62,3.53,0.0342,0.002500,0.051
1776964733.471930,dr,39.7375534873,-84.1764683074,244.5386,0.3365,-0.5662,-0.3253,298.85,1.23,3.63,0.0506,0.002500,0.076
1776964733.494953,gps,39.7375533667,-84.1764682383,244.5534,0.3284,-0.5798,-0.0798,299.87,0.78,3.55,0.0000,0.002500,0.001
1776964733.497038,dr,39.7375533536,-84.1764682287,244.5532,0.3281,-0.5805,-0.0817,300.01,0.77,3.55,0.0017,0.002500,0.003
1776964733.522110,dr,39.7375532222,-84.1764681333,244.5509,0.3254,-0.5875,-0.1009,301.07,0.30,3.43,0.0184,0.002500,0.028
1776964733.546837,dr,39.7375530891,-84.1764680387,244.5482,0.3222,-0.5960,-0.1199,302.16,-0.23,3.29,0.0353,0.002500,0.053
1776964733.571974,dr,39.7375529541,-84.1764679453,244.5449,0.3171,-0.6044,-0.1371,303.11,-0.73,3.02,0.0523,0.002500,0.078
1776964733.594662,gps,39.7375527683,-84.1764679133,244.5376,0.2790,-0.6669,-0.1585,303.89,-1.20,2.70,0.0000,0.002500,0.001
1776964733.596540,dr,39.7375527533,-84.1764679052,244.5372,0.2786,-0.6679,-0.1601,304.02,-1.22,2.71,0.0018,0.002500,0.003
1776964733.621806,dr,39.7375526019,-84.1764678244,244.5330,0.2747,-0.6786,-0.1764,304.94,-1.81,2.51,0.0200,0.002500,0.028
1776964733.646400,dr,39.7375524480,-84.1764677447,244.5284,0.2708,-0.6900,-0.1895,305.68,-2.43,2.31,0.0384,0.002500,0.053
1776964733.671387,dr,39.7375522913,-84.1764676661,244.5235,0.2674,-0.7029,-0.2022,306.37,-3.10,2.17,0.0571,0.002500,0.078
1776964733.695553,gps,39.7375521233,-84.1764678850,244.5486,0.0240,-0.7105,0.1090,306.91,-3.77,1.89,0.0000,0.002500,0.001
1776964733.696766,dr,39.7375521073,-84.1764678843,244.5489,0.0236,-0.7118,0.1080,307.04,-3.78,1.90,0.0018,0.002500,0.002
1776964733.721386,dr,39.7375519457,-84.1764678781,244.5515,0.0190,-0.7255,0.0994,307.52,-4.50,1.63,0.0198,0.002500,0.026
1776964733.746526,dr,39.7375517809,-84.1764678732,244.5538,0.0145,-0.7397,0.0912,307.97,-5.24,1.38,0.0381,0.002500,0.052
1776964733.771374,dr,39.7375516129,-84.1764678696,244.5560,0.0100,-0.7541,0.0847,308.35,-6.00,1.11,0.0567,0.002500,0.077
1776964733.795466,gps,39.7375512283,-84.1764678133,244.5162,0.0614,-0.9955,-0.3243,308.46,-6.76,0.84,0.0000,0.002500,0.001
1776964733.796854,dr,39.7375512059,-84.1764678115,244.5154,0.0610,-0.9969,-0.3247,308.60,-6.77,0.84,0.0025,0.002500,0.002
1776964733.821382,dr,39.7375509801,-84.1764677943,244.5072,0.0571,-1.0111,-0.3291,308.84,-7.55,0.60,0.0276,0.002500,0.027
1776964733.846077,dr,39.7375507511,-84.1764677781,244.4990,0.0539,-1.0247,-0.3316,309.00,-8.30,0.43,0.0531,0.002500,0.052
1776964733.870773,dr,39.7375505191,-84.1764677628,244.4906,0.0508,-1.0377,-0.3333,309.10,-9.01,0.26,0.0789,0.002500,0.076
1776964733.893681,gps,39.7375502567,-84.1764679483,244.5259,-0.1177,-1.0995,0.0988,309.03,-9.63,0.14,0.0000,0.002500,0.001
1776964733.893863,dr,39.7375502319,-84.1764679518,244.5261,-0.1179,-1.1007,0.0987,309.18,-9.63,0.11,0.0028,0.002500,0.001
1776964733.918494,dr,39.7375499830,-84.1764679865,244.5286,-0.1196,-1.1118,0.0983,309.21,-10.30,-0.03,0.0306,0.002500,0.026
1776964733.943507,dr,39.7375497318,-84.1764680216,244.5311,-0.1203,-1.1216,0.0981,309.23,-10.88,-0.09,0.0587,0.002500,0.051
1776964733.968374,dr,39.7375494785,-84.1764680566,244.5335,-0.1197,-1.1301,0.0981,309.23,-11.40,-0.09,0.0870,0.002500,0.076
1776964733.993018,dr,39.7375492235,-84.1764680914,244.5360,-0.1184,-1.1367,0.0991,309.19,-11.82,0.00,0.1155,0.002500,0.100
1776964733.995900,gps,39.7375492067,-84.1764681550,244.5117,-0.1731,-1.1416,-0.1389,309.18,-11.86,0.01,0.0000,0.002500,0.001
1776964733.998114,dr,39.7375491810,-84.1764681601,244.5114,-0.1729,-1.1421,-0.1388,309.17,-11.89,0.02,0.0029,0.002500,0.003
1776964734.022746,dr,39.7375489235,-84.1764682103,244.5079,-0.1713,-1.1471,-0.1373,309.09,-12.20,0.16,0.0318,0.002500,0.028
1776964734.048132,dr,39.7375486650,-84.1764682602,244.5045,-0.1701,-1.1506,-0.1353,308.98,-12.41,0.26,0.0609,0.002500,0.053
1776964734.072981,dr,39.7375484059,-84.1764683097,244.5011,-0.1687,-1.1526,-0.1328,308.83,-12.55,0.36,0.0900,0.002500,0.078
1776964734.095200,gps,39.7375481967,-84.1764684200,244.5059,-0.2284,-1.1304,-0.0584,308.51,-12.61,0.54,0.0000,0.002500,0.001
1776964734.099118,dr,39.7375481712,-84.1764684267,244.5058,-0.2282,-1.1303,-0.0581,308.68,-12.61,0.48,0.0029,0.002500,0.005
1776964734.127645,dr,39.7375479171,-84.1764684929,244.5043,-0.2256,-1.1289,-0.0549,308.44,-12.56,0.71,0.0317,0.002500,0.033
1776964734.152815,dr,39.7375476634,-84.1764685585,244.5030,-0.2232,-1.1262,-0.0513,308.23,-12.43,0.88,0.0604,0.002500,0.058
1776964734.177512,dr,39.7375474105,-84.1764686233,244.5018,-0.2205,-1.1224,-0.0473,307.99,-12.26,1.06,0.0891,0.002500,0.083
1776964734.195452,gps,39.7375473083,-84.1764686033,244.5243,-0.1565,-0.9847,0.1835,307.66,-12.12,1.24,0.0000,0.002500,0.000
1776964734.196291,dr,39.7375472862,-84.1764686079,244.5248,-0.1562,-0.9843,0.1840,307.81,-12.12,1.19,0.0025,0.002500,0.001
1776964734.219733,dr,39.7375470653,-84.1764686531,244.5294,-0.1531,-0.9789,0.1892,307.52,-11.89,1.39,0.0273,0.002500,0.025
1776964734.245069,dr,39.7375468458,-84.1764686974,244.5342,-0.1506,-0.9728,0.1952,307.17,-11.61,1.58,0.0520,0.002500,0.051
1776964734.269654,dr,39.7375466277,-84.1764687409,244.5392,-0.1472,-0.9658,0.2020,306.78,-11.32,1.82,0.0765,0.002500,0.075
1776964734.294828,dr,39.7375464113,-84.1764687834,244.5443,-0.1439,-0.9581,0.2096,306.35,-11.00,2.06,0.1009,0.002500,0.100
1776964734.295005,gps,39.7375466050,-84.1764688200,244.5451,-0.1863,-0.7851,0.2089,306.35,-11.00,2.06,0.0000,0.002500,0.001
1776964734.297051,dr,39.7375465873,-84.1764688254,244.5456,-0.1860,-0.7843,0.2097,306.31,-10.96,2.08,0.0020,0.002500,0.003
1776964734.322507,dr,39.7375464118,-84.1764688792,244.5510,-0.1822,-0.7759,0.2182,305.83,-10.58,2.37,0.0221,0.002500,0.028
1776964734.347031,dr,39.7375462383,-84.1764689319,244.5565,-0.1788,-0.7670,0.2270,305.33,-10.12,2.64,0.0419,0.002500,0.053
1776964734.372169,dr,39.7375460668,-84.1764689837,244.5623,-0.1757,-0.7576,0.2362,304.83,-9.61,2.90,0.0614,0.002500,0.078
1776964734.393910,gps,39.7375460283,-84.1764689683,244.5614,-0.1284,-0.6480,0.1648,304.26,-9.13,3.13,0.0000,0.002500,0.000
1776964734.395930,dr,39.7375460138,-84.1764689721,244.5618,-0.1281,-0.6470,0.1657,304.39,-9.13,3.10,0.0017,0.002500,0.003
1776964734.419675,dr,39.7375458693,-84.1764690090,244.5661,-0.1247,-0.6372,0.1744,303.92,-8.57,3.34,0.0180,0.002500,0.027
1776964734.444459,dr,39.7375457271,-84.1764690448,244.5705,-0.1206,-0.6272,0.1827,303.47,-8.00,3.61,0.0341,0.002500,0.051
1776964734.469445,dr,39.7375455871,-84.1764690795,244.5752,-0.1166,-0.6173,0.1900,303.08,-7.43,3.86,0.0499,0.002500,0.076
1776964734.494297,dr,39.7375454493,-84.1764691129,244.5800,-0.1125,-0.6077,0.1966,302.73,-6.86,4.10,0.0655,0.002500,0.101
1776964734.495515,gps,39.7375455667,-84.1764691500,244.5736,-0.1531,-0.5050,0.1201,302.57,-6.80,4.14,0.0000,0.002500,0.000
1776964734.497000,dr,39.7375455553,-84.1764691545,244.5739,-0.1526,-0.5040,0.1207,302.70,-6.81,4.12,0.0013,0.002500,0.002
1776964734.521708,dr,39.7375454430,-84.1764691985,244.5770,-0.1489,-0.4949,0.1260,302.43,-6.28,4.34,0.0144,0.002500,0.027
1776964734.546487,dr,39.7375453326,-84.1764692414,244.5802,-0.1453,-0.4861,0.1303,302.21,-5.76,4.53,0.0272,0.002500,0.052
1776964734.571761,dr,39.7375452242,-84.1764692833,244.5835,-0.1417,-0.4776,0.1334,302.07,-5.27,4.72,0.0397,0.002500,0.078
1776964734.595617,gps,39.7375451117,-84.1764693050,244.5863,-0.1325,-0.5051,0.1269,301.90,-4.79,4.88,0.0000,0.002500,0.000
1776964734.596416,dr,39.7375451003,-84.1764693089,244.5866,-0.1322,-0.5044,0.1269,302.04,-4.79,4.87,0.0013,0.002500,0.002
1776964734.621740,dr,39.7375449877,-84.1764693470,244.5898,-0.1291,-0.4968,0.1264,302.09,-4.35,5.00,0.0142,0.002500,0.027
1776964734.646383,dr,39.7375448767,-84.1764693843,244.5929,-0.1263,-0.4899,0.1238,302.27,-3.95,5.12,0.0270,0.002500,0.052
1776964734.672090,dr,39.7375447672,-84.1764694208,244.5960,-0.1237,-0.4838,0.1191,302.57,-3.61,5.21,0.0395,0.002500,0.077
1776964734.695442,gps,39.7375447217,-84.1764694433,244.6226,-0.1186,-0.4342,0.3636,302.81,-3.34,5.30,0.0000,0.002500,0.000
1776964734.696280,dr,39.7375447119,-84.1764694468,244.6235,-0.1184,-0.4337,0.3629,302.96,-3.34,5.29,0.0011,0.002500,0.001
1776964734.721095,dr,39.7375446149,-84.1764694811,244.6325,-0.1167,-0.4291,0.3542,303.47,-3.14,5.34,0.0123,0.002500,0.027
1776964734.745941,dr,39.7375445188,-84.1764695151,244.6412,-0.1156,-0.4253,0.3435,304.09,-2.98,5.35,0.0234,0.002500,0.051
1776964734.770931,dr,39.7375444235,-84.1764695487,244.6496,-0.1149,-0.4220,0.3301,304.86,-2.86,5.34,0.0343,0.002500,0.076
1776964734.795099,gps,39.7375443333,-84.1764695033,244.6572,-0.0515,-0.4331,0.3472,305.61,-2.76,5.32,0.0000,0.002500,0.000
1776964734.796076,dr,39.7375443236,-84.1764695048,244.6581,-0.0516,-0.4329,0.3455,305.76,-2.79,5.32,0.0011,0.002500,0.002
1776964734.821051,dr,39.7375442264,-84.1764695201,244.6665,-0.0533,-0.4317,0.3272,306.79,-2.80,5.21,0.0120,0.002500,0.027
1776964734.846260,dr,39.7375441293,-84.1764695361,244.6744,-0.0564,-0.4316,0.3078,307.89,-2.88,5.04,0.0228,0.002500,0.052
1776964734.870476,dr,39.7375440321,-84.1764695532,244.6819,-0.0606,-0.4322,0.2879,309.02,-3.00,4.78,0.0337,0.002500,0.076
1776964734.894593,gps,39.7375439717,-84.1764695550,244.7042,-0.0445,-0.4040,0.4724,310.04,-3.11,4.42,0.0000,0.002500,0.000
1776964734.895968,dr,39.7375439626,-84.1764695563,244.7054,-0.0449,-0.4042,0.4703,310.18,-3.13,4.42,0.0010,0.002500,0.002
1776964734.920712,dr,39.7375438714,-84.1764695701,244.7169,-0.0503,-0.4066,0.4501,311.33,-3.34,4.08,0.0112,0.002500,0.027
1776964734.945263,dr,39.7375437796,-84.1764695856,244.7279,-0.0560,-0.4094,0.4298,312.47,-3.58,3.73,0.0215,0.002500,0.052
1776964734.970770,dr,39.7375436872,-84.1764696030,244.7384,-0.0634,-0.4122,0.4096,313.60,-3.79,3.29,0.0319,0.002500,0.077
1776964734.994866,gps,39.7375435717,-84.1764697983,244.7649,-0.2077,-0.4433,0.6054,314.58,-3.96,2.76,0.0000,0.002500,0.001
1776964734.996163,dr,39.7375435617,-84.1764698044,244.7664,-0.2086,-0.4436,0.6034,314.71,-3.97,2.76,0.0012,0.002500,0.002
1776964735.020256,dr,39.7375434615,-84.1764698665,244.7813,-0.2164,-0.4473,0.5840,315.81,-4.21,2.28,0.0136,0.002500,0.026
1776964735.045954,dr,39.7375433604,-84.1764699309,244.7956,-0.2245,-0.4515,0.5654,316.87,-4.46,1.79,0.0261,0.002500,0.052
1776964735.070000,dr,39.7375432583,-84.1764699977,244.8095,-0.2329,-0.4563,0.5477,317.89,-4.73,1.27,0.0388,0.002500,0.076
1776964735.095359,dr,39.7375431551,-84.1764700669,244.8230,-0.2413,-0.4618,0.5306,318.87,-5.03,0.78,0.0517,0.002500,0.101
1776964735.096447,gps,39.7375431383,-84.1764701633,244.7982,-0.3076,-0.4741,0.3278,318.83,-5.05,0.74,0.0000,0.002500,0.001
1776964735.098177,dr,39.7375431277,-84.1764701723,244.7990,-0.3084,-0.4746,0.3262,318.96,-5.06,0.73,0.0014,0.002500,0.003
1776964735.122681,dr,39.7375430203,-84.1764702637,244.8070,-0.3172,-0.4800,0.3110,319.84,-5.35,0.24,0.0157,0.002500,0.027
1776964735.147683,dr,39.7375429117,-84.1764703576,244.8146,-0.3262,-0.4856,0.2968,320.65,-5.64,-0.25,0.0302,0.002500,0.053
1776964735.172355,dr,39.7375428018,-84.1764704542,244.8218,-0.3355,-0.4914,0.2841,321.39,-5.93,-0.76,0.0449,0.002500,0.077
1776964735.194601,gps,39.7375426333,-84.1764707017,244.8346,-0.4695,-0.5718,0.3708,321.85,-6.19,-1.24,0.0000,0.002500,0.000
1776964735.195524,dr,39.7375426205,-84.1764707154,244.8355,-0.4704,-0.5724,0.3698,321.98,-6.20,-1.25,0.0019,0.002500,0.002
1776964735.219771,dr,39.7375424911,-84.1764708541,244.8446,-0.4795,-0.5781,0.3594,322.60,-6.51,-1.75,0.0205,0.002500,0.026
1776964735.244670,dr,39.7375423604,-84.1764709955,244.8535,-0.4887,-0.5838,0.3504,323.15,-6.79,-2.26,0.0394,0.002500,0.051
1776964735.269331,dr,39.7375422284,-84.1764711395,244.8622,-0.4978,-0.5893,0.3421,323.64,-7.06,-2.79,0.0586,0.002500,0.076
1776964735.294830,dr,39.7375420953,-84.1764712862,244.8706,-0.5062,-0.5945,0.3342,324.12,-7.32,-3.31,0.0780,0.002500,0.101
1776964735.296845,gps,39.7375421333,-84.1764715483,244.8887,-0.7089,-0.5435,0.5291,324.01,-7.35,-3.34,0.0000,0.002500,0.000
1776964735.297652,dr,39.7375421211,-84.1764715690,244.8900,-0.7096,-0.5440,0.5284,324.17,-7.34,-3.36,0.0022,0.002500,0.001
1776964735.321771,dr,39.7375419982,-84.1764717774,244.9031,-0.7167,-0.5488,0.5210,324.61,-7.60,-3.82,0.0247,0.002500,0.027
1776964735.346906,dr,39.7375418742,-84.1764719876,244.9161,-0.7227,-0.5533,0.5137,325.06,-7.84,-4.24,0.0474,0.002500,0.051
1776964735.371521,dr,39.7375417493,-84.1764721993,244.9288,-0.7272,-0.5569,0.5069,325.47,-8.04,-4.58,0.0702,0.002500,0.076
1776964735.395495,gps,39.7375415850,-84.1764724817,244.9252,-0.8099,-0.6177,0.3700,325.70,-8.20,-4.81,0.0000,0.002500,0.000
1776964735.396977,dr,39.7375415711,-84.1764725053,244.9261,-0.8102,-0.6180,0.3693,325.87,-8.19,-4.84,0.0025,0.002500,0.002
1776964735.421638,dr,39.7375414318,-84.1764727424,244.9353,-0.8129,-0.6202,0.3631,326.25,-8.29,-5.06,0.0281,0.002500,0.027
1776964735.446218,dr,39.7375412921,-84.1764729801,244.9443,-0.8149,-0.6217,0.3573,326.59,-8.36,-5.24,0.0537,0.002500,0.052
1776964735.471640,dr,39.7375411522,-84.1764732182,244.9531,-0.8155,-0.6223,0.3514,326.93,-8.38,-5.36,0.0793,0.002500,0.077
1776964735.495494,gps,39.7375410650,-84.1764732600,244.9343,-0.6663,-0.5779,0.0910,327.10,-8.41,-5.34,0.0000,0.002500,0.000
1776964735.496918,dr,39.7375410520,-84.1764732795,244.9345,-0.6661,-0.5778,0.0904,327.26,-8.39,-5.37,0.0022,0.002500,0.003
1776964735.521672,dr,39.7375409221,-84.1764734738,244.9367,-0.6645,-0.5770,0.0848,327.57,-8.33,-5.34,0.0242,0.002500,0.027
1776964735.546161,dr,39.7375407924,-84.1764736676,244.9388,-0.6624,-0.5757,0.0794,327.88,-8.24,-5.27,0.0462,0.002500,0.052
1776964735.571117,dr,39.7375406631,-84.1764738606,244.9407,-0.6597,-0.5740,0.0747,328.14,-8.15,-5.17,0.0681,0.002500,0.077
1776964735.594987,gps,39.7375406267,-84.1764739350,244.9819,-0.5808,-0.4896,0.4784,328.24,-8.06,-5.00,0.0000,0.002500,0.000
1776964735.596304,dr,39.7375406157,-84.1764739520,244.9831,-0.5804,-0.4894,0.4780,328.38,-8.04,-5.03,0.0019,0.002500,0.002
1776964735.620701,dr,39.7375405059,-84.1764741210,244.9950,-0.5775,-0.4868,0.4746,328.58,-7.91,-4.91,0.0208,0.002500,0.027
1776964735.645967,dr,39.7375403966,-84.1764742891,245.0068,-0.5736,-0.4841,0.4718,328.72,-7.78,-4.72,0.0397,0.002500,0.052
1776964735.670738,dr,39.7375402881,-84.1764744560,245.0186,-0.5697,-0.4812,0.4692,328.86,-7.63,-4.55,0.0584,0.002500,0.077
1776964735.695828,dr,39.7375401801,-84.1764746219,245.0303,-0.5656,-0.4785,0.4670,328.97,-7.48,-4.36,0.0769,0.002500,0.102
1776964735.697222,gps,39.7375402983,-84.1764745533,245.0283,-0.5177,-0.3569,0.4539,328.85,-7.48,-4.32,0.0000,0.002500,0.000
1776964735.698462,dr,39.7375402903,-84.1764745684,245.0294,-0.5173,-0.3566,0.4536,328.98,-7.46,-4.34,0.0016,0.002500,0.002
1776964735.722966,dr,39.7375402104,-84.1764747189,245.0407,-0.5130,-0.3539,0.4510,329.12,-7.30,-4.14,0.0172,0.002500,0.027
1776964735.748090,dr,39.7375401311,-84.1764748681,245.0520,-0.5088,-0.3507,0.4478,329.28,-7.10,-3.95,0.0327,0.002500,0.052
1776964735.773110,dr,39.7375400526,-84.1764750162,245.0631,-0.5050,-0.3475,0.4442,329.47,-6.87,-3.79,0.0481,0.002500,0.077
1776964735.794550,gps,39.7375399933,-84.1764750150,245.0326,-0.4060,-0.3483,0.0442,329.55,-6.76,-3.60,0.0000,0.002500,0.000
1776964735.795548,dr,39.7375399855,-84.1764750269,245.0327,-0.4055,-0.3481,0.0437,329.68,-6.74,-3.62,0.0013,0.002500,0.002
1776964735.820499,dr,39.7375399074,-84.1764751445,245.0337,-0.4003,-0.3466,0.0393,329.92,-6.64,-3.39,0.0146,0.002500,0.027
1776964735.845426,dr,39.7375398295,-84.1764752607,245.0347,-0.3951,-0.3454,0.0342,330.20,-6.55,-3.15,0.0278,0.002500,0.052
1776964735.869987,dr,39.7375397519,-84.1764753753,245.0355,-0.3895,-0.3449,0.0286,330.53,-6.48,-2.91,0.0409,0.002500,0.076
1776964735.894432,gps,39.7375396417,-84.1764754150,245.0328,-0.3428,-0.3913,0.0020,330.74,-6.45,-2.66,0.0000,0.002500,0.000
1776964735.895736,dr,39.7375396329,-84.1764754250,245.0328,-0.3423,-0.3912,0.0014,330.87,-6.44,-2.67,0.0013,0.002500,0.002
1776964735.920003,dr,39.7375395449,-84.1764755242,245.0328,-0.3370,-0.3910,-0.0052,331.25,-6.42,-2.45,0.0143,0.002500,0.027
1776964735.944827,dr,39.7375394569,-84.1764756218,245.0325,-0.3316,-0.3910,-0.0121,331.65,-6.42,-2.22,0.0271,0.002500,0.051
1776964735.969750,dr,39.7375393689,-84.1764757179,245.0321,-0.3262,-0.3914,-0.0195,332.08,-6.45,-1.99,0.0399,0.002500,0.076
1776964735.994760,dr,39.7375392809,-84.1764758124,245.0316,-0.3213,-0.3914,-0.0279,332.56,-6.43,-1.79,0.0526,0.002500,0.101
1776964735.996459,gps,39.7375392033,-84.1764756600,244.9881,-0.2056,-0.4775,-0.4381,332.46,-6.46,-1.76,0.0000,0.002500,0.000
1776964735.997903,dr,39.7375391926,-84.1764756660,244.9870,-0.2051,-0.4775,-0.4390,332.61,-6.43,-1.78,0.0013,0.002500,0.002
1776964736.022174,dr,39.7375390852,-84.1764757251,244.9759,-0.1997,-0.4779,-0.4486,333.17,-6.44,-1.57,0.0143,0.002500,0.027
1776964736.047311,dr,39.7375389775,-84.1764757826,244.9646,-0.1942,-0.4790,-0.4599,333.81,-6.49,-1.35,0.0272,0.002500,0.052
1776964736.072198,dr,39.7375388696,-84.1764758386,244.9529,-0.1891,-0.4800,-0.4721,334.51,-6.54,-1.16,0.0401,0.002500,0.077
1776964736.094488,gps,39.7375388567,-84.1764759250,245.0054,-0.2314,-0.3930,0.1765,335.02,-6.59,-0.97,0.0000,0.002500,0.000
1776964736.095290,dr,39.7375388478,-84.1764759318,245.0058,-0.2310,-0.3931,0.1751,335.19,-6.58,-0.99,0.0011,0.002500,0.001
1776964736.122189,dr,39.7375387504,-84.1764760052,245.0104,-0.2262,-0.3941,0.1584,336.14,-6.63,-0.83,0.0137,0.002500,0.029
1776964736.147096,dr,39.7375386617,-84.1764760707,245.0142,-0.2225,-0.3953,0.1413,337.10,-6.69,-0.72,0.0250,0.002500,0.054
1776964736.171910,dr,39.7375385726,-84.1764761352,245.0175,-0.2197,-0.3967,0.1225,338.16,-6.77,-0.67,0.0363,0.002500,0.078
1776964736.194264,gps,39.7375384067,-84.1764760517,245.0043,-0.1087,-0.5012,-0.0110,339.01,-6.86,-0.64,0.0000,0.002500,0.000
1776964736.194990,dr,39.7375383954,-84.1764760548,245.0043,-0.1086,-0.5014,-0.0129,339.15,-6.88,-0.68,0.0013,0.002500,0.001
1776964736.219001,dr,39.7375382825,-84.1764760865,245.0037,-0.1088,-0.5025,-0.0319,340.25,-6.98,-0.76,0.0141,0.002500,0.026
1776964736.244330,dr,39.7375381694,-84.1764761184,245.0027,-0.1101,-0.5029,-0.0508,341.34,-7.04,-0.92,0.0270,0.002500,0.051
1776964736.269241,dr,39.7375380561,-84.1764761509,245.0012,-0.1116,-0.5045,-0.0691,342.40,-7.16,-1.12,0.0399,0.002500,0.076
1776964736.294057,dr,39.7375379426,-84.1764761840,244.9992,-0.1151,-0.5048,-0.0871,343.43,-7.19,-1.44,0.0528,0.002500,0.101
1776964736.295571,gps,39.7375378867,-84.1764761917,244.9741,-0.1183,-0.5704,-0.2981,343.40,-7.19,-1.43,0.0000,0.002500,0.000
1776964736.297553,dr,39.7375378738,-84.1764761951,244.9734,-0.1186,-0.5705,-0.2999,343.54,-7.20,-1.46,0.0015,0.002500,0.003
1776964736.321494,dr,39.7375377454,-84.1764762304,244.9656,-0.1230,-0.5708,-0.3171,344.53,-7.23,-1.81,0.0160,0.002500,0.027
1776964736.346399,dr,39.7375376171,-84.1764762671,244.9575,-0.1285,-0.5698,-0.3339,345.49,-7.18,-2.20,0.0306,0.002500,0.052
1776964736.371145,dr,39.7375374891,-84.1764763055,244.9489,-0.1348,-0.5684,-0.3503,346.44,-7.07,-2.63,0.0452,0.002500,0.076
1776964736.395028,gps,39.7375373517,-84.1764765900,244.9512,-0.3428,-0.5978,-0.2302,347.23,-7.06,-3.04,0.0000,0.002500,0.001
1776964736.396600,dr,39.7375373382,-84.1764766000,244.9506,-0.3435,-0.5979,-0.2318,347.36,-7.07,-3.06,0.0017,0.002500,0.002
1776964736.421013,dr,39.7375372036,-84.1764767013,244.9446,-0.3504,-0.5988,-0.2477,348.27,-7.07,-3.51,0.0190,0.002500,0.027
1776964736.445859,dr,39.7375370688,-84.1764768047,244.9382,-0.3576,-0.6004,-0.2634,349.19,-7.10,-3.99,0.0364,0.002500,0.052
1776964736.470857,dr,39.7375369335,-84.1764769103,244.9315,-0.3654,-0.6021,-0.2788,350.08,-7.14,-4.49,0.0540,0.002500,0.077
1776964736.494979,gps,39.7375367200,-84.1764771033,244.8937,-0.4396,-0.7023,-0.5753,350.85,-7.19,-4.98,0.0000,0.002500,0.001
1776964736.496030,dr,39.7375367042,-84.1764771162,244.8923,-0.4405,-0.7024,-0.5768,350.98,-7.20,-5.00,0.0021,0.002500,0.002
1776964736.520672,dr,39.7375365460,-84.1764772461,244.8777,-0.4492,-0.7043,-0.5912,351.81,-7.23,-5.51,0.0229,0.002500,0.027
1776964736.545491,dr,39.7375363874,-84.1764773786,244.8627,-0.4583,-0.7059,-0.6051,352.62,-7.25,-6.05,0.0438,0.002500,0.051
1776964736.570779,dr,39.7375362284,-84.1764775138,244.8474,-0.4673,-0.7077,-0.6183,353.38,-7.26,-6.58,0.0650,0.002500,0.077
1776964736.595061,gps,39.7375362233,-84.1764778917,244.8609,-0.6743,-0.5515,-0.3277,353.97,-7.30,-7.06,0.0000,0.002500,0.000
1776964736.595962,dr,39.7375362109,-84.1764779114,244.8601,-0.6752,-0.5517,-0.3289,354.12,-7.30,-7.09,0.0022,0.002500,0.001
1776964736.620522,dr,39.7375360866,-84.1764781099,244.8517,-0.6842,-0.5533,-0.3411,354.82,-7.31,-7.63,0.0241,0.002500,0.026
1776964736.645479,dr,39.7375359620,-84.1764783110,244.8430,-0.6926,-0.5549,-0.3526,355.50,-7.33,-8.13,0.0462,0.002500,0.051
1776964736.670394,dr,39.7375358370,-84.1764785144,244.8341,-0.7003,-0.5565,-0.3637,356.14,-7.33,-8.60,0.0684,0.002500,0.076
1776964736.694173,gps,39.7375357650,-84.1764788967,244.8194,-0.8680,-0.5139,-0.4187,356.63,-7.34,-9.04,0.0000,0.002500,0.000
1776964736.695580,dr,39.7375357534,-84.1764789220,244.8184,-0.8687,-0.5141,-0.4198,356.78,-7.32,-9.06,0.0025,0.002500,0.002
1776964736.720295,dr,39.7375356376,-84.1764791766,244.8077,-0.8743,-0.5155,-0.4304,357.39,-7.31,-9.45,0.0278,0.002500,0.027
1776964736.745259,dr,39.7375355215,-84.1764794326,244.7968,-0.8783,-0.5170,-0.4409,357.99,-7.31,-9.77,0.0533,0.002500,0.052
1776964736.769833,dr,39.7375354051,-84.1764796895,244.7857,-0.8813,-0.5179,-0.4513,358.59,-7.30,-10.01,0.0788,0.002500,0.077
1776964736.795058,gps,39.7375353117,-84.1764800150,244.8000,-0.9489,-0.4994,-0.1923,359.00,-7.25,-10.17,0.0000,0.002500,0.001
1776964736.795323,dr,39.7375353004,-84.1764800427,244.7995,-0.9491,-0.4994,-0.1933,359.17,-7.21,-10.19,0.0027,0.002500,0.001
1776964736.820089,dr,39.7375351881,-84.1764803200,244.7946,-0.9497,-0.4997,-0.2040,359.78,-7.11,-10.32,0.0295,0.002500,0.026
1776964736.844558,dr,39.7375350756,-84.1764805973,244.7893,-0.9484,-0.5002,-0.2148,0.39,-7.02,-10.36,0.0563,0.002500,0.050
1776964736.869642,dr,39.7375349630,-84.1764808738,244.7838,-0.9451,-0.5010,-0.2257,1.01,-6.96,-10.27,0.0831,0.002500,0.076
1776964736.894723,dr,39.7375348502,-84.1764811491,244.7780,-0.9403,-0.5016,-0.2368,1.64,-6.90,-10.10,0.1098,0.002500,0.101
1776964736.896016,gps,39.7375347733,-84.1764810150,244.7569,-0.8479,-0.5926,-0.4269,1.55,-6.94,-10.05,0.0000,0.002500,0.000
1776964736.897289,dr,39.7375347600,-84.1764810398,244.7558,-0.8474,-0.5925,-0.4280,1.70,-6.89,-10.09,0.0026,0.002500,0.002
1776964736.922203,dr,39.7375346267,-84.1764812864,244.7450,-0.8415,-0.5924,-0.4385,2.30,-6.79,-9.84,0.0284,0.002500,0.027
1776964736.947145,dr,39.7375344935,-84.1764815312,244.7339,-0.8346,-0.5921,-0.4485,2.86,-6.68,-9.53,0.0540,0.002500,0.052
1776964736.972134,dr,39.7375343604,-84.1764817738,244.7226,-0.8268,-0.5915,-0.4578,3.39,-6.58,-9.17,0.0795,0.002500,0.077
1776964736.995559,gps,39.7375342950,-84.1764817233,244.6837,-0.6091,-0.5340,-0.7354,3.71,-6.51,-8.75,0.0000,0.002500,0.001
1776964736.997100,dr,39.7375342830,-84.1764817411,244.6819,-0.6082,-0.5340,-0.7361,3.85,-6.48,-8.78,0.0020,0.002500,0.002
1776964737.021599,dr,39.7375341630,-84.1764819174,244.6634,-0.5988,-0.5324,-0.7432,4.25,-6.38,-8.31,0.0222,0.002500,0.027
1776964737.046515,dr,39.7375340434,-84.1764820908,244.6447,-0.5889,-0.5309,-0.7493,4.59,-6.26,-7.81,0.0421,0.002500,0.052
1776964737.071849,dr,39.7375339242,-84.1764822613,244.6259,-0.5785,-0.5293,-0.7547,4.88,-6.16,-7.28,0.0618,0.002500,0.077
1776964737.095353,gps,39.7375338333,-84.1764823800,244.6258,-0.5633,-0.5141,-0.5802,5.03,-6.04,-6.71,0.0000,0.002500,0.001
1776964737.096437,dr,39.7375338218,-84.1764823964,244.6243,-0.5622,-0.5139,-0.5807,5.15,-6.02,-6.72,0.0019,0.002500,0.002
1776964737.121498,dr,39.7375337065,-84.1764825590,244.6098,-0.5513,-0.5111,-0.5857,5.42,-5.84,-6.15,0.0208,0.002500,0.027
1776964737.146239,dr,39.7375335917,-84.1764827184,244.5951,-0.5404,-0.5088,-0.5905,5.68,-5.68,-5.56,0.0395,0.002500,0.052
1776964737.171075,dr,39.7375334775,-84.1764828747,244.5802,-0.5297,-0.5073,-0.5956,5.96,-5.55,-4.98,0.0579,0.002500,0.077
1776964737.195320,gps,39.7375334733,-84.1764830567,244.5786,-0.5794,-0.4002,-0.4722,6.13,-5.49,-4.39,0.0000,0.002500,0.001
1776964737.196894,dr,39.7375334643,-84.1764830736,244.5774,-0.5784,-0.4001,-0.4727,6.26,-5.48,-4.40,0.0018,0.002500,0.003
1776964737.221242,dr,39.7375333744,-84.1764832410,244.5655,-0.5681,-0.3996,-0.4781,6.57,-5.44,-3.82,0.0192,0.002500,0.027
1776964737.245950,dr,39.7375332845,-84.1764834054,244.5535,-0.5583,-0.3994,-0.4834,6.88,-5.43,-3.25,0.0365,0.002500,0.052
1776964737.271065,dr,39.7375331947,-84.1764835672,244.5414,-0.5493,-0.3994,-0.4884,7.17,-5.42,-2.73,0.0536,0.002500,0.077
1776964737.295494,gps,39.7375331533,-84.1764837267,244.5772,-0.5725,-0.3550,-0.0140,7.35,-5.39,-2.24,0.0000,0.002500,0.001
1776964737.296707,dr,39.7375331453,-84.1764837434,244.5772,-0.5718,-0.3550,-0.0146,7.49,-5.39,-2.25,0.0017,0.002500,0.002
1776964737.320832,dr,39.7375330655,-84.1764839093,244.5767,-0.5646,-0.3547,-0.0205,7.83,-5.34,-1.84,0.0184,0.002500,0.026
1776964737.345904,dr,39.7375329857,-84.1764840732,244.5761,-0.5582,-0.3547,-0.0274,8.22,-5.29,-1.49,0.0350,0.002500,0.051
1776964737.370922,dr,39.7375329059,-84.1764842354,244.5753,-0.5525,-0.3550,-0.0358,8.71,-5.25,-1.20,0.0515,0.002500,0.076
1776964737.395634,gps,39.7375329800,-84.1764843283,244.5473,-0.5143,-0.1924,-0.2986,9.07,-5.24,-0.97,0.0000,0.002500,0.001
1776964737.396724,dr,39.7375329757,-84.1764843433,244.5466,-0.5139,-0.1924,-0.2996,9.24,-5.23,-0.98,0.0014,0.002500,0.002
1776964737.420650,dr,39.7375329324,-84.1764844928,244.5389,-0.5100,-0.1927,-0.3100,9.83,-5.21,-0.82,0.0150,0.002500,0.026
1776964737.445632,dr,39.7375328889,-84.1764846413,244.5310,-0.5067,-0.1933,-0.3214,10.49,-5.24,-0.70,0.0286,0.002500,0.051
1776964737.470532,dr,39.7375328454,-84.1764847889,244.5229,-0.5044,-0.1938,-0.3335,11.18,-5.26,-0.63,0.0422,0.002500,0.076
1776964737.495339,gps,39.7375327400,-84.1764850250,244.5685,-0.5981,-0.2675,0.2126,11.77,-5.27,-0.60,0.0000,0.002500,0.001
1776964737.496329,dr,39.7375327340,-84.1764850425,244.5690,-0.5980,-0.2675,0.2112,11.95,-5.27,-0.62,0.0016,0.002500,0.002
1776964737.520192,dr,39.7375326738,-84.1764852170,244.5741,-0.5975,-0.2677,0.1967,12.78,-5.28,-0.66,0.0180,0.002500,0.026
1776964737.545822,dr,39.7375326136,-84.1764853915,244.5789,-0.5979,-0.2672,0.1810,13.66,-5.25,-0.77,0.0344,0.002500,0.051
1776964737.570356,dr,39.7375325536,-84.1764855664,244.5832,-0.5996,-0.2665,0.1647,14.58,-5.23,-0.94,0.0508,0.002500,0.076
1776964737.594433,gps,39.7375324233,-84.1764858583,244.5681,-0.7199,-0.3551,-0.0040,15.35,-5.15,-1.13,0.0000,0.002500,0.001
1776964737.595592,dr,39.7375324153,-84.1764858794,244.5681,-0.7202,-0.3549,-0.0056,15.49,-5.15,-1.16,0.0020,0.002500,0.002
1776964737.620042,dr,39.7375323357,-84.1764860902,244.5677,-0.7237,-0.3529,-0.0214,16.39,-5.05,-1.44,0.0221,0.002500,0.027
1776964737.644898,dr,39.7375322567,-84.1764863021,244.5670,-0.7275,-0.3505,-0.0367,17.25,-4.91,-1.74,0.0423,0.002500,0.051
1776964737.669665,dr,39.7375321779,-84.1764865152,244.5659,-0.7316,-0.3488,-0.0513,18.09,-4.86,-2.05,0.0625,0.002500,0.076
1776964737.694960,dr,39.7375320998,-84.1764867294,244.5645,-0.7357,-0.3454,-0.0654,18.90,-4.64,-2.35,0.0828,0.002500,0.101
1776964737.695227,gps,39.7375321950,-84.1764866917,244.5849,-0.7077,-0.2518,0.1667,18.86,-4.63,-2.37,0.0000,0.002500,0.001
1776964737.697689,dr,39.7375321893,-84.1764867123,244.5853,-0.7082,-0.2515,0.1653,18.98,-4.61,-2.38,0.0019,0.002500,0.003
1776964737.722411,dr,39.7375321332,-84.1764869198,244.5893,-0.7120,-0.2472,0.1517,19.74,-4.35,-2.67,0.0207,0.002500,0.028
1776964737.747737,dr,39.7375320781,-84.1764871282,244.5929,-0.7151,-0.2421,0.1389,20.46,-4.03,-2.91,0.0396,0.002500,0.053
1776964737.772534,dr,39.7375320241,-84.1764873375,244.5962,-0.7185,-0.2389,0.1267,21.16,-3.80,-3.15,0.0585,0.002500,0.078
1776964737.794988,gps,39.7375320350,-84.1764874467,244.5793,-0.6478,-0.1782,-0.0561,21.75,-3.68,-3.37,0.0000,0.002500,0.001
1776964737.797175,dr,39.7375320310,-84.1764874656,244.5792,-0.6482,-0.1780,-0.0572,21.82,-3.66,-3.40,0.0017,0.002500,0.003
1776964737.822472,dr,39.7375319911,-84.1764876554,244.5776,-0.6519,-0.1771,-0.0679,22.43,-3.58,-3.64,0.0185,0.002500,0.028
1776964737.847166,dr,39.7375319513,-84.1764878463,244.5758,-0.6555,-0.1766,-0.0777,23.00,-3.54,-3.88,0.0355,0.002500,0.053
1776964737.871967,dr,39.7375319116,-84.1764880383,244.5737,-0.6592,-0.1761,-0.0867,23.52,-3.52,-4.08,0.0525,0.002500,0.078
1776964737.893959,gps,39.7375318583,-84.1764883133,244.5628,-0.7496,-0.1984,-0.1667,23.83,-3.46,-4.22,0.0000,0.002500,0.001
1776964737.894955,dr,39.7375318539,-84.1764883352,244.5624,-0.7500,-0.1982,-0.1675,23.96,-3.48,-4.24,0.0019,0.002500,0.002
1776964737.919333,dr,39.7375318094,-84.1764885548,244.5581,-0.7538,-0.1971,-0.1756,24.42,-3.41,-4.43,0.0214,0.002500,0.026
1776964737.944201,dr,39.7375317652,-84.1764887755,244.5536,-0.7573,-0.1961,-0.1833,24.87,-3.36,-4.59,0.0409,0.002500,0.051
1776964737.969785,dr,39.7375317212,-84.1764889972,244.5489,-0.7608,-0.1952,-0.1911,25.32,-3.32,-4.73,0.0605,0.002500,0.077
